first_seen_at_timestamp,first_seen_date,first_seen_weekday,first_seen_hour,category,location,lat,lon
2026-03-30T00:57:36,2026-03-30,1,0,Wilder Müll,In der Nähe von Nähterstraße 219/1,48.780551772413,9.225009682483
2026-03-30T00:57:36,2026-03-30,1,0,Straßenbeleuchtung,In der Nähe von Eckartstraße 20,48.795454027364,9.1917311465654
2026-03-30T00:57:36,2026-03-30,1,0,Wilder Müll,In der Nähe von Böhringerstraße 64,48.830772299113,9.1682128399348
2026-03-30T00:57:36,2026-03-30,1,0,Straßeneinlauf - verstopft,Augsburger Straße,48.802353472506,9.2334012928895
2026-03-30T00:57:36,2026-03-30,1,0,Poller,Hartwaldstraße,48.835701299774,9.2243441953996
2026-03-30T00:57:36,2026-03-30,1,0,Verkehrszeichen,In der Nähe von Dattelweg 47A,48.738711829158,9.2128336711355
2026-03-30T00:57:36,2026-03-30,1,0,Gefahrenstelle,Weidenbrunnen,48.844056318538,9.2344673064426
2026-03-30T00:57:36,2026-03-30,1,0,Wilder Müll,Wilhelmsplatz (M),48.771766388051,9.1784797500326
2026-03-30T00:57:36,2026-03-30,1,0,Verkehrszeichen,Lerchenstraße,48.782785954796,9.1667981576327
2026-03-30T00:57:36,2026-03-30,1,0,Straße - Verschmutzung,Johannesstraße,48.775936550492,9.1629371643446
2026-03-30T00:57:36,2026-03-30,1,0,Wilder Müll,In der Nähe von Echterdinger Straße 16,48.7018221,9.206305
2026-03-30T00:57:36,2026-03-30,1,0,Wilder Müll,In der Nähe von Bernsteinstraße Wendeplatte,48.738261644437,9.2256750240396
2026-03-30T00:57:36,2026-03-30,1,0,Sonstiges,In der Nähe von Relenbergstraße 6,48.78546187358,9.1722412722601
2026-03-30T00:57:36,2026-03-30,1,0,Wilder Müll,In der Nähe von Jägerhalde 83,48.776316572831,9.2290749073629
2026-03-30T00:57:36,2026-03-30,1,0,Gehweg - Schäden,Vogelsangstraße,48.773789527765,9.1473326821012
2026-03-30T00:57:36,2026-03-30,1,0,Schlagloch,Relenbergstraße,48.787833158494,9.1664745296122
2026-03-30T00:57:36,2026-03-30,1,0,Brunnen / Gewässer,In der Nähe von Nobileweg,48.841356326296,9.1545073900995
2026-03-30T00:57:36,2026-03-30,1,0,Brunnen / Gewässer,Tiefenbachstraße,48.756473405222,9.2199911033619
2026-03-30T00:57:36,2026-03-30,1,0,Sonstiges,Viereichenweg,48.744154120695,9.1092545127517
2026-03-30T00:57:36,2026-03-30,1,0,Sonstiges,Linzer Straße,48.812192481635,9.1547595432211
2026-03-30T00:57:36,2026-03-30,1,0,Gehweg - Verschmutzung,"In der Nähe von Langwiesen, Gew. 21",48.696983,9.2037302
2026-03-30T00:57:36,2026-03-30,1,0,Wilder Müll,In der Nähe von Bei den Funktürmen 51,48.733182544674,9.1750728622784
2026-03-30T00:57:36,2026-03-30,1,0,Wilder Müll,In der Nähe von Max-Eyth-See / Mühlhäuser Straße,48.833598912792,9.2122179489338
2026-03-30T00:57:36,2026-03-30,1,0,Verkehrszeichen,In der Nähe von Gerstenstraße 18,48.7000889,9.2132209
2026-03-30T00:57:36,2026-03-30,1,0,Straße - Schäden,Eschenauer Straße,48.832490753446,9.1830557618616
2026-03-30T00:57:36,2026-03-30,1,0,Gefahrenstelle,Ameisenbergstraße,48.783832865504,9.1987108084355
2026-03-30T00:57:36,2026-03-30,1,0,Straße - Verschmutzung,Urbanstraße,48.782723919591,9.1894769296494
2026-03-30T00:57:36,2026-03-30,1,0,Straße - Schäden,Liststraße,48.763880485953,9.1761520975401
2026-03-30T00:57:36,2026-03-30,1,0,Wilder Müll,Alexanderstraße,48.764139908489,9.1771055513755
2026-03-30T00:57:36,2026-03-30,1,0,Sonstiges,Tiefenbachstraße,48.755864471489,9.2278116519453
2026-03-30T00:57:36,2026-03-30,1,0,Begrünung,In der Nähe von Hartensteinstraße 4A,48.815459781746,9.2149679201949
2026-03-30T00:57:36,2026-03-30,1,0,Gehweg - Schäden,Lenzhalde,48.790334882871,9.1595119823802
2026-03-30T00:57:36,2026-03-30,1,0,Wilder Müll,Eichenparkstraße,48.735252038226,9.2102152862403
2026-03-30T00:57:36,2026-03-30,1,0,Schlagloch,In der Nähe von Neue Weinsteige 114,48.758242397346,9.1806235763032
2026-03-30T00:57:36,2026-03-30,1,0,Gefahrenstelle,In der Nähe von Bussenstraße 37,48.77855296331,9.2021243890311
2026-03-30T00:57:36,2026-03-30,1,0,Verkehrszeichen,Schildfarnweg,48.751660724101,9.2423221933301
2026-03-30T00:57:36,2026-03-30,1,0,Wilder Müll,Asangstraße,48.765090091704,9.2713311709566
2026-03-30T00:57:36,2026-03-30,1,0,Straßenbeleuchtung,In der Nähe von Jugendtreff-Schoßbühl,48.829657492011,9.1933684769322
2026-03-30T00:57:36,2026-03-30,1,0,Wilder Müll,Ostendstraße,48.782448765268,9.2081798252876
2026-03-30T00:57:36,2026-03-30,1,0,Schlagloch,In der Nähe von Geislinger Straße 70D,48.776313640501,9.2407549268212
2026-03-30T06:50:46,2026-03-30,1,6,Wilder Müll,Eybacher Straße,48.773323268319,9.2464822959421
2026-03-30T06:50:46,2026-03-30,1,6,Sonstiges,In der Nähe von Wilhelm-Wunder-Steg,48.77937254876,9.2498256433491
2026-03-30T06:50:46,2026-03-30,1,6,Verkehrszeichen,Schloßstraße,48.776950656658,9.1646554662353
2026-03-30T07:44:57,2026-03-30,1,7,Wilder Müll,Eichenparkstraße,48.735252041509,9.210215286254
2026-03-30T07:44:57,2026-03-30,1,7,Verkehrszeichen,Reinhold-Brändle-Weg,48.834706098385,9.1815648729038
2026-03-30T07:44:57,2026-03-30,1,7,Wilder Müll,In der Nähe von Epplestraße 225D,48.723084997693,9.1723091981332
2026-03-30T07:44:57,2026-03-30,1,7,Gefahrenstelle,In der Nähe von Steinbrunnenstraße 2,48.724837260205,9.1501264675471
2026-03-30T07:44:57,2026-03-30,1,7,Schlagloch,In der Nähe von Steinbrunnenstraße 29,48.726487176332,9.1523252406804
2026-03-30T07:44:57,2026-03-30,1,7,Gefahrenstelle,Mühlhäuser Straße,48.836459669951,9.2182425109463
2026-03-30T07:44:57,2026-03-30,1,7,Verkehrszeichen,Wagrainstraße,48.830444682778,9.2165131665293
2026-03-30T08:43:22,2026-03-30,1,8,Wilder Müll,Uhlandstraße,48.775143458334,9.1875565019976
2026-03-30T08:43:22,2026-03-30,1,8,Gefahrenstelle,Mörikestraße,48.768309191474,9.1683424502807
2026-03-30T08:43:22,2026-03-30,1,8,Gefahrenstelle,Mörikestraße,48.768309188183,9.1683424502697
2026-03-30T08:43:22,2026-03-30,1,8,Straße - Verschmutzung,In der Nähe von Wagenburgstraße 117,48.780938858393,9.2045901194449
2026-03-30T11:31:05,2026-03-30,1,11,Wilder Müll,In der Nähe von Daimlerstraße 92,48.799456308421,9.2204354770135
2026-03-30T11:31:05,2026-03-30,1,11,Sonstiges,In der Nähe von Billertstraße 25,48.74295826268,9.1306797749114
2026-03-30T11:31:05,2026-03-30,1,11,Gefahrenstelle,Wiener Platz,48.814143884262,9.1681144575133
2026-03-30T12:33:26,2026-03-30,1,12,Wilder Müll,In der Nähe von Asangstraße Nähe Nr. 38,48.764828608712,9.2714279154955
2026-03-30T12:33:26,2026-03-30,1,12,Wilder Müll,In der Nähe von Rümelinstraße 31,48.795508102528,9.1917066607869
2026-03-30T13:44:36,2026-03-30,1,13,Wilder Müll,Probststraße,48.731613789245,9.1492356715668
2026-03-30T13:44:36,2026-03-30,1,13,Wilder Müll,Reinsburgstraße,48.768949375108,9.1475770943928
2026-03-30T13:44:36,2026-03-30,1,13,Wilder Müll,In der Nähe von Brandenkopfweg 56,48.738763088471,9.1194343954654
2026-03-30T13:44:36,2026-03-30,1,13,Wilder Müll,In der Nähe von Boschwerk 6/1,48.822688331726,9.1591810391728
2026-03-30T13:44:36,2026-03-30,1,13,Sonstiges,Tiefenbachstraße,48.755871375089,9.2196211240442
2026-03-30T13:44:36,2026-03-30,1,13,Straße - Schäden,In der Nähe von Augsburger Straße 275,48.786868968155,9.2476254640223
2026-03-30T13:44:36,2026-03-30,1,13,Wilder Müll,In der Nähe von Zuckerbergstraße 141,48.825430323145,9.233736245861
2026-03-30T13:44:36,2026-03-30,1,13,Wilder Müll,Brandenkopfweg,48.740443742401,9.1222086108707
2026-03-30T13:44:36,2026-03-30,1,13,Wilder Müll,In der Nähe von Mittlerer Pfad,48.821992376628,9.0938332957524
2026-03-30T13:44:36,2026-03-30,1,13,Wilder Müll,In der Nähe von Mittlerer Pfad 32/1,48.82187817232,9.0947327936538
2026-03-30T13:44:36,2026-03-30,1,13,Sonstiges,In der Nähe von Zazenhäuser Straße / Hohlgraben,48.838547,9.190647
2026-03-30T14:42:19,2026-03-30,1,14,Sonstiges,Linzer Straße,48.812192481635,9.1547595432211
2026-03-30T14:42:19,2026-03-30,1,14,Sonstiges,In der Nähe von Straußweg 59,48.774701539485,9.1995179809592
2026-03-30T14:42:19,2026-03-30,1,14,Sonstiges,Mönchhaldenstraße,48.797401206085,9.180831063738
2026-03-30T14:42:19,2026-03-30,1,14,Wilder Müll,Teinacher Straße,48.810510172574,9.2210310037499
2026-03-30T15:38:29,2026-03-30,1,15,Gehweg - Verschmutzung,Bardiliweg,48.777015734427,9.1878993509963
2026-03-30T15:38:29,2026-03-30,1,15,Gefahrenstelle,Goslarer Straße,48.816175627803,9.1185375942848
2026-03-30T15:38:29,2026-03-30,1,15,Sonstiges,Bernsteinstraße,48.736903412419,9.2265155224338
2026-03-30T15:38:29,2026-03-30,1,15,Sonstiges,Strohberg,48.764570063752,9.1722626428577
2026-03-30T16:31:47,2026-03-30,1,16,Straße - Schäden,Gotthilf-Dreher-Straße,48.820043517278,9.1188736649525
2026-03-30T16:31:47,2026-03-30,1,16,Gefahrenstelle,Tiefenbachstraße,48.75626412873,9.2212283069694
2026-03-30T17:29:15,2026-03-30,1,17,Wilder Müll,Pfennigäcker,48.739448835385,9.2312737599172
2026-03-30T17:29:15,2026-03-30,1,17,Sonstiges,In der Nähe von Bergheimer Steige,48.784124618228,9.0911580225384
