first_seen_at_timestamp,first_seen_date,first_seen_weekday,first_seen_hour,category,location,lat,lon
2026-06-04T01:28:26,2026-06-04,4,1,Wilder Müll,In der Nähe von Böblinger Straße 590,48.736178040756,9.1247994978529
2026-06-04T01:28:26,2026-06-04,4,1,Begrünung,In der Nähe von Böblinger Straße 228/2,48.756712101318,9.1434730466457
2026-06-04T01:28:26,2026-06-04,4,1,Gefahrenstelle,Nordbahnhofstraße,48.800076929338,9.1895831346523
2026-06-04T01:28:26,2026-06-04,4,1,Bäder,In der Nähe von Krehlstraße 11,48.728866705709,9.1029117873476
2026-06-04T01:28:26,2026-06-04,4,1,Wilder Müll,In der Nähe von Jakob-Heine-Platz,48.804271905686,9.2130583751517
2026-06-04T01:28:26,2026-06-04,4,1,Wilder Müll,"Espan, Gew.",48.815281084304,9.2544386438255
2026-06-04T01:28:26,2026-06-04,4,1,Sonstiges,In der Nähe von Urbanstraße 69,48.784422414798,9.1907490310173
2026-06-04T01:28:26,2026-06-04,4,1,Wilder Müll,Knappstraße,48.796369436124,9.1903368072802
2026-06-04T01:28:26,2026-06-04,4,1,Gefahrenstelle,Löwen-Markt,48.813931351853,9.1138738276308
2026-06-04T01:28:26,2026-06-04,4,1,Begrünung,Höhbergstraße,48.768865133271,9.2446640751819
2026-06-04T01:28:26,2026-06-04,4,1,Verkehrszeichen,Württembergstraße,48.783455130285,9.2695243293244
2026-06-04T01:28:26,2026-06-04,4,1,Begrünung,Berlichingenstraße,48.843572167522,9.189763530137
2026-06-04T01:28:26,2026-06-04,4,1,Ampel,In der Nähe von Olgastraße 54,48.773038458759,9.1840404115407
2026-06-04T01:28:26,2026-06-04,4,1,Begrünung,In der Nähe von Rotenberger Steige 95,48.78343335414,9.2688157204172
2026-06-04T01:28:26,2026-06-04,4,1,Begrünung,In der Nähe von Innsbrucker Straße 28,48.77302525597,9.2786475989508
2026-06-04T01:28:26,2026-06-04,4,1,Sonstiges,In der Nähe von Hausenring 17,48.813978311921,9.084625590712
2026-06-04T01:28:26,2026-06-04,4,1,Wilder Müll,Beilsteiner Straße,48.834014062578,9.1753349600363
2026-06-04T01:28:26,2026-06-04,4,1,Wilder Müll,Filderstraße,48.763558253979,9.168766177396
2026-06-04T01:28:26,2026-06-04,4,1,Begrünung,In der Nähe von Wilnaer Straße 10,48.8391908882,9.2221651170817
2026-06-04T01:28:26,2026-06-04,4,1,Wilder Müll,In der Nähe von Inselstraße 36/1,48.776353130726,9.2442150368907
2026-06-04T01:28:26,2026-06-04,4,1,Gefahrenstelle,Breitscheidstraße,48.777043861106,9.1616402483171
2026-06-04T01:28:26,2026-06-04,4,1,Wilder Müll,In der Nähe von Otto-Hirsch-Brücken 18,48.75997729375,9.2558911589629
2026-06-04T01:28:26,2026-06-04,4,1,Gehweg - Schäden,In der Nähe von Schönbergstraße 2,48.733023378007,9.2018361245817
2026-06-04T01:28:26,2026-06-04,4,1,Ampel,In der Nähe von Heilbrunnenstraße,48.718419982603,9.1396151556664
2026-06-04T01:28:26,2026-06-04,4,1,Gehweg - Verschmutzung,In der Nähe von Marienstraße 48,48.77097171102,9.1702340840865
2026-06-04T01:28:26,2026-06-04,4,1,Begrünung,In der Nähe von Schloßbergstraße 21,48.743692701457,9.1347878860076
2026-06-04T01:28:26,2026-06-04,4,1,Verkehrszeichen,In der Nähe von Reitzensteinstraße 2,48.792080575911,9.1972190784338
2026-06-04T01:28:26,2026-06-04,4,1,Gefahrenstelle,"In der Nähe von Innerer Hohlweg, Gew. 2",48.850017326237,9.2256854423366
2026-06-04T01:28:26,2026-06-04,4,1,Wilder Müll,Cheruskerstraße,48.828079895171,9.1732704885349
2026-06-04T01:28:26,2026-06-04,4,1,Gehweg - Schäden,Augsburger Straße,48.780476961168,9.2512627835186
2026-06-04T01:28:26,2026-06-04,4,1,Wilder Müll,In der Nähe von Ludwigstraße 111,48.770777614885,9.1529038055709
2026-06-04T01:28:26,2026-06-04,4,1,Sonstiges,Bismarckstraße,48.772163221383,9.152731083303
2026-06-04T01:28:26,2026-06-04,4,1,Wilder Müll,In der Nähe von Wagenburgstraße / Ameisenbergstraße,48.779339001729,9.1961500558492
2026-06-04T01:28:26,2026-06-04,4,1,Gefahrenstelle,Tübinger Straße,48.764907875744,9.1682833397153
2026-06-04T01:28:26,2026-06-04,4,1,Sonstiges,Am Römerkastell,48.81274846676,9.207419880504
2026-06-04T01:28:26,2026-06-04,4,1,Begrünung,In der Nähe von In der Ziegelklinge 11,48.757774388317,9.1453058417151
2026-06-04T01:28:26,2026-06-04,4,1,Wilder Müll,Hallstraße,48.808433026854,9.210943227126
2026-06-04T01:28:26,2026-06-04,4,1,Sonstiges,In der Nähe von Kattowitzer Straße 8,48.800748009152,9.2349502048792
2026-06-04T01:28:26,2026-06-04,4,1,Verkehrszeichen,Keltenweg,48.828094395327,9.2404015059064
2026-06-04T01:28:26,2026-06-04,4,1,Sonstiges,Pfarrstraße,48.773344867206,9.1815612719451
2026-06-04T07:53:03,2026-06-04,4,7,Sonstiges,Nobileweg,48.841388876391,9.151196977446
2026-06-04T07:53:03,2026-06-04,4,7,Wilder Müll,Nordbahnhofstraße,48.795839621533,9.1897169476849
2026-06-04T07:53:03,2026-06-04,4,7,Wilder Müll,In der Nähe von Staibhöhe/ Jägerhalde,48.777428762462,9.2256306497622
2026-06-04T07:53:03,2026-06-04,4,7,Sonstiges,In der Nähe von Urbanstraße 25,48.778452822179,9.1865848720464
2026-06-04T07:53:03,2026-06-04,4,7,Gehweg - Verschmutzung,Filderhauptstraße,48.70338726937,9.2056245628043
2026-06-04T09:31:49,2026-06-04,4,9,Wilder Müll,Linzer Straße,48.812498140239,9.1549103137379
2026-06-04T09:31:49,2026-06-04,4,9,Wilder Müll,Hoffeldstraße,48.734077383887,9.1815014326793
2026-06-04T09:31:49,2026-06-04,4,9,Begrünung,Freudenstädter Straße,48.743165026384,9.1263910655708
2026-06-04T11:15:21,2026-06-04,4,11,Wilder Müll,Solitudestraße,48.807965984129,9.1055523285508
2026-06-04T11:15:21,2026-06-04,4,11,Ampel,Reinsburgstraße,48.771308508554,9.1449841494138
2026-06-04T11:15:21,2026-06-04,4,11,Verkehrszeichen,In der Nähe von Dreysestraße 3A,48.830602630963,9.1598885200297
2026-06-04T11:15:21,2026-06-04,4,11,Wilder Müll,In der Nähe von Wilnaer Straße 1/2,48.840185418967,9.2224956767114
2026-06-04T11:15:21,2026-06-04,4,11,Bäder,In der Nähe von Klett-Passage 41,48.783629188465,9.1804049437364
2026-06-04T13:24:41,2026-06-04,4,13,Gehweg - Verschmutzung,In der Nähe von Terrotstraße 23,48.811396659888,9.2319491563113
2026-06-04T13:24:41,2026-06-04,4,13,Wilder Müll,Böblinger Straße,48.756378296345,9.143363315976
2026-06-04T13:24:41,2026-06-04,4,13,SSB Haltestelle,In der Nähe von Rotebühlplatz 17,48.774544127524,9.1724349211325
2026-06-04T13:24:41,2026-06-04,4,13,Begrünung,Aldinger Straße,48.8423694,9.2323788
2026-06-04T17:14:05,2026-06-04,4,17,Sonstiges,In der Nähe von Katharinenstraße 18,48.772318839656,9.1822460932928
2026-06-04T19:00:20,2026-06-04,4,19,Gefahrenstelle,Katzenbachstraße,48.733672076059,9.1012352468322
2026-06-04T19:00:20,2026-06-04,4,19,Gefahrenstelle,Katzenbachstraße,48.733672076059,9.1012352468322
2026-06-04T19:00:20,2026-06-04,4,19,Straßenbeleuchtung,In der Nähe von Tunnelstraße 20,48.811414136126,9.172487826327
2026-06-04T19:48:59,2026-06-04,4,19,Straße - Verschmutzung,Liebigstraße,48.759395228562,9.1613053004803
