first_seen_at_timestamp,first_seen_date,first_seen_weekday,first_seen_hour,category,location,lat,lon
2026-04-27T01:05:12,2026-04-27,1,1,Verkehrszeichen,In der Nähe von Corneliusstraße 45,48.748290215557,9.2159823235089
2026-04-27T01:05:12,2026-04-27,1,1,Sonstiges,In der Nähe von Beim Fasanengarten 4,48.816591205402,9.086016337821
2026-04-27T01:05:12,2026-04-27,1,1,Gefahrenstelle,Wilhelm-Blos-Straße,48.803365986955,9.1778391816185
2026-04-27T01:05:12,2026-04-27,1,1,Sonstiges,Nürnberger Straße,48.807048518563,9.2382034979775
2026-04-27T01:05:12,2026-04-27,1,1,Sonstiges,In der Nähe von Lindenspürstraße,48.778387356069,9.1617436177366
2026-04-27T01:05:12,2026-04-27,1,1,Sonstiges,In der Nähe von Hanne-Schorp-Pflumm-Weg,48.7359785,9.0927759
2026-04-27T01:05:12,2026-04-27,1,1,Kanaldeckel,In der Nähe von Steinbruchstraße (Verlängerung),48.775809559261,9.2143872795422
2026-04-27T01:05:12,2026-04-27,1,1,Bäder,Krefelder Straße,48.811287781067,9.214169656054
2026-04-27T01:05:12,2026-04-27,1,1,Straßenbeleuchtung,Hauptstätter Straße,48.771883250833,9.1785346038461
2026-04-27T01:05:12,2026-04-27,1,1,Wilder Müll,In der Nähe von Bebenhäuser Hof 2,48.774977094004,9.1767124576508
2026-04-27T01:05:12,2026-04-27,1,1,SSB Haltestelle,In der Nähe von Kirchheimer Straße 120/1,48.741395988837,9.2184634007939
2026-04-27T01:05:12,2026-04-27,1,1,SSB Haltestelle,In der Nähe von Kirchheimer Straße 63/1,48.744379370846,9.2131584473392
2026-04-27T01:05:12,2026-04-27,1,1,Wilder Müll,Renettenweg,48.759450700561,9.2351829019864
2026-04-27T01:05:12,2026-04-27,1,1,Gehweg - Verschmutzung,In der Nähe von Stresemannstraße 31/2,48.804828290249,9.1735889050519
2026-04-27T01:05:12,2026-04-27,1,1,Ampel,In der Nähe von Heerstraße 3,48.730760949044,9.0972558651987
2026-04-27T01:05:12,2026-04-27,1,1,Bäder,Krefelder Straße,48.810480878066,9.212695221875
2026-04-27T01:05:12,2026-04-27,1,1,Wilder Müll,Mahatma-Gandhi-Straße,48.818705727695,9.1906478244889
2026-04-27T01:05:12,2026-04-27,1,1,Wilder Müll,In der Nähe von Pfaffenwaldring,48.75435052906,9.1069325799991
2026-04-27T01:05:12,2026-04-27,1,1,Wilder Müll,In der Nähe von Speidelweg 114,48.760450476525,9.2259126033649
2026-04-27T01:05:12,2026-04-27,1,1,Sonstiges,Rohrackerstraße,48.759048253641,9.2540184459348
2026-04-27T01:05:12,2026-04-27,1,1,Wilder Müll,In der Nähe von Ontariostraße 64/1,48.75502149896,9.221071596321
2026-04-27T01:05:12,2026-04-27,1,1,Wilder Müll,"In der Nähe von Ebene, Gew. (O) 11",48.773309468,9.2214107222785
2026-04-27T01:05:12,2026-04-27,1,1,Sonstiges,In der Nähe von Rotweg 155,48.835389295749,9.1925057398517
2026-04-27T01:05:12,2026-04-27,1,1,Sonstiges,Marienplatz,48.764900364015,9.167895600325
2026-04-27T01:05:12,2026-04-27,1,1,Verkehrszeichen,In der Nähe von Ruiter Straße 5,48.756922545272,9.2560195433755
2026-04-27T01:05:12,2026-04-27,1,1,Wilder Müll,Abstatter Straße,48.832076854051,9.1993784395405
2026-04-27T01:05:12,2026-04-27,1,1,Sonstiges,Auwiesenstraße,48.721266503114,9.1110268293562
2026-04-27T01:05:12,2026-04-27,1,1,Sonstiges,In der Nähe von Schönestraße 20/2,48.803290040654,9.2105074583429
2026-04-27T01:05:12,2026-04-27,1,1,Sonstiges,Gehrenwaldstraße,48.786743010947,9.2597943632319
2026-04-27T01:05:12,2026-04-27,1,1,Sonstiges,In der Nähe von Mühlhäuser Straße 240,48.830752474882,9.2145375221097
2026-04-27T01:05:12,2026-04-27,1,1,Sonstiges,In der Nähe von Wagenburgstraße / Ameisenbergstraße,48.779370287594,9.1960156494995
2026-04-27T01:05:12,2026-04-27,1,1,Gehweg - Verschmutzung,Klingenstraße,48.7809189,9.20934
2026-04-27T01:05:12,2026-04-27,1,1,Gehweg - Schäden,Spemannstraße,48.773584713481,9.1997183595977
2026-04-27T01:05:12,2026-04-27,1,1,Gehweg - Verschmutzung,In der Nähe von Schwaigerner Straße 19,48.836204,9.1727796
2026-04-27T01:05:12,2026-04-27,1,1,Bäder,Krefelder Straße,48.811287781067,9.214169656054
2026-04-27T01:05:12,2026-04-27,1,1,Sonstiges,Balthasar-Neumann-Straße,48.838268962829,9.2028508666039
2026-04-27T01:05:12,2026-04-27,1,1,Sonstiges,In der Nähe von Regerstraße 23,48.779452166483,9.1283331954795
2026-04-27T01:05:12,2026-04-27,1,1,Sonstiges,Oberer Kirchhaldenweg,48.782207928134,9.1261215263681
2026-04-27T01:05:12,2026-04-27,1,1,Sonstiges,Oberer Kirchhaldenweg,48.782207928134,9.1261215263681
2026-04-27T01:05:12,2026-04-27,1,1,Sonstiges,Zellerstraße,48.761437288753,9.1737078868014
2026-04-27T05:16:53,2026-04-27,1,5,Sonstiges,Oberer Kirchhaldenweg,48.782462834151,9.1233315499306
2026-04-27T05:16:53,2026-04-27,1,5,Straße - Verschmutzung,Häusleweg,48.736012309412,9.1751842979662
2026-04-27T05:16:53,2026-04-27,1,5,Gehweg - Verschmutzung,In der Nähe von Weingartenbergle 34,48.815909780449,9.0883218618097
