first_seen_at_timestamp,first_seen_date,first_seen_weekday,first_seen_hour,category,location,lat,lon
2026-05-28T01:08:24,2026-05-28,4,1,Sonstiges,In der Nähe von Schelmenwasenstraße 25,48.709799418433,9.1691596122595
2026-05-28T01:08:24,2026-05-28,4,1,Wilder Müll,In der Nähe von Ruiter Straße 9,48.756769926398,9.2558057464243
2026-05-28T01:08:24,2026-05-28,4,1,Gehweg - Verschmutzung,Landhausstraße,48.78552305458,9.1940480197985
2026-05-28T01:08:24,2026-05-28,4,1,Straßenbeleuchtung,In der Nähe von Robert-Leicht-Straße 93,48.7388,9.1066
2026-05-28T01:08:24,2026-05-28,4,1,Wilder Müll,Ruiter Straße,48.7567348,9.255851
2026-05-28T01:08:24,2026-05-28,4,1,Brunnen / Gewässer,In der Nähe von An der Matthäuskirche,48.762151848698,9.1603466108793
2026-05-28T01:08:24,2026-05-28,4,1,Schlagloch,In der Nähe von Kuckucksruf 22,48.741392087084,9.1358340350367
2026-05-28T01:08:24,2026-05-28,4,1,Straßenbeleuchtung,Hopfauer Straße,48.734840257401,9.1123487053673
2026-05-28T01:08:24,2026-05-28,4,1,Wilder Müll,Böblinger Straße,48.758261541844,9.149168478465
2026-05-28T01:08:24,2026-05-28,4,1,Wilder Müll,Hallbergerstraße,48.78509627375,9.1910377964694
2026-05-28T01:08:24,2026-05-28,4,1,Sonstiges,Güglinger Straße,48.833305013826,9.1682058109012
2026-05-28T01:08:24,2026-05-28,4,1,Wilder Müll,In der Nähe von Ruiter Straße 9,48.756762404152,9.2558379853638
2026-05-28T01:08:24,2026-05-28,4,1,Wilder Müll,Ruiter Straße,48.756813054543,9.2559119935143
2026-05-28T01:08:24,2026-05-28,4,1,Gehweg - Verschmutzung,In der Nähe von Gärtnerstraße 18A,48.7567922,9.2557002
2026-05-28T01:08:24,2026-05-28,4,1,Gehweg - Verschmutzung,In der Nähe von Deyhleweg 7,48.772749216593,9.2019265161747
2026-05-28T01:08:24,2026-05-28,4,1,Gehweg - Verschmutzung,Gärtnerstraße,48.756687081616,9.2559249594474
2026-05-28T01:08:24,2026-05-28,4,1,Sonstiges,In der Nähe von Pfarrhausstraße 13/1,48.732312228728,9.109743605914
2026-05-28T01:08:24,2026-05-28,4,1,Brunnen / Gewässer,In der Nähe von Wernhaldenstraße / Bopserwaldstraße,48.763136824726,9.1859981838284
2026-05-28T01:08:24,2026-05-28,4,1,Wilder Müll,Fellbacher Straße,48.787719635247,9.2575394487276
2026-05-28T01:08:24,2026-05-28,4,1,Wilder Müll,Trautäckerstraße,48.725383005242,9.1600543204239
2026-05-28T01:08:24,2026-05-28,4,1,Brunnen / Gewässer,Bismarckstraße,48.774016367237,9.1576092103111
2026-05-28T01:08:24,2026-05-28,4,1,Bäder,Sulzerrainstraße,48.809706189572,9.2227708477589
2026-05-28T01:08:24,2026-05-28,4,1,Straße - Schäden,Sonnenbergstraße,48.76618903892,9.1950349706473
2026-05-28T01:08:24,2026-05-28,4,1,Wilder Müll,In der Nähe von Oberstdorfer Straße / Kappelbergstraße,48.782912174749,9.2538628924667
2026-05-28T01:08:24,2026-05-28,4,1,Wilder Müll,Rebmannstraße,48.759052169576,9.1744888356957
2026-05-28T01:08:24,2026-05-28,4,1,Ampel,In der Nähe von Am Wolfersberg 70/1,48.82416049894,9.1975164658797
2026-05-28T01:08:24,2026-05-28,4,1,Wilder Müll,Eduard-Pfeiffer-Straße,48.786762069181,9.1730369892611
2026-05-28T01:08:24,2026-05-28,4,1,Sonstiges,Uhlandstraße,48.774828202161,9.1878003202056
2026-05-28T01:08:24,2026-05-28,4,1,Gefahrenstelle,Bopserwaldstraße,48.765019853387,9.1839126686469
2026-05-28T01:08:24,2026-05-28,4,1,Wilder Müll,In der Nähe von Stresemannstraße 6,48.802197326933,9.1746373755991
2026-05-28T01:08:24,2026-05-28,4,1,Sonstiges,In der Nähe von Marktplatz (M) 15,48.774983665173,9.1792652997435
2026-05-28T01:08:24,2026-05-28,4,1,Begrünung,In der Nähe von Am Wolfersberg 69/1,48.823532877162,9.1979490442946
2026-05-28T01:08:24,2026-05-28,4,1,Gehweg - Schäden,Filderstraße,48.764395842051,9.1744529152165
2026-05-28T01:08:24,2026-05-28,4,1,Verkehrszeichen,In der Nähe von Möhringer Straße 7,48.763379858553,9.1653302020604
2026-05-28T01:08:24,2026-05-28,4,1,Gehweg - Verschmutzung,Ruiter Straße,48.756813054543,9.2559119935143
2026-05-28T01:08:24,2026-05-28,4,1,Wilder Müll,Steckfeldstraße,48.715004625916,9.2037006922846
2026-05-28T01:08:24,2026-05-28,4,1,Sonstiges,In der Nähe von Burckhardtstraße 66,48.812035,9.232637
2026-05-28T01:08:24,2026-05-28,4,1,Begrünung,In der Nähe von Ohnholdstraße 250,48.726325258315,9.1922609580344
2026-05-28T01:08:24,2026-05-28,4,1,Gefahrenstelle,Ohnholdstraße,48.726241924362,9.1925280676862
2026-05-28T01:08:24,2026-05-28,4,1,Wilder Müll,In der Nähe von Marconistraße 33,48.831492,9.1569458
