first_seen_at_timestamp,first_seen_date,first_seen_weekday,first_seen_hour,category,location,lat,lon
2026-06-27T01:13:19,2026-06-27,6,1,Sonstiges,Burtenbachstraße,48.847357992523,9.1543226649885
2026-06-27T01:13:19,2026-06-27,6,1,Gehweg - Verschmutzung,Wallensteinstraße,48.841541627756,9.2089152550177
2026-06-27T01:13:19,2026-06-27,6,1,Begrünung,In der Nähe von Korianderstraße 14/1,48.744223865596,9.2321521009403
2026-06-27T01:13:19,2026-06-27,6,1,Brunnen / Gewässer,Gablenberger Hauptstraße,48.774721005004,9.2032616410242
2026-06-27T01:13:19,2026-06-27,6,1,Sonstiges,In der Nähe von Lily-Hildebrandt-Straße 8,48.845032,9.1640205
2026-06-27T01:13:19,2026-06-27,6,1,Sonstiges,Burtenbachstraße,48.847357989208,9.1543226649783
2026-06-27T01:13:19,2026-06-27,6,1,Sonstiges,In der Nähe von Seyfferstraße 21,48.769153969157,9.1550487708557
2026-06-27T01:13:19,2026-06-27,6,1,Sonstiges,In der Nähe von Landhausstraße / Comburgstraße,48.782980696762,9.2204851889225
2026-06-27T01:13:19,2026-06-27,6,1,Sonstiges,Burtenbachstraße,48.847357992523,9.1543226649885
2026-06-27T01:13:19,2026-06-27,6,1,Gefahrenstelle,Fliegenweg,48.848122597636,9.1543522756626
2026-06-27T01:13:19,2026-06-27,6,1,Sonstiges,Burtenbachstraße,48.847357992523,9.1543226649885
2026-06-27T01:13:19,2026-06-27,6,1,Wilder Müll,Rückertstraße,48.774187868944,9.14534671163
2026-06-27T01:13:19,2026-06-27,6,1,Ampel,In der Nähe von Mercedesstraße 145/1,48.787010252174,9.2433187088604
2026-06-27T01:13:19,2026-06-27,6,1,Sonstiges,Schlachthofstraße,48.785755608751,9.2198467919673
2026-06-27T01:13:19,2026-06-27,6,1,Ampel,Reutlinger Straße,48.750519932795,9.1771256999238
2026-06-27T01:13:19,2026-06-27,6,1,Gefahrenstelle,Burtenbachstraße,48.847357989208,9.1543226649783
2026-06-27T01:13:19,2026-06-27,6,1,Sonstiges,In der Nähe von Widdersteinstraße 16,48.780539281395,9.252711299665
2026-06-27T01:13:19,2026-06-27,6,1,Sonstiges,In der Nähe von Neue Brücke 4,48.774886288287,9.1765068911372
2026-06-27T01:13:19,2026-06-27,6,1,Gefahrenstelle,"In der Nähe von Innerer Hohlweg, Gew. 2",48.849999933281,9.2257075989259
2026-06-27T01:13:19,2026-06-27,6,1,Verkehrszeichen,Johannesstraße,48.778764883894,9.160373695607
2026-06-27T01:13:19,2026-06-27,6,1,Radweg - Schäden,In der Nähe von Cannstatter Straße 56,48.790435000892,9.192382391742
2026-06-27T01:13:19,2026-06-27,6,1,Sonstiges,Löwentorbogen,48.808950365168,9.192926227119
2026-06-27T01:13:19,2026-06-27,6,1,Sonstiges,Alexanderstraße,48.765668153336,9.1778049444451
2026-06-27T01:13:19,2026-06-27,6,1,Begrünung,Oberschlesische Straße,48.802898838637,9.2394367292373
2026-06-27T01:13:19,2026-06-27,6,1,Wilder Müll,Müllerstraße,48.758374220625,9.1513286508731
2026-06-27T01:13:19,2026-06-27,6,1,Sonstiges,Burtenbachstraße,48.847357989208,9.1543226649783
2026-06-27T01:13:19,2026-06-27,6,1,Gefahrenstelle,In der Nähe von Mühlhäuser Straße 319,48.836978685148,9.2190318477904
2026-06-27T01:13:19,2026-06-27,6,1,Wilder Müll,In der Nähe von Mühlhäuser Straße 307,48.836288996024,9.2193830302062
2026-06-27T01:13:19,2026-06-27,6,1,Sonstiges,In der Nähe von Widdersteinstraße 19,48.780650161021,9.2529257408973
2026-06-27T01:13:19,2026-06-27,6,1,Begrünung,Burgenlandstraße,48.811373164773,9.1618124841072
2026-06-27T01:13:19,2026-06-27,6,1,Gefahrenstelle,Waldburgstraße,48.721265845228,9.0912850971331
2026-06-27T01:13:19,2026-06-27,6,1,Gefahrenstelle,Winterlinger Weg,48.732112055406,9.1392689616651
2026-06-27T01:13:19,2026-06-27,6,1,Verkehrszeichen,Aachener Straße,48.807293578254,9.2092768707554
2026-06-27T01:13:19,2026-06-27,6,1,Sonstiges,Burtenbachstraße,48.847357989208,9.1543226649783
2026-06-27T01:13:19,2026-06-27,6,1,Verkehrszeichen,In der Nähe von Silberburgstraße 82,48.779646123389,9.1624348192048
2026-06-27T01:13:19,2026-06-27,6,1,Begrünung,In der Nähe von Freihofstraße 32,48.846572286002,9.1576584722931
2026-06-27T01:13:19,2026-06-27,6,1,Sonstiges,In der Nähe von Linzer Straße 90,48.816895128784,9.1530641326402
2026-06-27T01:13:19,2026-06-27,6,1,Sonstiges,In der Nähe von Linzer Straße 90,48.816895128784,9.1530641326402
2026-06-27T01:13:19,2026-06-27,6,1,Sonstiges,In der Nähe von Am Kräherwald 188/1,48.784226258477,9.1461427413986
2026-06-27T01:13:19,2026-06-27,6,1,Sonstiges,Aspacher Straße,48.832958776097,9.1771435935753
