first_seen_at_timestamp,first_seen_date,first_seen_weekday,first_seen_hour,category,location,lat,lon
2026-06-23T01:12:22,2026-06-23,2,1,Gefahrenstelle,In der Nähe von Korianderstraße 16/1,48.743957436401,9.2319864324521
2026-06-23T01:12:22,2026-06-23,2,1,Gefahrenstelle,Bachstraße,48.73138947424,9.1084925104777
2026-06-23T01:12:22,2026-06-23,2,1,Straße - Verschmutzung,Brennerstraße,48.774026470289,9.1828839463228
2026-06-23T01:12:22,2026-06-23,2,1,Wilder Müll,Thomastraße,48.801027733083,9.1681795609966
2026-06-23T01:12:22,2026-06-23,2,1,Brunnen / Gewässer,Scharrstraße,48.729250648181,9.1154502830316
2026-06-23T01:12:22,2026-06-23,2,1,Wilder Müll,In der Nähe von Kurlandweg 11,48.840947871832,9.2291641711102
2026-06-23T01:12:22,2026-06-23,2,1,Straßenbeleuchtung,Gültsteiner Straße,48.731789387908,9.1040600738171
2026-06-23T01:12:22,2026-06-23,2,1,Radweg - Verschmutzung,Reinbeckstraße,48.738857237756,9.091629912383
2026-06-23T01:12:22,2026-06-23,2,1,Wilder Müll,Brunnenstraße,48.806365680672,9.2148841337265
2026-06-23T01:12:22,2026-06-23,2,1,Gefahrenstelle,In der Nähe von Wernerstraße 83,48.820704956134,9.1696693403229
2026-06-23T01:12:22,2026-06-23,2,1,Radweg - Schäden,"In der Nähe von Frauenkopf, Gew. 5",48.7630276,9.2049765
2026-06-23T01:12:22,2026-06-23,2,1,Wilder Müll,In der Nähe von Fürfelder Straße 21/1,48.829558567162,9.1921945829735
2026-06-23T01:12:22,2026-06-23,2,1,Wilder Müll,Werastraße,48.782882199565,9.1916828113241
2026-06-23T01:12:22,2026-06-23,2,1,Wilder Müll,Alexanderstraße,48.77290620747,9.1858605064357
2026-06-23T01:12:22,2026-06-23,2,1,Verkehrszeichen,In der Nähe von Wannenbuckel 2,48.823950798846,9.1865814486298
2026-06-23T01:12:22,2026-06-23,2,1,Begrünung,In der Nähe von Kormoranstraße 14/1,48.832291837912,9.2368190950847
2026-06-23T01:12:22,2026-06-23,2,1,Radweg - Scherben,In der Nähe von Herderstraße 61/1,48.77202448,9.14099598
2026-06-23T01:12:22,2026-06-23,2,1,Begrünung,Forststraße,48.777807111942,9.1568861004922
2026-06-23T01:12:22,2026-06-23,2,1,Begrünung,In der Nähe von Happoldstraße 15A,48.806856085327,9.1612257674627
2026-06-23T01:12:22,2026-06-23,2,1,Sonstiges,Verdistraße,48.781010031181,9.1274253120174
2026-06-23T01:12:22,2026-06-23,2,1,Wilder Müll,In der Nähe von Ludwigsburger Straße 270,48.8414954,9.1767399
2026-06-23T01:12:22,2026-06-23,2,1,Sonstiges,In der Nähe von Römerstraße 16,48.765340192897,9.1709238746654
2026-06-23T01:12:22,2026-06-23,2,1,Sonstiges,Im Wolfer,48.708532907258,9.2005890015103
2026-06-23T01:12:22,2026-06-23,2,1,Sonstiges,In der Nähe von Im Wolfer 36,48.708516627791,9.2002957831084
2026-06-23T01:12:22,2026-06-23,2,1,Sonstiges,Im Wolfer,48.708532910533,9.2005890015233
2026-06-23T01:12:22,2026-06-23,2,1,Sonstiges,Löwentorbogen,48.808950365168,9.192926227119
2026-06-23T01:12:22,2026-06-23,2,1,Begrünung,Öhringer Straße,48.826569251451,9.1787287864157
2026-06-23T01:12:22,2026-06-23,2,1,Sonstiges,Maurenstraße,48.704325752828,9.2139193098763
2026-06-23T01:12:22,2026-06-23,2,1,Begrünung,Kullenbergstraße,48.775056700965,9.1256000142446
2026-06-23T01:12:22,2026-06-23,2,1,Begrünung,In der Nähe von Paul-Hahn-Weg 10,48.815295484309,9.1817255813151
2026-06-23T01:12:22,2026-06-23,2,1,Sonstiges,Fanny-Leicht-Straße,48.730578572305,9.116984660505
2026-06-23T01:12:22,2026-06-23,2,1,Sonstiges,In der Nähe von Römerstraße 16,48.765395656291,9.170799975167
2026-06-23T01:12:22,2026-06-23,2,1,Sonstiges,In der Nähe von Römerstraße 16,48.765468788553,9.170882356734
2026-06-23T01:12:22,2026-06-23,2,1,Sonstiges,Römerstraße,48.765390801362,9.1708502027471
2026-06-23T01:12:22,2026-06-23,2,1,Sonstiges,Römerstraße,48.765390798071,9.1708502027359
2026-06-23T01:12:22,2026-06-23,2,1,Sonstiges,Im Wolfer,48.708532910533,9.2005890015233
2026-06-23T01:12:22,2026-06-23,2,1,Sonstiges,In der Nähe von Römerstraße 16,48.765377682209,9.170822568756
2026-06-23T01:12:22,2026-06-23,2,1,Gefahrenstelle,Römerstraße,48.765390801362,9.1708502027471
2026-06-23T01:12:22,2026-06-23,2,1,Sonstiges,In der Nähe von Wernhalden-Wald / Bopserhütte,48.759254575106,9.1843062972039
2026-06-23T01:12:22,2026-06-23,2,1,Verkehrszeichen,In der Nähe von Zazenhäuser Straße 93,48.838500504942,9.1878339855645
2026-06-23T05:32:15,2026-06-23,2,5,Straße - Schäden,In der Nähe von Kormoranstraße 13/1,48.832415391249,9.2367539605219
2026-06-23T05:32:15,2026-06-23,2,5,Gefahrenstelle,In der Nähe von Lechweg,48.823541365841,9.2107557777368
2026-06-23T05:32:15,2026-06-23,2,5,Wilder Müll,In der Nähe von Friedenstraße 5,48.786485010773,9.1921084013352
2026-06-23T05:32:15,2026-06-23,2,5,Wilder Müll,In der Nähe von Neckarstraße 134,48.787598387372,9.1932190773594
2026-06-23T05:32:15,2026-06-23,2,5,Straße - Verschmutzung,In der Nähe von Flamingoweg 5,48.829844844069,9.2312160542634
2026-06-23T07:30:26,2026-06-23,2,7,Begrünung,In der Nähe von Traifelbergplatz 4,48.740825585945,9.1761363707715
2026-06-23T07:30:26,2026-06-23,2,7,Sonstiges,Triebweg,48.807859092576,9.1385388466556
2026-06-23T07:30:26,2026-06-23,2,7,Gehweg - Verschmutzung,In der Nähe von Robert-Leicht-Straße 175,48.744647789013,9.112188802172
2026-06-23T07:30:26,2026-06-23,2,7,Gefahrenstelle,Triebweg,48.807859092576,9.1385388466556
2026-06-23T07:30:26,2026-06-23,2,7,Begrünung,In der Nähe von Neefstraße 14,48.769032524229,9.1880518253918
2026-06-23T07:30:26,2026-06-23,2,7,Radweg - Scherben,Allmandstraße,48.739380365268,9.1058982916333
2026-06-23T09:22:14,2026-06-23,2,9,Sonstiges,In der Nähe von Kemnater Straße 48/2,48.735576923831,9.2230815196161
2026-06-23T09:22:14,2026-06-23,2,9,Sonstiges,In der Nähe von Richard-Schmid-Straße 22,48.737909448333,9.220551166912
2026-06-23T09:22:14,2026-06-23,2,9,Sonstiges,In der Nähe von Eichenparkstraße 22,48.735064874344,9.2087226891396
2026-06-23T09:22:14,2026-06-23,2,9,Wilder Müll,In der Nähe von Schemppstraße / Olivenstraße,48.736568825144,9.2138139516151
2026-06-23T09:22:14,2026-06-23,2,9,Straßenbeleuchtung,In der Nähe von Marienplatz/ Hauptstätter Straße,48.764269146906,9.1689506742828
2026-06-23T09:22:14,2026-06-23,2,9,Brunnen / Gewässer,In der Nähe von Tübinger Straße / Marienplatz,48.764599369719,9.1680865923422
2026-06-23T09:22:14,2026-06-23,2,9,Sonstiges,In der Nähe von Hausenring 21,48.814376872898,9.0845839903012
2026-06-23T09:22:14,2026-06-23,2,9,Sonstiges,Schottstraße,48.790190027745,9.1665231708849
2026-06-23T09:22:14,2026-06-23,2,9,Sonstiges,Gähkopf,48.790328558315,9.1640184899971
2026-06-23T09:22:14,2026-06-23,2,9,Sonstiges,In der Nähe von Reinsburgstraße 130,48.768188744875,9.1544283312435
2026-06-23T11:15:20,2026-06-23,2,11,Gefahrenstelle,Schemppstraße,48.738976472317,9.2198195341463
2026-06-23T13:14:25,2026-06-23,2,13,Verkehrszeichen,Honigwiesenstraße,48.732139807329,9.0940926090944
2026-06-23T13:14:25,2026-06-23,2,13,Brunnen / Gewässer,"In der Nähe von Am Sulzerrain, Gew. 4",48.806959850767,9.2258522072774
2026-06-23T13:14:25,2026-06-23,2,13,Brunnen / Gewässer,In der Nähe von Olgastraße 120/1,48.766781172625,9.177869092812
2026-06-23T13:14:25,2026-06-23,2,13,Straße - Schäden,Schweitzerstraße,48.744372666516,9.2059821452396
2026-06-23T15:14:15,2026-06-23,2,15,Sonstiges,Löwentorbogen,48.808950365168,9.192926227119
2026-06-23T15:14:15,2026-06-23,2,15,Sonstiges,Eberhardstraße,48.772858038975,9.1764420947718
2026-06-23T15:14:15,2026-06-23,2,15,Brunnen / Gewässer,In der Nähe von Olgastraße 120/1,48.766748288895,9.1778131711577
2026-06-23T15:14:15,2026-06-23,2,15,Verkehrszeichen,In der Nähe von Böblinger Straße 564,48.737834327247,9.1262631544744
2026-06-23T15:14:15,2026-06-23,2,15,Sonstiges,In der Nähe von Lenbachstraße 47A,48.803074146583,9.1662222127824
2026-06-23T15:14:15,2026-06-23,2,15,Gefahrenstelle,In der Nähe von Böblinger Straße 455,48.740977133349,9.1305849665082
2026-06-23T15:14:15,2026-06-23,2,15,Sonstiges,Eberhardstraße,48.772939210619,9.1763062773435
2026-06-23T15:14:15,2026-06-23,2,15,Verkehrszeichen,In der Nähe von Wildparkstraße 110/1,48.778954780729,9.0904434144062
2026-06-23T15:14:15,2026-06-23,2,15,Brunnen / Gewässer,Delpweg,48.712493847134,9.1584637323272
2026-06-23T15:14:15,2026-06-23,2,15,Brunnen / Gewässer,In der Nähe von Delpweg,48.7129567,9.1584818
2026-06-23T16:59:41,2026-06-23,2,16,Sonstiges,Römerstraße,48.765390801362,9.1708502027471
2026-06-23T16:59:41,2026-06-23,2,16,Sonstiges,Römerstraße,48.765390801362,9.1708502027471
2026-06-23T16:59:41,2026-06-23,2,16,Sonstiges,In der Nähe von Eisvogelweg 19A,48.834579141819,9.2391917869211
2026-06-23T16:59:41,2026-06-23,2,16,Sonstiges,Fritz-Elsas-Straße,48.77604230901,9.1706685682167
2026-06-23T16:59:41,2026-06-23,2,16,Gefahrenstelle,Goldbergstraße,48.792914717586,9.2587394340136
2026-06-23T16:59:41,2026-06-23,2,16,Sonstiges,In der Nähe von Pfaffenwaldring 15,48.74932232871,9.1062056138875
2026-06-23T17:46:33,2026-06-23,2,17,Brunnen / Gewässer,In der Nähe von Taläckerstraße 30/1,48.837855789603,9.1913201388886
2026-06-23T17:46:33,2026-06-23,2,17,Brunnen / Gewässer,Falbenhennenstraße,48.766963841441,9.1776326072739
2026-06-23T17:46:33,2026-06-23,2,17,Straßenbeleuchtung,In der Nähe von Freihofstraße 41,48.84648642534,9.1572480401719
2026-06-23T17:46:33,2026-06-23,2,17,Sonstiges,Köstlinstraße,48.813508988128,9.1134233728323
2026-06-23T17:46:33,2026-06-23,2,17,Wilder Müll,In der Nähe von Erdmannhäuser Straße / Ottmarsheimer Straße,48.847101753195,9.1603783180212
2026-06-23T17:46:33,2026-06-23,2,17,Gefahrenstelle,In der Nähe von Erdmannhäuser Straße 15,48.846697744893,9.1589032624509
2026-06-23T17:46:33,2026-06-23,2,17,Brunnen / Gewässer,In der Nähe von Katharinenstraße / Pfarrstraße,48.7728065,9.1825448
