first_seen_at_timestamp,first_seen_date,first_seen_weekday,first_seen_hour,category,location,lat,lon
2026-02-23T00:50:37,2026-02-23,1,0,Wilder Müll,In der Nähe von Rippoldsauer Straße 28/1,48.804905115614,9.2309506988588
2026-02-23T00:50:37,2026-02-23,1,0,Kanaldeckel,Leuschnerstraße,48.776463667814,9.1654977641149
2026-02-23T00:50:37,2026-02-23,1,0,Gehweg - Verschmutzung,In der Nähe von Annabergstraße 2,48.803830725002,9.232562500514
2026-02-23T00:50:37,2026-02-23,1,0,Wilder Müll,In der Nähe von Sparrhärmlingweg / Am Römerkastell,48.812330951388,9.2061952618615
2026-02-23T00:50:37,2026-02-23,1,0,Straßeneinlauf - verstopft,In der Nähe von Am Römerkastell 20/1,48.813726680096,9.2089315495564
2026-02-23T00:50:37,2026-02-23,1,0,Wilder Müll,In der Nähe von Nähterstraße 219/1,48.780821741978,9.2251679333157
2026-02-23T00:50:37,2026-02-23,1,0,Gehweg - Verschmutzung,Nikolausstraße,48.787682024615,9.1940835724377
2026-02-23T00:50:37,2026-02-23,1,0,Straßenbeleuchtung,In der Nähe von Kriegsbergstraße 55/1,48.782156067822,9.1727680869212
2026-02-23T00:50:37,2026-02-23,1,0,Straße - Schäden,Fuchswaldstraße,48.744543755735,9.1323252184718
2026-02-23T00:50:37,2026-02-23,1,0,Sonstiges,Asangstraße,48.764578094706,9.2710018223158
2026-02-23T00:50:37,2026-02-23,1,0,Wilder Müll,Asangstraße,48.764578091415,9.2710018222981
2026-02-23T00:50:37,2026-02-23,1,0,Sonstiges,In der Nähe von Handwerkstraße 45,48.71953329034,9.1239886397293
2026-02-23T00:50:37,2026-02-23,1,0,Wilder Müll,In der Nähe von,48.753786662279,9.2006460117341
2026-02-23T00:50:37,2026-02-23,1,0,Verkehrszeichen,In der Nähe von Burgstallstraße 54,48.757579670573,9.149570268051
2026-02-23T00:50:37,2026-02-23,1,0,Wilder Müll,Wiesbadener Straße,48.805472287304,9.2211178150319
2026-02-23T00:50:37,2026-02-23,1,0,Sonstiges,In der Nähe von Fasanenhofstraße 171,48.709383179987,9.1511655775995
2026-02-23T00:50:37,2026-02-23,1,0,Gehweg - Verschmutzung,In der Nähe von Fasanenhofstraße/ Jugendhaus,48.708938192661,9.1507963214838
2026-02-23T00:50:37,2026-02-23,1,0,Gehweg - Verschmutzung,In der Nähe von Fasanenhofstraße 145/4,48.709669310327,9.1525174416785
2026-02-23T00:50:37,2026-02-23,1,0,Radweg - Scherben,In der Nähe von Fasanenhofstraße 6,48.713928636997,9.1624046898776
2026-02-23T00:50:37,2026-02-23,1,0,Wilder Müll,Rüdigerstraße,48.81117975297,9.1711555468586
2026-02-23T00:50:37,2026-02-23,1,0,Wilder Müll,In der Nähe von Kräherwald,48.782380984667,9.1370784871007
2026-02-23T00:50:37,2026-02-23,1,0,Gehweg - Verschmutzung,Dachswaldweg,48.746912899587,9.1212448694876
2026-02-23T00:50:37,2026-02-23,1,0,Verkehrszeichen,Möwenweg,48.835930387503,9.2221784860751
2026-02-23T00:50:37,2026-02-23,1,0,Gefahrenstelle,Wagrainstraße,48.833083783471,9.2195223626318
2026-02-23T00:50:37,2026-02-23,1,0,Gehweg - Verschmutzung,In der Nähe von Triberger Straße 44/2,48.739246478891,9.1407326056681
2026-02-23T00:50:37,2026-02-23,1,0,Begrünung,Rührbrunnenweg,48.782608808508,9.2823248212841
2026-02-23T00:50:37,2026-02-23,1,0,Begrünung,Hornemannweg,48.841068603778,9.1484430294952
2026-02-23T00:50:37,2026-02-23,1,0,Sonstiges,In der Nähe von Pforzheimer Straße 359,48.813870856489,9.1148055389727
2026-02-23T00:50:37,2026-02-23,1,0,Wilder Müll,In der Nähe von Cottastraße 34,48.766711304361,9.1737548786796
2026-02-23T00:50:37,2026-02-23,1,0,Begrünung,In der Nähe von Wagenburgstraße 41,48.779513409647,9.1975553716888
2026-02-23T00:50:37,2026-02-23,1,0,Wilder Müll,In der Nähe von Falchstraße 3,48.82621941349,9.2336756061388
2026-02-23T00:50:37,2026-02-23,1,0,Sonstiges,In der Nähe von Falchstraße 3,48.826227577052,9.2337507599571
2026-02-23T00:50:37,2026-02-23,1,0,Wilder Müll,In der Nähe von Zuckerbergstraße 147,48.826159781096,9.2340286376396
2026-02-23T00:50:37,2026-02-23,1,0,Sonstiges,In der Nähe von Steinhaldenstraße 175/1,48.827819624813,9.2317239733044
2026-02-23T00:50:37,2026-02-23,1,0,Wilder Müll,In der Nähe von Kiebitzweg 7,48.802608140604,9.1096034774555
2026-02-23T00:50:37,2026-02-23,1,0,Gehweg - Schäden,Falkenstraße,48.739860059997,9.1446084538386
2026-02-23T00:50:37,2026-02-23,1,0,Sonstiges,Neue Weinsteige,48.761688609526,9.179940826339
2026-02-23T00:50:37,2026-02-23,1,0,Gefahrenstelle,Brenzstraße,48.807712900609,9.2299940255841
2026-02-23T00:50:37,2026-02-23,1,0,Straßeneinlauf - verstopft,In der Nähe von Fasanenhofstraße 161,48.709815335693,9.1535647008461
2026-02-23T00:50:37,2026-02-23,1,0,Gehweg - Verschmutzung,In der Nähe von Augsburger Platz 2,48.805734532501,9.2305242355097
2026-02-23T06:36:08,2026-02-23,1,6,Begrünung,Vaihinger Markt,48.730406272423,9.111250930905
2026-02-23T06:36:08,2026-02-23,1,6,Straßenbeleuchtung,Alte Untertürkheimer Straße,48.79727144439,9.2330645292614
2026-02-23T07:34:09,2026-02-23,1,7,Wilder Müll,"In der Nähe von Viesenhäuserhof, Gew. 1",48.859095925164,9.2122587130149
2026-02-23T07:34:09,2026-02-23,1,7,Gehweg - Verschmutzung,In der Nähe von Hechinger Straße 126,48.713964831284,9.1421260534594
2026-02-23T08:24:55,2026-02-23,1,8,Wilder Müll,Schwarenbergstraße,48.779688617874,9.2022199608254
2026-02-23T08:24:55,2026-02-23,1,8,Gehweg - Verschmutzung,In der Nähe von Richtstraße 3,48.7717552,9.1787885
2026-02-23T09:29:17,2026-02-23,1,9,Gehweg - Verschmutzung,In der Nähe von Hoffeldstraße 87,48.738849148198,9.173290112259
2026-02-23T09:29:17,2026-02-23,1,9,Wilder Müll,Pfullinger Straße,48.740246779326,9.1695002661709
2026-02-23T09:29:17,2026-02-23,1,9,Sonstiges,In der Nähe von Breitscheidstraße 2B,48.7811419,9.1730043
2026-02-23T09:29:17,2026-02-23,1,9,Gehweg - Verschmutzung,In der Nähe von Wildunger Straße 98,48.803929045414,9.2311628612353
2026-02-23T09:29:17,2026-02-23,1,9,Wilder Müll,In der Nähe von List-/ Heusteigstraße,48.763116088202,9.1694443141454
2026-02-23T09:29:17,2026-02-23,1,9,Verkehrszeichen,In der Nähe von Orangenweg 7,48.735565678472,9.2165167813508
2026-02-23T09:29:17,2026-02-23,1,9,Verkehrszeichen,In der Nähe von Luganer Straße 5,48.73605001041,9.2166810247901
2026-02-23T10:28:50,2026-02-23,1,10,Gefahrenstelle,In der Nähe von Jagststraße / Schussengasse,48.819940093806,9.2244674222321
2026-02-23T10:28:50,2026-02-23,1,10,Wilder Müll,Taubenheimstraße,48.803929082721,9.2282471640351
2026-02-23T10:28:50,2026-02-23,1,10,Sonstiges,Krailenshaldenstraße,48.81776348945,9.1779346289777
2026-02-23T10:28:50,2026-02-23,1,10,Sonstiges,In der Nähe von Fasanenhofstraße 181/1,48.710002817573,9.1533854373499
2026-02-23T10:28:50,2026-02-23,1,10,Sonstiges,In der Nähe von Fasanenhofstraße 181/1,48.710002827057,9.1533820720676
2026-02-23T10:28:50,2026-02-23,1,10,Schlagloch,Rosenbergstraße,48.7814394095,9.1648198856824
2026-02-23T11:25:04,2026-02-23,1,11,Schlagloch,In der Nähe von Widmaierstraße 128,48.721317565942,9.1599242550703
2026-02-23T11:25:04,2026-02-23,1,11,Wilder Müll,Neuwirtshausstraße,48.835791251187,9.138629478783
2026-02-23T11:25:04,2026-02-23,1,11,Gefahrenstelle,In der Nähe von Jagststraße / Schussengasse,48.819932099266,9.2244837462408
2026-02-23T11:25:04,2026-02-23,1,11,Sonstiges,Kriegsbergstraße,48.782469984639,9.1736443300217
2026-02-23T11:25:04,2026-02-23,1,11,Wilder Müll,Brückenstraße,48.808506436533,9.2101535859074
2026-02-23T11:25:04,2026-02-23,1,11,Wilder Müll,In der Nähe von Boschwerk 6/1,48.8224515,9.1593554
2026-02-23T11:25:04,2026-02-23,1,11,Wilder Müll,"In der Nähe von Peterlesmorgen, Gew. 1",48.849108263311,9.1842568944363
2026-02-23T12:26:24,2026-02-23,1,12,Wilder Müll,"In der Nähe von Peterlesmorgen, Gew. 1",48.848010860638,9.1838336121602
2026-02-23T12:26:24,2026-02-23,1,12,Schlagloch,Pfaffenweg,48.758120333309,9.1719956769908
2026-02-23T12:26:24,2026-02-23,1,12,Wilder Müll,"In der Nähe von Peterlesmorgen, Gew. 1",48.847769500961,9.183519411413
2026-02-23T12:26:24,2026-02-23,1,12,Gehweg - Schäden,In der Nähe von Breitscheidstraße 2,48.780567734942,9.1721334153035
2026-02-23T12:26:24,2026-02-23,1,12,Wilder Müll,Neuwirtshausstraße,48.835791247876,9.1386294787739
2026-02-23T13:39:24,2026-02-23,1,13,Sonstiges,In der Nähe von Seubertstraße 17,48.808935314894,9.2308884908104
2026-02-23T13:39:24,2026-02-23,1,13,Wilder Müll,In der Nähe von Lehmfeldstraße 27,48.819878166834,9.2395598346794
2026-02-23T13:39:24,2026-02-23,1,13,Sonstiges,In der Nähe von Dennerstraße 64,48.805659847551,9.2301553888916
2026-02-23T13:39:24,2026-02-23,1,13,Sonstiges,In der Nähe von Wildunger Straße 98,48.803887593469,9.231308119354
2026-02-23T13:39:24,2026-02-23,1,13,Sonstiges,In der Nähe von Gasteiner Straße,48.800782113983,9.2333655004982
2026-02-23T13:39:24,2026-02-23,1,13,Sonstiges,In der Nähe von Taubenheim- / Deckerstraße,48.798881952063,9.2325594524521
2026-02-23T13:39:24,2026-02-23,1,13,Sonstiges,In der Nähe von Melanchthonstraße / Brenzstraße,48.807814782735,9.2312021229875
2026-02-23T13:39:24,2026-02-23,1,13,Sonstiges,In der Nähe von Melanchthonstraße / Brenzstraße,48.807783392242,9.2311946102918
2026-02-23T13:39:24,2026-02-23,1,13,Sonstiges,Ulmer Straße,48.779276208709,9.2313438401188
2026-02-23T13:39:24,2026-02-23,1,13,Sonstiges,Furtwänglerstraße,48.780326430142,9.1273419085464
2026-02-23T13:39:24,2026-02-23,1,13,Gefahrenstelle,"In der Nähe von Allmendhäule, Gew. 2",48.762599,9.2315014
2026-02-23T13:39:24,2026-02-23,1,13,Straße - Schäden,Schwabstraße,48.774749861015,9.1558693843142
2026-02-23T14:29:00,2026-02-23,1,14,Wilder Müll,"Im Schleifrain, Gew.",48.767468809319,9.1755974384899
2026-02-23T14:29:00,2026-02-23,1,14,Schlagloch,In der Nähe von Hausenring 15,48.814445879959,9.0846766314477
2026-02-23T14:29:00,2026-02-23,1,14,Gehweg - Verschmutzung,In der Nähe von Herdweg 14,48.784043686322,9.1694181710745
2026-02-23T14:29:00,2026-02-23,1,14,Verkehrszeichen,In der Nähe von Käthe-Loewenthal-Straße 2,48.738374405893,9.2174070415823
2026-02-23T14:29:00,2026-02-23,1,14,Straßeneinlauf - verstopft,In der Nähe von Schemppstraße 82,48.739119207815,9.2194710798963
2026-02-23T16:29:05,2026-02-23,1,16,Begrünung,Austraße,48.821944678267,9.2253181738479
2026-02-23T16:29:05,2026-02-23,1,16,Treppe,Pfizerstraße,48.774211786108,9.1906095791002
2026-02-23T16:29:05,2026-02-23,1,16,Wilder Müll,In der Nähe von Amstetter Straße 10,48.759017480606,9.2551613260582
2026-02-23T16:29:05,2026-02-23,1,16,Verkehrszeichen,In der Nähe von Heiligenwiesen 42,48.7627921573,9.2526841813506
2026-02-23T16:29:05,2026-02-23,1,16,Wilder Müll,"In der Nähe von Peterlesmorgen, Gew. 1",48.847949829338,9.183688971257
2026-02-23T16:29:05,2026-02-23,1,16,Wilder Müll,In der Nähe von Wilhelma 7/2,48.806201157536,9.2088008786769
2026-02-23T16:29:05,2026-02-23,1,16,Gehweg - Verschmutzung,Dennerstraße,48.80560768214,9.2300797317015
2026-02-23T16:29:05,2026-02-23,1,16,Sonstiges,Stafflenbergstraße,48.773627835719,9.1901776584483
2026-02-23T16:29:05,2026-02-23,1,16,Begrünung,Wagrainstraße,48.833462048429,9.2192923634497
2026-02-23T16:29:05,2026-02-23,1,16,Sonstiges,Eberhardstraße,48.772891675741,9.1779665520424
2026-02-23T17:33:00,2026-02-23,1,17,Straßenbeleuchtung,In der Nähe von Pfarrwegle 2,48.760680085611,9.1479046132166
2026-02-23T17:33:00,2026-02-23,1,17,Wilder Müll,In der Nähe von Konrad-Adenauer-Straße 4,48.776708578183,9.1844340370484
2026-02-23T17:33:00,2026-02-23,1,17,Brunnen / Gewässer,In der Nähe von Hummelberg (Plieningen),48.706467139916,9.1928762899227
2026-02-23T17:33:00,2026-02-23,1,17,Straße - Schäden,In der Nähe von Schelmenwasenstraße 49/1,48.706480130755,9.1725814714516
2026-02-23T18:32:28,2026-02-23,1,18,Wilder Müll,In der Nähe von Parlerstraße Tennisplätze,48.796310428088,9.1672783715519
2026-02-23T20:23:31,2026-02-23,1,20,Wilder Müll,Amstetter Straße,48.755007978283,9.258542263285
