first_seen_at_timestamp,first_seen_date,first_seen_weekday,first_seen_hour,category,location,lat,lon
2026-07-10T00:55:28,2026-07-10,5,0,Straße - Verschmutzung,Fuchswaldstraße,48.742175003358,9.1268102412949
2026-07-10T00:55:28,2026-07-10,5,0,Straßeneinlauf - verstopft,Kreuzhaldenstraße,48.755041283173,9.255712519287
2026-07-10T00:55:28,2026-07-10,5,0,Sonstiges,Jungnauer Straße,48.72302238913,9.1561581707361
2026-07-10T00:55:28,2026-07-10,5,0,Gehweg - Verschmutzung,Wiener Straße,48.811396372098,9.1580532758497
2026-07-10T00:55:28,2026-07-10,5,0,Ampel,In der Nähe von Bebelstraße 93,48.774614803818,9.1464418667519
2026-07-10T00:55:28,2026-07-10,5,0,Ampel,In der Nähe von Kriegsbergstraße 60/1,48.783299810157,9.1748043510554
2026-07-10T00:55:28,2026-07-10,5,0,Gefahrenstelle,Brackenheimer Straße,48.834798955012,9.1677747503967
2026-07-10T00:55:28,2026-07-10,5,0,Sonstiges,Veitstraße,48.845760740591,9.232389886296
2026-07-10T00:55:28,2026-07-10,5,0,Sonstiges,In der Nähe von Löwentorbogen 11,48.808950368472,9.1929262271317
2026-07-10T00:55:28,2026-07-10,5,0,Gefahrenstelle,In der Nähe von Augustenstraße 39B,48.771112762427,9.1649902221718
2026-07-10T00:55:28,2026-07-10,5,0,Gefahrenstelle,Reinsburgstraße,48.770256078688,9.1657495515925
2026-07-10T00:55:28,2026-07-10,5,0,Sonstiges,In der Nähe von Johannesstraße 27/1,48.776206987482,9.1624221794056
2026-07-10T00:55:28,2026-07-10,5,0,Verkehrszeichen,Asangstraße,48.773699961768,9.2775729491446
2026-07-10T00:55:28,2026-07-10,5,0,Sonstiges,In der Nähe von Feuerbacher-Tal-Straße 120/1,48.801102804251,9.1504892236391
2026-07-10T00:55:28,2026-07-10,5,0,Wilder Müll,Möhringer Straße,48.75909343592,9.1516845788006
2026-07-10T00:55:28,2026-07-10,5,0,Schlagloch,Augsburger Straße,48.758365049508,9.2734583446638
2026-07-10T00:55:28,2026-07-10,5,0,Verkehrszeichen,In der Nähe von Jahnstraße 124/1,48.757100435971,9.1916039507203
2026-07-10T00:55:28,2026-07-10,5,0,Begrünung,Grubenäcker,48.802848416746,9.1043295630138
2026-07-10T00:55:28,2026-07-10,5,0,Gehweg - Schäden,Furtwänglerstraße,48.77959175343,9.1246040420684
2026-07-10T00:55:28,2026-07-10,5,0,Verkehrszeichen,Schmellbachstraße,48.712986097681,9.1067777474633
2026-07-10T00:55:28,2026-07-10,5,0,Brunnen / Gewässer,Alexanderstraße,48.769907194315,9.182324611483
2026-07-10T00:55:28,2026-07-10,5,0,Gefahrenstelle,Heusteigstraße,48.770836816253,9.1803954114899
2026-07-10T00:55:28,2026-07-10,5,0,Wilder Müll,Erligheimer Straße,48.832161065985,9.1866927616531
2026-07-10T00:55:28,2026-07-10,5,0,Wilder Müll,In der Nähe von Hirsauer Straße / Kuckucksruf,48.7418354,9.1360733
2026-07-10T00:55:28,2026-07-10,5,0,Begrünung,Melanchthonstraße,48.806875987436,9.2322497091019
2026-07-10T00:55:28,2026-07-10,5,0,Brunnen / Gewässer,In der Nähe von Nordbahnhofstraße 41,48.794406921894,9.1893640832009
2026-07-10T00:55:28,2026-07-10,5,0,Gehweg - Verschmutzung,Kirschblütenweg,48.742052029459,9.1060671262408
2026-07-10T00:55:28,2026-07-10,5,0,Sonstiges,Mittenfeldstraße,48.8047232788,9.089189369978
2026-07-10T00:55:28,2026-07-10,5,0,Verkehrszeichen,In der Nähe von Tulpenapfelweg 26,48.83962398655,9.1887963440767
2026-07-10T00:55:28,2026-07-10,5,0,Gefahrenstelle,Schwabstraße,48.772004714861,9.1568816316517
2026-07-10T00:55:28,2026-07-10,5,0,Gefahrenstelle,In der Nähe von Karl-Kloß-Straße 4,48.760188328075,9.1594954566947
2026-07-10T00:55:28,2026-07-10,5,0,Straße - Verschmutzung,Dieterlestraße,48.807345497872,9.1600153712624
2026-07-10T00:55:28,2026-07-10,5,0,Begrünung,In der Nähe von Stuttgarter Straße 70,48.809904519201,9.1617730289434
2026-07-10T00:55:28,2026-07-10,5,0,Gehweg - Verschmutzung,Straßburger Straße,48.829811305156,9.1704559629097
2026-07-10T00:55:28,2026-07-10,5,0,Begrünung,In der Nähe von Feuerbacher-Tal-Straße 141/2,48.796911044346,9.1522521091729
2026-07-10T00:55:28,2026-07-10,5,0,Wilder Müll,Augsburger Straße,48.76696589891,9.2654759774335
2026-07-10T00:55:28,2026-07-10,5,0,Wilder Müll,In der Nähe von Heinestraße 123/1,48.750521814891,9.1544459324997
2026-07-10T00:55:28,2026-07-10,5,0,Gefahrenstelle,Maierwaldstraße,48.817458357339,9.1220687761659
2026-07-10T00:55:28,2026-07-10,5,0,Gefahrenstelle,Maierwaldstraße,48.817458357339,9.1220687761659
2026-07-10T00:55:28,2026-07-10,5,0,Wilder Müll,In der Nähe von Mainzer-/ Deidesheimer Straße,48.808230668342,9.1184283179334
2026-07-10T05:31:11,2026-07-10,5,5,Begrünung,Martha-Schmidtmann-Straße,48.810620016151,9.2337529281951
2026-07-10T05:31:11,2026-07-10,5,5,Ampel,In der Nähe von Böheimstraße 74,48.760618807922,9.1596019524405
2026-07-10T05:31:11,2026-07-10,5,5,Wilder Müll,In der Nähe von Stadtpark (Zuffenhausen),48.82775596681,9.1638394221651
2026-07-10T07:22:23,2026-07-10,5,7,Wilder Müll,Eulerstraße,48.716290788367,9.1208585825052
2026-07-10T07:22:23,2026-07-10,5,7,Gehweg - Schäden,Eisenbahnstraße,48.802697947474,9.2134794041245
2026-07-10T07:22:23,2026-07-10,5,7,Sonstiges,In der Nähe von Ameisenbergstraße 4,48.784094271292,9.1950491899005
2026-07-10T07:22:23,2026-07-10,5,7,Verkehrszeichen,Wolframstraße,48.792250947651,9.1837262521087
2026-07-10T07:22:23,2026-07-10,5,7,Wilder Müll,In der Nähe von Kirchheimer Straße 169/1,48.738423457429,9.2335551464144
2026-07-10T09:17:06,2026-07-10,5,9,Gefahrenstelle,Heusteigstraße,48.76979526217,9.1791260121012
2026-07-10T09:17:06,2026-07-10,5,9,Radweg - Verschmutzung,In der Nähe von Blankensteinstraße / Thomas-Münzer-Weg,48.843240305189,9.1995305480125
2026-07-10T09:17:06,2026-07-10,5,9,Treppe,In der Nähe von Hohenzollernstraße 18,48.766071283923,9.1636408602661
2026-07-10T09:17:06,2026-07-10,5,9,Sonstiges,Gerokstraße,48.779673010712,9.1923283559641
2026-07-10T09:17:06,2026-07-10,5,9,Gefahrenstelle,"In der Nähe von Oberer Brand, Gew. 7",48.739600610052,9.1209511521188
2026-07-10T09:17:06,2026-07-10,5,9,Sonstiges,In der Nähe von Brandenkopfweg 31,48.740289502107,9.1223418370283
2026-07-10T09:17:06,2026-07-10,5,9,Sonstiges,Scharfenschloßstraße,48.809054373559,9.1536602893429
2026-07-10T09:17:06,2026-07-10,5,9,Gehweg - Schäden,Zeppelinstraße,48.782656851943,9.1576777460939
2026-07-10T09:17:06,2026-07-10,5,9,Sonstiges,Schreiberstraße,48.761519682558,9.1603051779248
2026-07-10T09:17:06,2026-07-10,5,9,Sonstiges,In der Nähe von Liststraße 65,48.762734536351,9.1678689230942
2026-07-10T09:17:06,2026-07-10,5,9,Sonstiges,In der Nähe von Zellerstraße 69,48.761292400055,9.1711982592108
2026-07-10T09:17:06,2026-07-10,5,9,Sonstiges,In der Nähe von Liststraße 79,48.762617808128,9.1663839792034
2026-07-10T09:17:06,2026-07-10,5,9,Sonstiges,In der Nähe von Demetriusweg 33/4,48.737634552043,9.1177164415121
2026-07-10T09:17:06,2026-07-10,5,9,Straße - Verschmutzung,Forststraße,48.778210407437,9.1580035092353
2026-07-10T11:13:19,2026-07-10,5,11,Begrünung,Teichhuhnstraße,48.832137366112,9.2251458560329
2026-07-10T11:13:19,2026-07-10,5,11,Treppe,Stöckachplatz,48.789035648359,9.196893388191
2026-07-10T11:13:19,2026-07-10,5,11,Sonstiges,Kurt-Schumacher-Straße,48.712737748348,9.1510150197151
2026-07-10T11:13:19,2026-07-10,5,11,Brunnen / Gewässer,In der Nähe von Neue Brücke 10,48.775059376691,9.1758211534391
2026-07-10T11:13:19,2026-07-10,5,11,Ampel,In der Nähe von Neckarstraße 217,48.793264993105,9.2023300158158
2026-07-10T11:13:19,2026-07-10,5,11,Treppe,In der Nähe von Hirschstraße 36,48.773576854171,9.1756657609637
2026-07-10T11:13:19,2026-07-10,5,11,Verkehrszeichen,In der Nähe von Böblinger Straße 78A,48.762902707122,9.1595906160806
2026-07-10T12:55:21,2026-07-10,5,12,Wilder Müll,In der Nähe von Schmalzmarkt,48.77493159621,9.20378906071
2026-07-10T12:55:21,2026-07-10,5,12,Wilder Müll,Dornhaldenstraße,48.76041141289,9.1615670835227
2026-07-10T12:55:21,2026-07-10,5,12,Gefahrenstelle,Elbestraße,48.823109932037,9.2133481031095
2026-07-10T12:55:21,2026-07-10,5,12,Ampel,Vaihinger Straße,48.727494353346,9.1427169144318
2026-07-10T12:55:21,2026-07-10,5,12,Wilder Müll,In der Nähe von Im Buchwald 86,48.77153250825,9.2142514542807
2026-07-10T12:55:21,2026-07-10,5,12,Sonstiges,Lämmleshalde,48.810232280807,9.200830906757
2026-07-10T12:55:21,2026-07-10,5,12,Wilder Müll,In der Nähe von Hirschsprungallee 15,48.8248559,9.1543872
