first_seen_at_timestamp,first_seen_date,first_seen_weekday,first_seen_hour,category,location,lat,lon
2026-02-09T00:51:21,2026-02-09,1,0,Wilder Müll,In der Nähe von Kienbachstraße Schule,48.800113011558,9.2352986719048
2026-02-09T00:51:21,2026-02-09,1,0,Wilder Müll,"In der Nähe von Dürrbach, Gew. (Wa) 2",48.7715964,9.228177
2026-02-09T00:51:21,2026-02-09,1,0,Gefahrenstelle,In der Nähe von Jagststraße / Schussengasse,48.819923197848,9.224474427236
2026-02-09T00:51:21,2026-02-09,1,0,Gefahrenstelle,In der Nähe von Lerchenstraße 80,48.780091686063,9.1575264763763
2026-02-09T00:51:21,2026-02-09,1,0,Schlagloch,Maikammerstraße,48.8173188,9.1229551
2026-02-09T00:51:21,2026-02-09,1,0,Wilder Müll,Germersheimer Straße,48.813157175943,9.1144032958293
2026-02-09T00:51:21,2026-02-09,1,0,Wilder Müll,In der Nähe von Friedrichshaller Straße Bahnunterführung,48.838889914581,9.1678868414388
2026-02-09T00:51:21,2026-02-09,1,0,Wilder Müll,Feuerbacher Weg,48.797686893105,9.1642603483484
2026-02-09T00:51:21,2026-02-09,1,0,Straße - Schäden,Arminstraße,48.764267061854,9.1641377250298
2026-02-09T00:51:21,2026-02-09,1,0,Wilder Müll,In der Nähe von Danneckerstraße 18,48.771781938935,9.1852402295273
2026-02-09T00:51:21,2026-02-09,1,0,Wilder Müll,Amstetter Straße,48.755384985043,9.2589115450863
2026-02-09T00:51:21,2026-02-09,1,0,Wilder Müll,In der Nähe von Charlottenstraße 42,48.773263219012,9.1869288943963
2026-02-09T00:51:21,2026-02-09,1,0,Sonstiges,In der Nähe von Urbanstraße 47,48.781094012855,9.1884067510582
2026-02-09T00:51:21,2026-02-09,1,0,Straße - Verschmutzung,In der Nähe von Urbansplatz,48.780938129691,9.1883236350897
2026-02-09T00:51:21,2026-02-09,1,0,Sonstiges,In der Nähe von Schützenstraße 4,48.78096098094,9.1888062482919
2026-02-09T00:51:21,2026-02-09,1,0,Sonstiges,In der Nähe von Urbansplatz 12,48.780910221372,9.1887354160641
2026-02-09T00:51:21,2026-02-09,1,0,Sonstiges,In der Nähe von Schützenstraße 4,48.781016701742,9.1889738192749
2026-02-09T00:51:21,2026-02-09,1,0,Sonstiges,In der Nähe von Urbanstraße 62B,48.781131723769,9.1890927549023
2026-02-09T00:51:21,2026-02-09,1,0,Sonstiges,In der Nähe von Urbanstraße 62B,48.781210985725,9.1892116832805
2026-02-09T00:51:21,2026-02-09,1,0,Gehweg - Schäden,In der Nähe von Kernerstraße 45,48.781567930637,9.190306836637
2026-02-09T00:51:21,2026-02-09,1,0,Straßeneinlauf - verstopft,In der Nähe von Kernerstraße 43,48.781957965819,9.1903036583597
2026-02-09T00:51:21,2026-02-09,1,0,Straßeneinlauf - verstopft,In der Nähe von Kernerstraße 24A,48.782238051187,9.190109895506
2026-02-09T00:51:21,2026-02-09,1,0,Straßeneinlauf - verstopft,In der Nähe von Schützenstraße 11,48.781412975803,9.189606638847
2026-02-09T00:51:21,2026-02-09,1,0,Sonstiges,Wilhelmstraße (Ca),50.429952,8.0347136
2026-02-09T00:51:21,2026-02-09,1,0,Begrünung,In der Nähe von Dinghofstraße 41,48.724686745821,9.1495128436981
2026-02-09T00:51:21,2026-02-09,1,0,Gehweg - Verschmutzung,Ostendstraße,48.789135018348,9.2069277137764
2026-02-09T00:51:21,2026-02-09,1,0,Wilder Müll,In der Nähe von Argonnenstraße 17,48.806805321913,9.2450289602511
2026-02-09T00:51:21,2026-02-09,1,0,Wilder Müll,In der Nähe von Korianderstraße 14/1,48.744256638565,9.2321404796982
2026-02-09T00:51:21,2026-02-09,1,0,Wilder Müll,Rosenaustraße,48.809502635297,9.2114380367332
2026-02-09T00:51:21,2026-02-09,1,0,Ampel,In der Nähe von Bachstelzenstraße 3,48.831547982472,9.2221342478559
2026-02-09T00:51:21,2026-02-09,1,0,Wilder Müll,In der Nähe von Taläckerstraße 30/1,48.837803720099,9.1912143809222
2026-02-09T00:51:21,2026-02-09,1,0,Sonstiges,In der Nähe von Flamingoweg 22,48.830643177912,9.2309067723238
2026-02-09T00:51:21,2026-02-09,1,0,Sonstiges,In der Nähe von Flamingoweg 16,48.830905422151,9.231198294458
2026-02-09T00:51:21,2026-02-09,1,0,Wilder Müll,Landhausstraße,48.786546237749,9.1954405791896
2026-02-09T00:51:21,2026-02-09,1,0,Straße - Verschmutzung,Ebinger Weg,48.732052302862,9.1365761661802
2026-02-09T00:51:21,2026-02-09,1,0,Wilder Müll,Burgenlandstraße,48.809976211733,9.1571771190929
2026-02-09T00:51:21,2026-02-09,1,0,Sonstiges,Kattowitzer Straße,48.800983556094,9.2346477722038
2026-02-09T00:51:21,2026-02-09,1,0,Straße - Verschmutzung,Lorbeerstraße,48.740236641726,9.2331815646415
2026-02-09T00:51:21,2026-02-09,1,0,Wilder Müll,Taläckerstraße,48.838136484679,9.1908714582097
2026-02-09T00:51:21,2026-02-09,1,0,Gehweg - Schäden,In der Nähe von Ostendstraße 85,48.783934400956,9.2080620467128
2026-02-09T07:34:01,2026-02-09,1,7,Wilder Müll,In der Nähe von Danneckerstraße 47,48.767971225838,9.1830401500051
2026-02-09T07:34:01,2026-02-09,1,7,Gefahrenstelle,Rostocker Straße,48.817148583256,9.2067977923947
2026-02-09T07:34:01,2026-02-09,1,7,Gefahrenstelle,In der Nähe von Jagststraße / Schussengasse,48.819932278148,9.2244611508444
2026-02-09T07:34:01,2026-02-09,1,7,Sonstiges,Theoderichweg,48.80944776596,9.174336746907
2026-02-09T08:25:38,2026-02-09,1,8,Wilder Müll,Klotzstraße,48.796570331688,9.2093275782004
2026-02-09T08:25:38,2026-02-09,1,8,Gefahrenstelle,In der Nähe von Echazstraße 1,48.819938776947,9.2240754707818
2026-02-09T09:30:41,2026-02-09,1,9,Verkehrszeichen,Bachhalde,48.846767480161,9.2236984847949
2026-02-09T11:26:50,2026-02-09,1,11,Sonstiges,In der Nähe von Überkinger Straße 48,48.808624663707,9.2162536462337
2026-02-09T11:26:50,2026-02-09,1,11,Sonstiges,In der Nähe von Burgunderstraße 77,48.825941813446,9.17007918863
2026-02-09T11:26:50,2026-02-09,1,11,Gehweg - Verschmutzung,In der Nähe von Elsässer Straße 26,48.830282841674,9.1693467690553
2026-02-09T11:26:50,2026-02-09,1,11,Gefahrenstelle,In der Nähe von Im Weingarten 9,48.794526231218,9.2590312025783
2026-02-09T11:26:50,2026-02-09,1,11,Wilder Müll,Römerstraße,48.763829676929,9.1740699380386
2026-02-09T12:29:07,2026-02-09,1,12,Gefahrenstelle,In der Nähe von Danielweg 29,48.791769493377,9.2580956955789
2026-02-09T12:29:07,2026-02-09,1,12,Treppe,In der Nähe von Eberhardstraße 1,48.774389637096,9.1798478097441
2026-02-09T12:29:07,2026-02-09,1,12,Straße - Schäden,Handwerkstraße,48.721238662798,9.1297070329153
2026-02-09T12:29:07,2026-02-09,1,12,Gefahrenstelle,In der Nähe von Danielweg 1,48.79115949227,9.2602205899004
2026-02-09T12:29:07,2026-02-09,1,12,Wilder Müll,Wildunger Straße,48.803461867588,9.2279590564667
2026-02-09T12:29:07,2026-02-09,1,12,Wilder Müll,"In der Nähe von Heinrizau, Gew. 4",48.846947881648,9.1780698020738
2026-02-09T12:29:07,2026-02-09,1,12,Wilder Müll,"In der Nähe von Heinrizau, Gew. 4",48.846598685376,9.1784338079117
2026-02-09T13:41:46,2026-02-09,1,13,Wilder Müll,"In der Nähe von Peterlesmorgen, Gew. 1",48.848091422427,9.1819390247302
2026-02-09T13:41:46,2026-02-09,1,13,Wilder Müll,"In der Nähe von Peterlesmorgen, Gew. 1",48.848888011306,9.1828476647135
2026-02-09T13:41:46,2026-02-09,1,13,Wilder Müll,"In der Nähe von Peterlesmorgen, Gew. 1",48.848162380523,9.1819114800464
2026-02-09T13:41:46,2026-02-09,1,13,Wilder Müll,"In der Nähe von Peterlesmorgen, Gew. 1",48.848661895836,9.1823887384147
2026-02-09T13:41:46,2026-02-09,1,13,Gehweg - Verschmutzung,Stubaier Straße,48.783741983798,9.25001826914
2026-02-09T13:41:46,2026-02-09,1,13,Wilder Müll,In der Nähe von Landhausstraße / Comburgstraße,48.78287239878,9.2203836903547
2026-02-09T14:32:20,2026-02-09,1,14,Straße - Verschmutzung,Segelfalterstraße,48.848501990461,9.1661712165685
2026-02-09T15:29:45,2026-02-09,1,15,Begrünung,Fasanenplatz,48.816572520917,9.0870717365397
2026-02-09T16:30:39,2026-02-09,1,16,Begrünung,Kernerstraße,48.785367460121,9.190249240009
2026-02-09T16:30:39,2026-02-09,1,16,Gefahrenstelle,Metzinger Straße,48.741391115396,9.169721518456
2026-02-09T16:30:39,2026-02-09,1,16,Gefahrenstelle,In der Nähe von Jagststraße / Schussengasse,48.819928955637,9.2244519394818
2026-02-09T16:30:39,2026-02-09,1,16,Verkehrszeichen,In der Nähe von Demetriusweg 39,48.736947220174,9.1179762853811
2026-02-09T18:28:32,2026-02-09,1,18,Wilder Müll,In der Nähe von Auf der Steig / Rostocker Straße,48.815724018458,9.2080931631175
2026-02-09T18:28:32,2026-02-09,1,18,Ampel,In der Nähe von Hallschlag 30,48.814684667871,9.2067622637363
2026-02-09T18:28:32,2026-02-09,1,18,Wilder Müll,In der Nähe von Sparrhärmlingweg / Am Römerkastell,48.81233508278,9.2062517823032
2026-02-09T18:28:32,2026-02-09,1,18,Wilder Müll,In der Nähe von Sophie-Tschorn-Straße 75,48.818203278771,9.2375257486923
2026-02-09T19:39:08,2026-02-09,1,19,Gefahrenstelle,In der Nähe von Kirchheimer Straße 130,48.740391391035,9.2200616073136
2026-02-09T19:39:08,2026-02-09,1,19,Wilder Müll,In der Nähe von Amstetter Straße / Manzeller Weg,48.755181034456,9.2588011361527
2026-02-09T19:39:08,2026-02-09,1,19,Straßenbeleuchtung,Oelschlägerstraße,48.748744153323,9.2161211306988
