first_seen_at_timestamp,first_seen_date,first_seen_weekday,first_seen_hour,category,location,lat,lon
2026-04-01T01:00:45,2026-04-01,3,1,Straße - Schäden,Gotthilf-Dreher-Straße,48.820043517278,9.1188736649525
2026-04-01T01:00:45,2026-04-01,3,1,Gefahrenstelle,Tiefenbachstraße,48.75626412873,9.2212283069694
2026-04-01T01:00:45,2026-04-01,3,1,Wilder Müll,Pfennigäcker,48.739448835385,9.2312737599172
2026-04-01T01:00:45,2026-04-01,3,1,Sonstiges,In der Nähe von Bergheimer Steige,48.784124618228,9.0911580225384
2026-04-01T01:00:45,2026-04-01,3,1,Wilder Müll,Eichenparkstraße,48.735252038226,9.2102152862403
2026-04-01T01:00:45,2026-04-01,3,1,Wilder Müll,In der Nähe von Aulendorfer Straße 21/2,48.727451130068,9.2078420710912
2026-04-01T01:00:45,2026-04-01,3,1,Sonstiges,Böblinger Straße,48.756378299634,9.1433633159853
2026-04-01T01:00:45,2026-04-01,3,1,Sonstiges,Hohe Straße,48.777312362015,9.169570352807
2026-04-01T01:00:45,2026-04-01,3,1,Wilder Müll,Amstetter Straße,48.75512523353,9.2584068111333
2026-04-01T01:00:45,2026-04-01,3,1,Sonstiges,In der Nähe von Heiligenwiesen 35,48.7628879,9.2534765
2026-04-01T01:00:45,2026-04-01,3,1,Wilder Müll,In der Nähe von Aspergstraße 11/1,48.777646939153,9.203204943581
2026-04-01T01:00:45,2026-04-01,3,1,Wilder Müll,Böblinger Straße,48.763719237296,9.1634827705657
2026-04-01T01:00:45,2026-04-01,3,1,Gehweg - Verschmutzung,In der Nähe von Wilhelmsplatz (M) 6,48.7714634,9.179132
2026-04-01T01:00:45,2026-04-01,3,1,Wilder Müll,Nürnberger Straße,48.808712229265,9.24277403544
2026-04-01T01:00:45,2026-04-01,3,1,Verkehrszeichen,In der Nähe von Hofener Straße 50,48.810810810811,9.2204013538432
2026-04-01T01:00:45,2026-04-01,3,1,Sonstiges,In der Nähe von Lindpaintnerstraße 17B,48.77251117924,9.1306788908285
2026-04-01T01:00:45,2026-04-01,3,1,Straße - Schäden,In der Nähe von Wagenburgstraße / Klingenstraße,48.780942877065,9.2095091198019
2026-04-01T01:00:45,2026-04-01,3,1,Wilder Müll,Strümpfelbacher Straße,48.781391359323,9.2553426860455
2026-04-01T01:00:45,2026-04-01,3,1,Gehweg - Verschmutzung,Hirschstraße,48.775195661073,9.1773077666474
2026-04-01T01:00:45,2026-04-01,3,1,Gehweg - Schäden,Neckartalstraße,48.805977282259,9.2108648314992
2026-04-01T01:00:45,2026-04-01,3,1,Sonstiges,Wilhelmstraße (Ca),48.805553200052,9.216405991936
2026-04-01T01:00:45,2026-04-01,3,1,Sonstiges,Linzer Straße,48.812192481635,9.1547595432211
2026-04-01T01:00:45,2026-04-01,3,1,Wilder Müll,In der Nähe von Eichenparkstraße 20,48.734972208666,9.210019928702
2026-04-01T01:00:45,2026-04-01,3,1,Gehweg - Verschmutzung,In der Nähe von Remstalstraße 32,48.802197581423,9.2407554543847
2026-04-01T01:00:45,2026-04-01,3,1,Gehweg - Verschmutzung,In der Nähe von Züttlinger Straße 1,48.836216123896,9.1996220872236
2026-04-01T01:00:45,2026-04-01,3,1,Wilder Müll,In der Nähe von Schemppstraße / Olivenstraße,48.736429815823,9.2137258430562
2026-04-01T01:00:45,2026-04-01,3,1,Gefahrenstelle,Teckstraße,48.786267084656,9.2059357290362
2026-04-01T01:00:45,2026-04-01,3,1,Straße - Schäden,In der Nähe von Kurt-Schumacher-Straße 251/6,48.709339009822,9.139941892299
2026-04-01T01:00:45,2026-04-01,3,1,Straße - Verschmutzung,Hospitalstraße,48.778187944099,9.1736159484881
2026-04-01T01:00:45,2026-04-01,3,1,Schlagloch,Olgastraße,48.765776856083,9.1773154311726
2026-04-01T01:00:45,2026-04-01,3,1,Wilder Müll,In der Nähe von Nägelestraße 15,48.752931164062,9.1756431030885
2026-04-01T01:00:45,2026-04-01,3,1,Straße - Schäden,Gutenbergstraße,48.774114887918,9.1660752954691
2026-04-01T01:00:45,2026-04-01,3,1,Gefahrenstelle,Schützenstraße,48.782146228512,9.1906590579753
2026-04-01T01:00:45,2026-04-01,3,1,Gefahrenstelle,Werastraße,48.782405122062,9.1918579602987
2026-04-01T01:00:45,2026-04-01,3,1,Sonstiges,Tiefenbachstraße,48.755864471489,9.2278116519453
2026-04-01T01:00:45,2026-04-01,3,1,Straße - Verschmutzung,Am Bopserweg,48.765774206348,9.1847319181986
2026-04-01T01:00:45,2026-04-01,3,1,Gehweg - Verschmutzung,Am Bopserweg,48.765774206348,9.1847319181986
2026-04-01T01:00:45,2026-04-01,3,1,Wilder Müll,In der Nähe von Haldenrainstraße 25/2,48.830744041137,9.1789669606443
2026-04-01T01:00:45,2026-04-01,3,1,Gefahrenstelle,Solitudestraße,48.815479382462,9.1131281406018
2026-04-01T01:00:45,2026-04-01,3,1,Wilder Müll,In der Nähe von Schmollerstraße 99,48.829471061375,9.2314489651407
2026-04-01T06:47:12,2026-04-01,3,6,Schlagloch,In der Nähe von Rotenwaldstraße 373,48.764219162388,9.1262802929815
2026-04-01T07:44:00,2026-04-01,3,7,Straße - Verschmutzung,In der Nähe von Ulmer Straße 111,48.785210088534,9.2235167648951
2026-04-01T07:44:00,2026-04-01,3,7,Sonstiges,Klinglerstraße,48.77809089643,9.1313788915544
2026-04-01T07:44:00,2026-04-01,3,7,Wilder Müll,Karl-Pfaff-Straße,48.747583817464,9.1734560829565
2026-04-01T08:39:41,2026-04-01,3,8,Gehweg - Verschmutzung,Uhlandstraße,48.775143458334,9.1875565019976
2026-04-01T09:36:20,2026-04-01,3,9,Sonstiges,In der Nähe von Eisenbahnstraße / König-Karl-Straße,48.8023067,9.2148272
2026-04-01T10:31:53,2026-04-01,3,10,Wilder Müll,Heusteigstraße,48.768172131561,9.1757860589444
2026-04-01T10:31:53,2026-04-01,3,10,Straßeneinlauf - verstopft,Am Schnarrenberg,48.825377568784,9.1978395560417
2026-04-01T10:31:53,2026-04-01,3,10,Gefahrenstelle,In der Nähe von Max-Eyth-See 5,48.837524628098,9.2139814096717
2026-04-01T11:29:26,2026-04-01,3,11,Ampel,In der Nähe von Aldinger Straße 75/1,48.84198771667,9.2307749092129
2026-04-01T11:29:26,2026-04-01,3,11,Straße - Schäden,Reinbeckstraße,48.716011170685,9.1031030805741
2026-04-01T11:29:26,2026-04-01,3,11,Gefahrenstelle,In der Nähe von Hauptstätter Straße 30/1,48.773936318667,9.1799974218299
2026-04-01T11:29:26,2026-04-01,3,11,Schlagloch,Reinbeckstraße,48.716011173961,9.1031030805808
2026-04-01T11:29:26,2026-04-01,3,11,Sonstiges,Dürnauer Weg,48.725767067492,9.201908498512
2026-04-01T12:34:30,2026-04-01,3,12,Wilder Müll,Feuerbacher Heide,48.787529456865,9.1518791779422
2026-04-01T12:34:30,2026-04-01,3,12,Wilder Müll,Duisburger Straße,48.80913875824,9.2136293242757
2026-04-01T13:44:32,2026-04-01,3,13,Gehweg - Verschmutzung,In der Nähe von Freiberg-/ Moselstraße,48.822739306236,9.2200292444258
2026-04-01T14:43:16,2026-04-01,3,14,Verkehrszeichen,Kirchheimer Straße,48.741683944035,9.2199945614627
2026-04-01T14:43:16,2026-04-01,3,14,Straße - Schäden,In der Nähe von Calwer Straße 5,48.777485793449,9.1755931171945
2026-04-01T15:39:03,2026-04-01,3,15,Sonstiges,Rohrackerstraße,48.75872374086,9.254316149461
2026-04-01T18:29:44,2026-04-01,3,18,Kanaldeckel,In der Nähe von Hirschsprung 14/1,48.720115821266,9.0936367284626
2026-04-01T19:33:05,2026-04-01,3,19,Sonstiges,In der Nähe von Luise-Duttenhofer-Straße 11,48.819966064338,9.2314770321417
2026-04-01T19:33:05,2026-04-01,3,19,Sonstiges,In der Nähe von Katharinenstraße 16A,48.772264577545,9.1822906307995
2026-04-01T19:33:05,2026-04-01,3,19,Sonstiges,In der Nähe von Käthe-Kollwitz-Weg 3A,48.736284602084,9.0908869707051
2026-04-01T20:23:42,2026-04-01,3,20,Sonstiges,Linzer Straße,48.812192481635,9.1547595432211
2026-04-01T20:23:42,2026-04-01,3,20,Verkehrszeichen,In der Nähe von Filderstraße 45,48.763910454496,9.1712434863156
2026-04-01T21:25:05,2026-04-01,3,21,Wilder Müll,In der Nähe von Dachswaldweg 37,48.744587223985,9.1122519987932
