first_seen_at_timestamp,first_seen_date,first_seen_weekday,first_seen_hour,category,location,lat,lon
2026-07-08T00:51:45,2026-07-08,3,0,Brunnen / Gewässer,Marktplatz (Ca),48.805314635063,9.2140897441498
2026-07-08T00:51:45,2026-07-08,3,0,Gefahrenstelle,In der Nähe von Lindenbachstraße 69,48.815629813824,9.1230603481618
2026-07-08T00:51:45,2026-07-08,3,0,Gefahrenstelle,In der Nähe von Hofener Straße 40,48.810550268905,9.2195991938944
2026-07-08T00:51:45,2026-07-08,3,0,Sonstiges,Josef-Waibel-Weg,48.816968352808,9.1554689711093
2026-07-08T00:51:45,2026-07-08,3,0,Sonstiges,In der Nähe von Reichenbachstraße 54,48.7983319,9.2261076
2026-07-08T00:51:45,2026-07-08,3,0,Straße - Verschmutzung,Otto-Dix-Weg,48.782211433979,9.1825430566695
2026-07-08T00:51:45,2026-07-08,3,0,Sonstiges,Am Schwanenplatz,48.79704063109,9.2079406307397
2026-07-08T00:51:45,2026-07-08,3,0,Wilder Müll,Rotenwaldstraße,48.772529447716,9.1478325678461
2026-07-08T00:51:45,2026-07-08,3,0,Wilder Müll,In der Nähe von Sauerkirschenweg 4,48.839320040221,9.1910883948096
2026-07-08T00:51:45,2026-07-08,3,0,Gehweg - Verschmutzung,In der Nähe von Hackstraße 84/1,48.788959751252,9.206103209872
2026-07-08T00:51:45,2026-07-08,3,0,Gehweg - Verschmutzung,In der Nähe von Willy-Brandt-Straße 30,48.784095166266,9.1882430300521
2026-07-08T00:51:45,2026-07-08,3,0,Brunnen / Gewässer,In der Nähe von Rohrackerstraße 35/1,48.757217306603,9.2518772600932
2026-07-08T00:51:45,2026-07-08,3,0,Wilder Müll,Erligheimer Straße,48.832161069295,9.1866927616654
2026-07-08T00:51:45,2026-07-08,3,0,Verkehrszeichen,In der Nähe von Parlerstraße 86,48.794924053181,9.17016432138
2026-07-08T00:51:45,2026-07-08,3,0,Verkehrszeichen,In der Nähe von Parlerstraße Tennisplätze,48.796040476638,9.1683995580372
2026-07-08T00:51:45,2026-07-08,3,0,Straßenbeleuchtung,In der Nähe von Parlerstraße 120K,48.796906404448,9.1672211880979
2026-07-08T00:51:45,2026-07-08,3,0,Gehweg - Schäden,In der Nähe von Parlerstraße Tennisplätze,48.796363319972,9.1680174211702
2026-07-08T00:51:45,2026-07-08,3,0,Wilder Müll,"In der Nähe von Froschäcker, Gew. 1",48.8108904,9.1039267
2026-07-08T00:51:45,2026-07-08,3,0,Sonstiges,Honoldweg,48.783257431792,9.151076734775
2026-07-08T00:51:45,2026-07-08,3,0,Sonstiges,Maierwaldstraße,48.817458357339,9.1220687761659
2026-07-08T00:51:45,2026-07-08,3,0,Gefahrenstelle,In der Nähe von Schönbuchstraße 63,48.712883785438,9.1069342144473
2026-07-08T00:51:45,2026-07-08,3,0,Gefahrenstelle,Maierwaldstraße,48.817458354032,9.1220687761578
2026-07-08T00:51:45,2026-07-08,3,0,Gefahrenstelle,In der Nähe von Rotenwaldstraße 114,48.7704485,9.1431524
2026-07-08T00:51:45,2026-07-08,3,0,Gefahrenstelle,Sprollstraße,48.737827801178,9.1763058641175
2026-07-08T00:51:45,2026-07-08,3,0,Sonstiges,Honoldweg,48.782408983354,9.1526959691138
2026-07-08T00:51:45,2026-07-08,3,0,Verkehrszeichen,"In der Nähe von Breitwiesen, Gew. 6",48.71946512934,9.1322396836307
2026-07-08T00:51:45,2026-07-08,3,0,Gefahrenstelle,Maierwaldstraße,48.817458357339,9.1220687761659
2026-07-08T00:51:45,2026-07-08,3,0,Wilder Müll,Wilhelmstraße (M),48.770567898542,9.1797820185991
2026-07-08T00:51:45,2026-07-08,3,0,Gefahrenstelle,Waldburgstraße,48.7234403559,9.0944298975135
2026-07-08T00:51:45,2026-07-08,3,0,Sonstiges,Ameisenbergstraße,48.784441799918,9.1950784618459
2026-07-08T00:51:45,2026-07-08,3,0,Radweg - Scherben,In der Nähe von Heinrich-Baumann-Steg,48.792260951025,9.1964839236228
2026-07-08T00:51:45,2026-07-08,3,0,Kanaldeckel,In der Nähe von Steiermärker Straße 45,48.813972081845,9.1592717554657
2026-07-08T00:51:45,2026-07-08,3,0,Sonstiges,Bernsteinstraße,48.738370448083,9.226168491545
2026-07-08T00:51:45,2026-07-08,3,0,Sonstiges,In der Nähe von Köstlinstraße 131,48.804979141488,9.1163198952192
2026-07-08T00:51:45,2026-07-08,3,0,Sonstiges,Barbarossastraße,48.791910116249,9.2582688922782
2026-07-08T00:51:45,2026-07-08,3,0,Gefahrenstelle,Maierwaldstraße,48.817458354032,9.1220687761578
2026-07-08T00:51:45,2026-07-08,3,0,Sonstiges,Egerer Straße,48.728744714541,9.1555367707206
2026-07-08T00:51:45,2026-07-08,3,0,Sonstiges,Augsburger Straße,48.769275044878,9.2632438415424
2026-07-08T00:51:45,2026-07-08,3,0,Sonstiges,In der Nähe von Ostendstraße 63/1,48.785446649513,9.2078417220326
2026-07-08T00:51:45,2026-07-08,3,0,Sonstiges,Roßbergstraße,48.78498776232,9.2069923434145
