first_seen_at_timestamp,first_seen_date,first_seen_weekday,first_seen_hour,category,location,lat,lon
2026-04-30T01:06:28,2026-04-30,4,1,Gehweg - Schäden,Gaußstraße,48.779369786318,9.1451574933914
2026-04-30T01:06:28,2026-04-30,4,1,Gefahrenstelle,In der Nähe von Echterdinger Straße 100/1,48.69874715593,9.192431969998
2026-04-30T01:06:28,2026-04-30,4,1,Poller,In der Nähe von Biberacher Straße 43,48.769973242878,9.2457319913782
2026-04-30T01:06:28,2026-04-30,4,1,Sonstiges,Hedelfinger Straße,48.770958189166,9.2460760392067
2026-04-30T01:06:28,2026-04-30,4,1,Wilder Müll,Mahatma-Gandhi-Straße,48.818705731002,9.1906478245014
2026-04-30T01:06:28,2026-04-30,4,1,Sonstiges,Christophstraße,48.770039713191,9.1781197858256
2026-04-30T01:06:28,2026-04-30,4,1,Gefahrenstelle,Elisabethenstraße,48.773631081759,9.1582749567245
2026-04-30T01:06:28,2026-04-30,4,1,Bäder,Krefelder Straße,48.811287781067,9.214169656054
2026-04-30T01:06:28,2026-04-30,4,1,Bäder,Krefelder Straße,48.811287777763,9.2141696560399
2026-04-30T01:06:28,2026-04-30,4,1,Sonstiges,Löwentorbogen,48.808950368472,9.1929262271317
2026-04-30T01:06:28,2026-04-30,4,1,Wilder Müll,In der Nähe von Zabergäustraße 110,48.837290429776,9.1651547122316
2026-04-30T01:06:28,2026-04-30,4,1,Bäder,Krefelder Straße,48.811287781067,9.214169656054
2026-04-30T01:06:28,2026-04-30,4,1,Sonstiges,In der Nähe von Obere Weinsteige 68/1,48.754639946184,9.1740596938319
2026-04-30T01:06:28,2026-04-30,4,1,Sonstiges,Heinrich-Ebner-Straße,48.799865408239,9.2223732114307
2026-04-30T01:06:28,2026-04-30,4,1,Sonstiges,In der Nähe von Weidenbrunnen 40,48.846027849627,9.2358670086076
2026-04-30T01:06:28,2026-04-30,4,1,Bäder,Krefelder Straße,48.811287777763,9.2141696560399
2026-04-30T01:06:28,2026-04-30,4,1,Bäder,In der Nähe von Krefelder Straße 24,48.811229523038,9.2143636942138
2026-04-30T01:06:28,2026-04-30,4,1,Gefahrenstelle,In der Nähe von Walter-Erich-Schäfer-Weg,48.779748725959,9.183748238347
2026-04-30T01:06:28,2026-04-30,4,1,Sonstiges,In der Nähe von Wagrainstraße 1,48.834580550271,9.2208072059299
2026-04-30T01:06:28,2026-04-30,4,1,Sonstiges,In der Nähe von Lina-Hähnle Weg,48.78328449739,9.1421612171785
2026-04-30T01:06:28,2026-04-30,4,1,Sonstiges,In der Nähe von Neue Weinsteige 185,48.754601524363,9.1759518602784
2026-04-30T01:06:28,2026-04-30,4,1,Sonstiges,In der Nähe von Im Raiser 15,48.826981759195,9.1901838480389
2026-04-30T01:06:28,2026-04-30,4,1,Begrünung,In der Nähe von Fahrionstraße 43,48.807066129697,9.160653627402
2026-04-30T01:06:28,2026-04-30,4,1,Straße - Verschmutzung,Arndtstraße,48.774701928988,9.1513368859913
2026-04-30T01:06:28,2026-04-30,4,1,Verkehrszeichen,In der Nähe von Bei den Funktürmen 44,48.733518563716,9.175165166342
2026-04-30T01:06:28,2026-04-30,4,1,Sonstiges,In der Nähe von Erich-Hermann-Weg / Steiermärker Straße,48.813873183167,9.1574334674771
2026-04-30T01:06:28,2026-04-30,4,1,Straße - Verschmutzung,In der Nähe von Lissabonner Straße,48.788988023415,9.1834567879871
2026-04-30T01:06:28,2026-04-30,4,1,Sonstiges,Tulpenapfelweg,48.847387512073,9.2079976301007
2026-04-30T01:06:28,2026-04-30,4,1,Gefahrenstelle,Landhausstraße,48.782368140016,9.2224456427449
2026-04-30T01:06:28,2026-04-30,4,1,Bäder,Außerhalb Stuttgarts,48.8394003,9.3576022
2026-04-30T01:06:28,2026-04-30,4,1,Straße - Schäden,In der Nähe von Ehmannstraße 2/1,48.8037884364,9.1895970515049
2026-04-30T01:06:28,2026-04-30,4,1,Sonstiges,Augustenstraße,48.769446510224,9.1593233253674
2026-04-30T01:06:28,2026-04-30,4,1,Verkehrszeichen,Reuchlinstraße,48.770884937149,9.1599947481593
2026-04-30T01:06:28,2026-04-30,4,1,Gefahrenstelle,Eckartstraße,48.795243059761,9.1914303419176
2026-04-30T01:06:28,2026-04-30,4,1,Sonstiges,Rotebühlstraße,48.770931947899,9.1585250561913
2026-04-30T01:06:28,2026-04-30,4,1,Ampel,Amstetter Straße,48.759477592889,9.2547928825211
2026-04-30T01:06:28,2026-04-30,4,1,Sonstiges,Gundelsheimer Straße,48.833093316953,9.1941499066409
2026-04-30T01:06:28,2026-04-30,4,1,Sonstiges,Öhringer Straße,48.825742161233,9.1783852331751
2026-04-30T01:06:28,2026-04-30,4,1,Bäder,Am Römerkastell,48.811373535076,9.214031165766
2026-04-30T01:06:28,2026-04-30,4,1,Wilder Müll,In der Nähe von Lehmfeldstraße 29,48.820238362802,9.2395415578157
2026-04-30T05:17:45,2026-04-30,4,5,Wilder Müll,Schickstraße,48.769023109821,9.1838864604682
2026-04-30T05:17:45,2026-04-30,4,5,Sonstiges,Waldäckerstraße,48.830000824349,9.1573759983997
2026-04-30T05:17:45,2026-04-30,4,5,Verkehrszeichen,Wagrainstraße,48.832645184933,9.2183622062326
2026-04-30T05:17:45,2026-04-30,4,5,Wilder Müll,Sarweystraße,48.806861444795,9.1861901794344
2026-04-30T07:06:48,2026-04-30,4,7,Wilder Müll,Weidenweg,48.762203097661,9.1668388490362
2026-04-30T07:06:48,2026-04-30,4,7,Gefahrenstelle,In der Nähe von Triebschlag 13,48.74471520311,9.1267452174853
2026-04-30T07:06:48,2026-04-30,4,7,Bäder,In der Nähe von Rosenbergstraße 27,48.780222281484,9.161568698377
2026-04-30T07:06:48,2026-04-30,4,7,Sonstiges,Marbacher Straße,48.832125802046,9.1763503852726
2026-04-30T07:52:25,2026-04-30,4,7,Wilder Müll,Ruiter Straße,48.756830922207,9.2559665076451
2026-04-30T08:57:52,2026-04-30,4,8,Sonstiges,Herdweg,48.785826809989,9.1536982714906
2026-04-30T08:57:52,2026-04-30,4,8,Kanaldeckel,Haldenstraße,48.810194520543,9.2106819712987
2026-04-30T08:57:52,2026-04-30,4,8,Wilder Müll,Sophienstraße,48.769150357081,9.1773136996484
