first_seen_at_timestamp,first_seen_date,first_seen_weekday,first_seen_hour,category,location,lat,lon
2026-01-17T00:38:45,2026-01-17,6,0,Gehweg - Verschmutzung,Johannesstraße,48.780448142678,9.1596439984969
2026-01-17T00:38:45,2026-01-17,6,0,Verkehrszeichen,In der Nähe von Böheimstraße 73,48.760275633021,9.1584167370654
2026-01-17T00:38:45,2026-01-17,6,0,Verkehrszeichen,Gebelsbergstraße,48.762043371989,9.1522513584037
2026-01-17T00:38:45,2026-01-17,6,0,Wilder Müll,In der Nähe von Neugütlestraße 16,48.747999665609,9.2117617692559
2026-01-17T00:38:45,2026-01-17,6,0,Straße - Verschmutzung,In der Nähe von Glemsgaustraße 3,48.814210887587,9.1119896235266
2026-01-17T00:38:45,2026-01-17,6,0,Gehweg - Schäden,Ostendstraße,48.784626800237,9.2076170730229
2026-01-17T00:38:45,2026-01-17,6,0,Wilder Müll,Mainzer Straße,48.808379185811,9.1188266160835
2026-01-17T00:38:45,2026-01-17,6,0,Gehweg - Verschmutzung,In der Nähe von Leinfeldener Straße 74,48.745123734574,9.1718310885959
2026-01-17T00:38:45,2026-01-17,6,0,Wilder Müll,In der Nähe von Neue Straße 176,48.770305552127,9.2135785599127
2026-01-17T00:38:45,2026-01-17,6,0,Sonstiges,Am Stadtpark,48.829081979177,9.1582996469304
2026-01-17T00:38:45,2026-01-17,6,0,Gefahrenstelle,Schwarenbergstraße,48.787911848062,9.2016948171805
2026-01-17T00:38:45,2026-01-17,6,0,Gefahrenstelle,In der Nähe von Herderstraße 20/9,48.773980396914,9.1437296643525
2026-01-17T00:38:45,2026-01-17,6,0,Gehweg - Verschmutzung,In der Nähe von Heinrich-Baumann-Straße 25B,48.7900203,9.200359
2026-01-17T00:38:45,2026-01-17,6,0,Wilder Müll,In der Nähe von Kienbachstraße Schule,48.800089880153,9.2352480293627
2026-01-17T00:38:45,2026-01-17,6,0,Sonstiges,Stuttgarter Straße,48.810028759532,9.1515248922667
2026-01-17T00:38:45,2026-01-17,6,0,Sonstiges,Goslarer Straße,48.816356474892,9.1261390582696
2026-01-17T00:38:45,2026-01-17,6,0,Sonstiges,Burgstallstraße,48.757808600502,9.1504697678627
2026-01-17T00:38:45,2026-01-17,6,0,Begrünung,In der Nähe von Gärtnerstraße 17,48.756726343026,9.2558532761734
2026-01-17T00:38:45,2026-01-17,6,0,Gefahrenstelle,In der Nähe von Dinghofstraße 24,48.724856024785,9.1485961305357
2026-01-17T00:38:45,2026-01-17,6,0,Schlagloch,In der Nähe von Hegelstraße 4,48.782649895061,9.168693888533
2026-01-17T00:38:45,2026-01-17,6,0,Verkehrszeichen,In der Nähe von Hegelstraße 4,48.782560910154,9.1685853697417
2026-01-17T00:38:45,2026-01-17,6,0,Radweg - Scherben,In der Nähe von Stresemannstraße 4/1,48.80118873721,9.1732784489824
2026-01-17T00:38:45,2026-01-17,6,0,Straßenbeleuchtung,In der Nähe von Franklinstraße 80,48.829995193437,9.160212103151
2026-01-17T00:38:45,2026-01-17,6,0,Straßenbeleuchtung,Dr.-Gotthilf-Schenkel-Weg,48.828200131485,9.1883811900451
2026-01-17T00:38:45,2026-01-17,6,0,Verkehrszeichen,In der Nähe von Herdweg 88,48.786492852381,9.1587196984361
2026-01-17T00:38:45,2026-01-17,6,0,Gehweg - Verschmutzung,Buowaldstraße,48.751975722982,9.2198218172291
2026-01-17T00:38:45,2026-01-17,6,0,Wilder Müll,Bopserstraße,48.770380508293,9.178801465976
2026-01-17T00:38:45,2026-01-17,6,0,Sonstiges,In der Nähe von Fasanenhofstraße 181/1,48.709906615041,9.153441481151
2026-01-17T00:38:45,2026-01-17,6,0,Gefahrenstelle,In der Nähe von Fasanenhofstraße 181/1,48.71001795012,9.1533756748265
2026-01-17T00:38:45,2026-01-17,6,0,Sonstiges,In der Nähe von Fasanenhofstraße 181/1,48.710051953616,9.1533513046205
2026-01-17T00:38:45,2026-01-17,6,0,Wilder Müll,Johannesstraße,48.781961705756,9.1580152838324
2026-01-17T00:38:45,2026-01-17,6,0,Straßenbeleuchtung,Hördtstraße,48.835902836633,9.1651128953867
2026-01-17T00:38:45,2026-01-17,6,0,Radweg - Verschmutzung,In der Nähe von Gaggenauer Straße 21/1,48.783884982191,9.2468002997198
2026-01-17T00:38:45,2026-01-17,6,0,Gehweg - Schäden,In der Nähe von Amstetter Straße 21,48.758117143766,9.2555043040082
2026-01-17T00:38:45,2026-01-17,6,0,Gefahrenstelle,In der Nähe von Jagststraße / Schussengasse,48.819931916559,9.2244491769819
2026-01-17T00:38:45,2026-01-17,6,0,Sonstiges,Teckstraße,48.790221827095,9.2078716082709
2026-01-17T00:38:45,2026-01-17,6,0,Schlagloch,In der Nähe von Hegelstraße 4,48.782645974162,9.1685259351168
2026-01-17T00:38:45,2026-01-17,6,0,Straßenbeleuchtung,Burgstallstraße,48.757289060026,9.1487538658089
2026-01-17T00:38:45,2026-01-17,6,0,Sonstiges,In der Nähe von Happoldstraße 70,48.808085458525,9.1647630668808
2026-01-17T00:38:45,2026-01-17,6,0,Ampel,Schozacher Straße,48.82915762466,9.187894075808
2026-01-17T08:16:49,2026-01-17,6,8,Sonstiges,Krailenshaldenstraße,48.8201943612,9.1766490505153
2026-01-17T08:16:49,2026-01-17,6,8,Begrünung,Am Feldrand,48.737325975401,9.0995017113712
