first_seen_at_timestamp,first_seen_date,first_seen_weekday,first_seen_hour,category,location,lat,lon
2024-08-01T00:30:36,2024-08-01,4,0,Sonstiges,In der Nähe von Mozartstraße 36A,48.767980077504,9.1770209883707
2024-08-01T00:30:36,2024-08-01,4,0,Gehweg - Verschmutzung,In der Nähe von Burgstallstraße 79,48.75662028012,9.1474969690414
2024-08-01T00:30:36,2024-08-01,4,0,Sonstiges,Badbrunnenstraße 109,48.808270463497,9.2474570978994
2024-08-01T00:30:36,2024-08-01,4,0,Gefahrenstelle,In der Nähe von Skulptur Der Mönch von Münster (Jagststraße / Schussengasse),48.81993427437,9.2244653566455
2024-08-01T00:30:36,2024-08-01,4,0,Wilder Müll,Suttnerstraße 1,48.841233064792,9.2054114000049
2024-08-01T00:30:36,2024-08-01,4,0,Sonstiges,In der Nähe von Im Wolfer 42,48.707905810554,9.2009703979692
2024-08-01T00:30:36,2024-08-01,4,0,Gehweg - Schäden,Löwenstraße 116,48.748758195916,9.1819488053502
2024-08-01T00:30:36,2024-08-01,4,0,Straße - Verschmutzung,In der Nähe von Knappstraße 4,48.796388140037,9.1907119006072
2024-08-01T00:30:36,2024-08-01,4,0,Straße - Verschmutzung,In der Nähe von Eckartstraße 5,48.795468547736,9.1909797064062
2024-08-01T00:30:36,2024-08-01,4,0,Straße - Verschmutzung,In der Nähe von Knollstraße 7,48.797326599145,9.1921408819947
2024-08-01T00:30:36,2024-08-01,4,0,Straße - Verschmutzung,In der Nähe von Kleinstraße 18,48.798357040185,9.1911985616269
2024-08-01T00:30:36,2024-08-01,4,0,Straße - Verschmutzung,In der Nähe von Steinbeisstraße 22,48.79921661835,9.1933688813494
2024-08-01T00:30:36,2024-08-01,4,0,Wilder Müll,In der Nähe von Rümelinstraße 31,48.795486490098,9.1917628700909
2024-08-01T00:30:36,2024-08-01,4,0,Wilder Müll,Lütticher Straße 6,48.807535721385,9.2418422263484
2024-08-01T00:30:36,2024-08-01,4,0,Wilder Müll,In der Nähe von Nordbahnhofstraße 97,48.798520808859,9.1900519509813
2024-08-01T00:30:36,2024-08-01,4,0,Wilder Müll,In der Nähe von Schönestraße 34/1,48.800820186469,9.2116317460636
2024-08-01T00:30:36,2024-08-01,4,0,Straße - Schäden,Ringelnatzweg 12,48.746747526302,9.2060326603626
2024-08-01T00:30:36,2024-08-01,4,0,Gehweg - Verschmutzung,Schwarenbergstraße 83,48.7845869,9.2024199
2024-08-01T00:30:36,2024-08-01,4,0,Gehweg - Verschmutzung,In der Nähe von Trettachstraße 8,48.779674826289,9.2523420122337
2024-08-01T00:30:36,2024-08-01,4,0,Sonstiges,In der Nähe von Brunnenanlage Weißenburgpark (Hohenheimer Straße (beim Teehaus)),48.764378,9.1827299
2024-08-01T00:30:36,2024-08-01,4,0,Sonstiges,Landauer Straße 42A,48.811144920748,9.1204598486895
2024-08-01T00:30:36,2024-08-01,4,0,Wilder Müll,Zanderweg 18,48.843796482576,9.2202506484954
2024-08-01T00:30:36,2024-08-01,4,0,Radweg - Schäden,Wernerstraße 83,48.820639740266,9.1685665661104
2024-08-01T00:30:36,2024-08-01,4,0,Wilder Müll,In der Nähe von Rosensteinstraße 55,48.799434438869,9.19465584371
2024-08-01T00:30:36,2024-08-01,4,0,Gehweg - Verschmutzung,Steubenstraße 1,48.796050424211,9.2083041820564
2024-08-01T00:30:36,2024-08-01,4,0,Wilder Müll,Forststraße 121,48.776542904147,9.1537515946444
2024-08-01T00:30:36,2024-08-01,4,0,Wilder Müll,Forststraße 125,48.776408472894,9.1533700727033
2024-08-01T00:30:36,2024-08-01,4,0,Gehweg - Verschmutzung,Augustenstraße 10,48.772419535228,9.1689005931915
2024-08-01T00:30:36,2024-08-01,4,0,Wilder Müll,Steckfeldstraße 2,48.714624237117,9.205140168513
2024-08-01T00:30:36,2024-08-01,4,0,Sonstiges,Maurenstraße 30C,48.704314834331,9.2149522309926
2024-08-01T00:30:36,2024-08-01,4,0,Ampel,Rosensteinstraße 25,48.794557463856,9.1925714803389
2024-08-01T00:30:36,2024-08-01,4,0,Sonstiges,In der Nähe von Bachstraße 6,48.731586218324,9.1084329560443
2024-08-01T00:30:36,2024-08-01,4,0,Sonstiges,Martin-Luther-Straße 1,48.80743844543,9.2231693882207
2024-08-01T00:30:36,2024-08-01,4,0,Sonstiges,Dr.-Herbert-Czaja-Weg 8,48.827352979413,9.1893181338522
2024-08-01T00:30:36,2024-08-01,4,0,Wilder Müll,Lütticher Straße 4,48.807679769074,9.2417884406763
2024-08-01T00:30:36,2024-08-01,4,0,Straßenbeleuchtung,In der Nähe von Rötestraße 40,48.7717739,9.1552881
2024-08-01T00:30:36,2024-08-01,4,0,Sonstiges,Markgröninger Straße 80,48.834269568368,9.1668327341231
2024-08-01T00:30:36,2024-08-01,4,0,Straße - Schäden,Bottwarstraße 16,48.831160823627,9.1763469502319
2024-08-01T00:30:36,2024-08-01,4,0,Gehweg - Schäden,In der Nähe von Hallenbad Zuffenhausen (Haldenrainstraße 31),48.830039779665,9.1793401903616
2024-08-01T00:30:36,2024-08-01,4,0,Gefahrenstelle,Schützenbühlstraße 23,48.834231369718,9.1620768610836
2024-08-01T05:15:12,2024-08-01,4,5,Radweg - Scherben,In der Nähe von Ruhbank (Kirchheimer Straße),48.753637474157,9.1950375502858
2024-08-01T05:15:12,2024-08-01,4,5,Verkehrszeichen,In der Nähe von Duisburger Straße 54,48.809529180217,9.214259219099
2024-08-01T06:16:18,2024-08-01,4,6,Gehweg - Schäden,Steinwaldstraße 90,48.717305341603,9.1998625469807
2024-08-01T06:16:18,2024-08-01,4,6,Sonstiges,In der Nähe von Dinkelstraße 100,48.721720800389,9.1917909172811
2024-08-01T07:15:03,2024-08-01,4,7,Sonstiges,Eberhardstraße 33,48.77369086274,9.1789084935815
2024-08-01T07:15:03,2024-08-01,4,7,Verkehrszeichen,In der Nähe von Birkacher Straße 75,48.726195234043,9.2108431293152
2024-08-01T07:15:03,2024-08-01,4,7,Brunnen / Gewässer,In der Nähe von Nöllenstraße 13,48.776716145562,9.1250874803852
2024-08-01T07:15:03,2024-08-01,4,7,Brunnen / Gewässer,Nöllenstraße 25E,48.77587301103,9.1243337796515
2024-08-01T08:16:01,2024-08-01,4,8,Straße - Schäden,Rotebühlplatz 1,48.773968977628,9.1735197378884
2024-08-01T08:16:01,2024-08-01,4,8,Wilder Müll,In der Nähe von Herschelstraße 38D,48.717174,9.1236695
2024-08-01T08:16:01,2024-08-01,4,8,Verkehrszeichen,In der Nähe von Baumschule P. Haag (Chemnitzer Straße 23),48.7381167352,9.1687568768281
2024-08-01T09:15:10,2024-08-01,4,9,Sonstiges,Strombergstraße 6,48.782489318503,9.2056344047888
2024-08-01T09:15:10,2024-08-01,4,9,Straße - Verschmutzung,Hasenbergsteige 60,48.766109543512,9.1522636497719
2024-08-01T09:15:10,2024-08-01,4,9,Wilder Müll,Zuckerbergstraße 151,48.825470409926,9.2346667014132
2024-08-01T09:15:10,2024-08-01,4,9,Verkehrszeichen,Katzenbachstraße 57,48.73242647962,9.1058428893063
2024-08-01T10:15:37,2024-08-01,4,10,Sonstiges,In der Nähe von Adalbert-Stifter-Straße 40,48.839681148686,9.211233951082
2024-08-01T10:15:37,2024-08-01,4,10,Wilder Müll,In der Nähe von Uhlbacher Straße 59,48.766272,9.2701067
2024-08-01T10:15:37,2024-08-01,4,10,Straße - Verschmutzung,In der Nähe von Scillawaldstraße 89,48.837174127898,9.2256257866489
2024-08-01T11:15:20,2024-08-01,4,11,Sonstiges,Heinestraße 41B,48.748229286805,9.1626571168999
2024-08-01T11:15:20,2024-08-01,4,11,Gehweg - Verschmutzung,Wendelin-Hippler-Straße 30,48.818505140706,9.1189517623551
2024-08-01T11:15:20,2024-08-01,4,11,Straße - Verschmutzung,In der Nähe von Beim Höhenfreibad 6,48.807174859298,9.175441179822
2024-08-01T11:15:20,2024-08-01,4,11,Straße - Schäden,"In der Nähe von Eschbach, Gew. 1",48.845693473919,9.2095132354087
2024-08-01T12:16:56,2024-08-01,4,12,Straße - Schäden,In der Nähe von Mittlere Filderstraße,48.757209897834,9.1939827011414
2024-08-01T12:16:56,2024-08-01,4,12,Gefahrenstelle,In der Nähe von Albrecht-Leo-Merz-Weg 1/2,48.766778979512,9.2045861320935
2024-08-01T12:16:56,2024-08-01,4,12,Gehweg - Verschmutzung,In der Nähe von Wernerstraße 124/1,48.825806571566,9.1697355316468
2024-08-01T12:16:56,2024-08-01,4,12,Schlagloch,Rosenbergstraße 38,48.781135428725,9.1634984875034
2024-08-01T12:16:56,2024-08-01,4,12,Kanaldeckel,Böblinger Straße 86,48.762637362386,9.158730276365
2024-08-01T13:16:22,2024-08-01,4,13,Straßeneinlauf - verstopft,In der Nähe von Hedelfinger Brücken,48.752975095251,9.2641806211335
2024-08-01T13:16:22,2024-08-01,4,13,Gefahrenstelle,In der Nähe von Skulptur Der Mönch von Münster (Jagststraße / Schussengasse),48.819921404707,9.2244668129944
2024-08-01T14:15:55,2024-08-01,4,14,Wilder Müll,Gablenberger Hauptstraße 35,48.778735052641,9.2072797036222
2024-08-01T14:15:55,2024-08-01,4,14,Ampel,In der Nähe von Reinsburgstraße 105,48.768037052831,9.1555949752205
2024-08-01T15:15:30,2024-08-01,4,15,Sonstiges,Filderstraße 22,48.764603407083,9.1740181802659
2024-08-01T15:15:30,2024-08-01,4,15,Brunnen / Gewässer,Schmellbachstraße 20A,48.714968708639,9.1018910366455
2024-08-01T15:15:30,2024-08-01,4,15,Sonstiges,In der Nähe von Elbestraße 2,48.820052930329,9.222911679062
2024-08-01T15:15:30,2024-08-01,4,15,Sonstiges,In der Nähe von Elbestraße 2,48.820067909091,9.2229229303651
2024-08-01T16:15:57,2024-08-01,4,16,Kanaldeckel,In der Nähe von Rotenwaldstraße 130/1,48.769146280727,9.1453009665771
2024-08-01T16:15:57,2024-08-01,4,16,Sonstiges,Veielbrunnenweg 92,48.798804430536,9.2267124043627
2024-08-01T17:15:20,2024-08-01,4,17,Straße - Verschmutzung,Kolumbusstraße 20,48.846097314521,9.1552592611149
2024-08-01T17:15:20,2024-08-01,4,17,Straße - Verschmutzung,Marconistraße 50,48.830731376963,9.1559884516755
2024-08-01T17:15:20,2024-08-01,4,17,Wilder Müll,Stammheimer Straße 5,48.832860278019,9.1647023351708
2024-08-01T17:15:20,2024-08-01,4,17,Kanaldeckel,In der Nähe von Allmandring 26L,48.745044845682,9.0950982256069
2024-08-01T17:15:20,2024-08-01,4,17,Wilder Müll,Franklinstraße 61,48.829418921768,9.1618297062237
2024-08-01T17:15:20,2024-08-01,4,17,Wilder Müll,Bessemerstraße 2,48.829134534124,9.1657120287799
2024-08-01T18:16:00,2024-08-01,4,18,Gehweg - Verschmutzung,In der Nähe von Wildunger Straße 98,48.80391733321,9.2317766871966
2024-08-01T18:16:00,2024-08-01,4,18,Kanaldeckel,"In der Nähe von Bandtäle, Gew. 3/1",48.748431671558,9.0902993353759
2024-08-01T18:16:00,2024-08-01,4,18,Sonstiges,Duisburger Straße 49,48.80904073335,9.2131249694257
2024-08-01T19:14:24,2024-08-01,4,19,Sonstiges,Schlotwiese 3,48.828566157247,9.1539106938609
2024-08-01T19:14:24,2024-08-01,4,19,Wilder Müll,In der Nähe von Kerbelstraße 3A,48.743232291556,9.2349452395179
2024-08-01T19:14:24,2024-08-01,4,19,Sonstiges,In der Nähe von Buowaldstraße 27,48.751295973511,9.2201722227215
