first_seen_at_timestamp,first_seen_date,first_seen_weekday,first_seen_hour,category,location,lat,lon
2024-06-07T00:26:26,2024-06-07,5,0,Bäder,Im Wolfer 40,48.708012272162,9.1999344840551
2024-06-07T00:26:26,2024-06-07,5,0,Straßenbeleuchtung,Zur Schillereiche 23,48.764150250062,9.1820180076155
2024-06-07T00:26:26,2024-06-07,5,0,Wilder Müll,Fritz-Reuter-Straße 14,48.774366271117,9.1465449567025
2024-06-07T00:26:26,2024-06-07,5,0,Sonstiges,Trettachstraße 14,48.7820099,9.2543036
2024-06-07T00:26:26,2024-06-07,5,0,Sonstiges,In der Nähe von Uferstraße 107,48.7877083869,9.2275832283155
2024-06-07T00:26:26,2024-06-07,5,0,Sonstiges,In der Nähe von Talstraße 203,48.790759508071,9.2220429867947
2024-06-07T00:26:26,2024-06-07,5,0,Gefahrenstelle,In der Nähe von Am Neckartor 20,48.788032665929,9.189791748697
2024-06-07T00:26:26,2024-06-07,5,0,Sonstiges,In der Nähe von Hermann-Löns-Weg 29,48.741965537561,9.2057645846246
2024-06-07T00:26:26,2024-06-07,5,0,Sonstiges,In der Nähe von Am Eichenhain 19,48.742680770262,9.2044191771424
2024-06-07T00:26:26,2024-06-07,5,0,Sonstiges,"In der Nähe von Spitalwald Sillenbuch (Spitalwald, Gew.)",48.748966533325,9.1984187843111
2024-06-07T00:26:26,2024-06-07,5,0,Sonstiges,Yitzhak-Rabin-Straße 13,48.817433325827,9.1875916200736
2024-06-07T00:26:26,2024-06-07,5,0,Sonstiges,Veielbrunnenweg 72,48.799266740754,9.2249170025275
2024-06-07T00:26:26,2024-06-07,5,0,Gefahrenstelle,"Unteres Rot, Gew. 1",48.763346152071,9.2509103710708
2024-06-07T00:26:26,2024-06-07,5,0,Wilder Müll,Bachstraße 6,48.73138947424,9.1084925104777
2024-06-07T00:26:26,2024-06-07,5,0,Gehweg - Schäden,Obere Waiblinger Straße 137,48.80762171812,9.2350600907751
2024-06-07T00:26:26,2024-06-07,5,0,Gefahrenstelle,In der Nähe von Florian-Geyer-Straße 2,48.819371669207,9.1174707844929
2024-06-07T00:26:26,2024-06-07,5,0,Sonstiges,Heidehofstraße 9,48.77792935799,9.19469932568
2024-06-07T00:26:26,2024-06-07,5,0,Verkehrszeichen,Wagrainstraße 55,48.831648481171,9.2173904228669
2024-06-07T00:26:26,2024-06-07,5,0,Gefahrenstelle,In der Nähe von Hechinger Straße 113,48.717117915891,9.1434423570292
2024-06-07T00:26:26,2024-06-07,5,0,Gehweg - Verschmutzung,In der Nähe von Leonberger Straße 226,48.757800047643,9.1252537773437
2024-06-07T00:26:26,2024-06-07,5,0,Sonstiges,In der Nähe von Schillerplatz 5A,48.777521229378,9.1782195908981
2024-06-07T00:26:26,2024-06-07,5,0,Gefahrenstelle,Schreiberstraße 25,48.760277587737,9.1611781578132
2024-06-07T00:26:26,2024-06-07,5,0,Gehweg - Schäden,Dornhaldenstraße 5,48.760275954634,9.1619340316791
2024-06-07T00:26:26,2024-06-07,5,0,Ampel,Kornwestheimer Straße 26,48.849205304614,9.158622057058
2024-06-07T00:26:26,2024-06-07,5,0,Sonstiges,Losäckerstraße 21,48.8155675,9.0845662
2024-06-07T00:26:26,2024-06-07,5,0,Sonstiges,In der Nähe von Losäckerstraße 15F,48.815610202743,9.0851164380828
2024-06-07T00:26:26,2024-06-07,5,0,Straße - Verschmutzung,In der Nähe von Mahnmal für die Opfer nationalsozialistischer Gewaltherrschaft (Planie),48.77696028752,9.1803497425221
2024-06-07T00:26:26,2024-06-07,5,0,Schlagloch,In der Nähe von Köstlinstraße 150,48.804492420164,9.1134161112245
2024-06-07T00:26:26,2024-06-07,5,0,Brunnen / Gewässer,Furtbachstraße 2A,48.770876034578,9.1724067001144
2024-06-07T00:26:26,2024-06-07,5,0,Brunnen / Gewässer,In der Nähe von Bopserwaldstraße 3,48.766137176734,9.1832346150278
2024-06-07T00:26:26,2024-06-07,5,0,Sonstiges,In der Nähe von Lerchenstieg 8,48.746138897588,9.1976624513008
2024-06-07T00:26:26,2024-06-07,5,0,Schlagloch,In der Nähe von Freytagweg 30A,48.710687908046,9.1581528831321
2024-06-07T00:26:26,2024-06-07,5,0,Sonstiges,"In der Nähe von Unteres Rot, Gew. 1",48.76336744845,9.2510239097377
2024-06-07T00:26:26,2024-06-07,5,0,SSB Haltestelle,In der Nähe von Galateabrunnen (Eugensplatz / Alexanderstraße),48.7778535,9.1903664
2024-06-07T00:26:26,2024-06-07,5,0,Straße - Schäden,In der Nähe von Kriegerstraße 12,48.786989757804,9.1796016976255
2024-06-07T00:26:26,2024-06-07,5,0,Wilder Müll,Strohberg 17,48.763616045659,9.172558748795
2024-06-07T00:26:26,2024-06-07,5,0,Schlagloch,Schönaicher Straße 14,48.743359227124,9.1710883648375
2024-06-07T00:26:26,2024-06-07,5,0,Gehweg - Verschmutzung,In der Nähe von Bärenseestraße 15,48.749988686398,9.0783221417345
2024-06-07T00:26:26,2024-06-07,5,0,Sonstiges,Neue Weinsteige 66,48.765771059194,9.1810440710348
2024-06-07T00:26:26,2024-06-07,5,0,Straße - Verschmutzung,Wilhelm-Blos-Straße 84A,48.803574302616,9.1796275931474
2024-06-07T05:15:19,2024-06-07,5,5,Wilder Müll,Bachstraße 6,48.731389470959,9.1084925104707
2024-06-07T06:16:15,2024-06-07,5,6,Gehweg - Verschmutzung,Peregrinastraße 27,48.745093608169,9.1598448486153
2024-06-07T06:16:15,2024-06-07,5,6,Straße - Schäden,Sparrhärmlingweg 123,48.811141249507,9.1953727064824
