first_seen_at_timestamp,first_seen_date,first_seen_weekday,first_seen_hour,category,location,lat,lon
2024-10-19T00:30:46,2024-10-19,6,0,Radweg - Scherben,In der Nähe von Wildermuthweg 25,48.768075851932,9.1344990139208
2024-10-19T00:30:46,2024-10-19,6,0,Sonstiges,Linzer Straße 51,48.812192481635,9.1547595432211
2024-10-19T00:30:46,2024-10-19,6,0,Straßenbeleuchtung,Kaindlstraße 42,48.751316161728,9.0866596282267
2024-10-19T00:30:46,2024-10-19,6,0,Straßenbeleuchtung,Tellstraße 6,48.83668374285,9.1645513399588
2024-10-19T00:30:46,2024-10-19,6,0,Straßeneinlauf - verstopft,Lothringer Straße 6,48.832802753098,9.167168523681
2024-10-19T00:30:46,2024-10-19,6,0,Straßeneinlauf - verstopft,Bockelstraße 90C,48.743059665063,9.2295628570887
2024-10-19T00:30:46,2024-10-19,6,0,Wilder Müll,Furtbachstraße 2B,48.771074555178,9.1719990893417
2024-10-19T00:30:46,2024-10-19,6,0,Ampel,In der Nähe von Borkumstraße 4,48.834742014205,9.1437177534324
2024-10-19T00:30:46,2024-10-19,6,0,Sonstiges,Ohmstraße 2,48.828238,9.1650883
2024-10-19T00:30:46,2024-10-19,6,0,Sonstiges,Linzer Straße 51,48.81219247833,9.1547595432109
2024-10-19T00:30:46,2024-10-19,6,0,Wilder Müll,Erdmannhäuser Straße 23,48.846774531027,9.159991027969
2024-10-19T00:30:46,2024-10-19,6,0,Wilder Müll,Niersteiner Straße 7A,48.811212324645,9.1247504795084
2024-10-19T00:30:46,2024-10-19,6,0,Sonstiges,Mönchhaldenstraße 45,48.791718311949,9.1733222450749
2024-10-19T00:30:46,2024-10-19,6,0,Gehweg - Verschmutzung,Reinsburgstraße 86,48.768527678818,9.160218612007
2024-10-19T00:30:46,2024-10-19,6,0,Wilder Müll,In der Nähe von Flurstraße 30,48.81238435144,9.2244643498284
2024-10-19T00:30:46,2024-10-19,6,0,Sonstiges,In der Nähe von Tapachstraße 79C,48.826804456279,9.1953623045061
2024-10-19T00:30:46,2024-10-19,6,0,Gehweg - Schäden,Epplestraße 29,48.746464128274,9.170228310211
2024-10-19T00:30:46,2024-10-19,6,0,Ampel,Maybachstraße 32,48.810441803275,9.1772958053847
2024-10-19T00:30:46,2024-10-19,6,0,Radweg - Schäden,In der Nähe von Augsburger Straße 515,48.773361828062,9.2611354449681
2024-10-19T00:30:46,2024-10-19,6,0,Straße - Schäden,Hafenbahnstraße 41,48.754329015109,9.2682800801019
2024-10-19T00:30:46,2024-10-19,6,0,Sonstiges,In der Nähe von Johannes-Brenz-Platz,48.776349269621,9.177648019394
2024-10-19T00:30:46,2024-10-19,6,0,Wilder Müll,In der Nähe von Rotenwaldstraße 120,48.76995463509,9.1441197530146
2024-10-19T00:30:46,2024-10-19,6,0,Wilder Müll,Böheimstraße 1A,48.763398278504,9.1677273021895
2024-10-19T00:30:46,2024-10-19,6,0,Wilder Müll,In der Nähe von Fellbacher Straße 70A,48.787820140751,9.2575340594899
2024-10-19T00:30:46,2024-10-19,6,0,Sonstiges,Eduard-Steinle-Straße 64A,48.749963476817,9.2183166012946
2024-10-19T00:30:46,2024-10-19,6,0,Poller,Augsburger Straße 674,48.762693895281,9.2688825335569
2024-10-19T00:30:46,2024-10-19,6,0,Sonstiges,Goppeltstraße 18,48.800556969474,9.1930438289638
2024-10-19T00:30:46,2024-10-19,6,0,Wilder Müll,In der Nähe von Neue Straße 150,48.768917299718,9.212655797842
2024-10-19T00:30:46,2024-10-19,6,0,Gefahrenstelle,Mannspergerstraße 48,48.745703243461,9.2390288686061
2024-10-19T00:30:46,2024-10-19,6,0,Sonstiges,Leypoldtstraße 5C,48.702844303541,9.2171749388995
2024-10-19T00:30:46,2024-10-19,6,0,Radweg - Verschmutzung,In der Nähe von Böblinger Straße 276/2,48.753311820655,9.1382552767176
2024-10-19T00:30:46,2024-10-19,6,0,Wilder Müll,In der Nähe von Pforzheimer Straße 383,48.813177526146,9.1120427220984
2024-10-19T00:30:46,2024-10-19,6,0,Sonstiges,In der Nähe von Geräte- und Ballspielfläche (Spielpyramide Rosensteinpark),48.805705,9.19286
2024-10-19T00:30:46,2024-10-19,6,0,Sonstiges,Heustraße 4,48.77852734173,9.1728261256652
2024-10-19T00:30:46,2024-10-19,6,0,Wilder Müll,Enzstraße 49,48.817176195522,9.2210058206153
2024-10-19T00:30:46,2024-10-19,6,0,Sonstiges,Emil-Schuler-Platz 1,48.831198921244,9.1749572361516
2024-10-19T00:30:46,2024-10-19,6,0,Gefahrenstelle,Paulusstraße 11,48.772696134638,9.151099485529
2024-10-19T00:30:46,2024-10-19,6,0,Gefahrenstelle,Rotenwaldstraße 76,48.77219847377,9.1463617179691
2024-10-19T00:30:46,2024-10-19,6,0,Sonstiges,In der Nähe von Hofener Straße 66,48.811610810941,9.2213542899484
2024-10-19T00:30:46,2024-10-19,6,0,Verkehrszeichen,Dinkelsbühler Straße 12,48.803695439151,9.2413743502186
2024-10-19T06:16:22,2024-10-19,6,6,Gehweg - Schäden,In der Nähe von Stettener Straße 119,48.78485298359,9.2825161060659
2024-10-19T08:16:16,2024-10-19,6,8,Gefahrenstelle,Mönchhaldenstraße 41,48.791825504169,9.1738263801417
2024-10-19T08:16:16,2024-10-19,6,8,Wilder Müll,In der Nähe von Hohenloher Straße 11,48.8298596,9.1762578
2024-10-19T09:15:23,2024-10-19,6,9,Gehweg - Schäden,In der Nähe von Neckartalstraße 97,48.808088166289,9.2132425238352
2024-10-19T09:15:23,2024-10-19,6,9,Wilder Müll,In der Nähe von Waldburgstraße 243A,48.7179067,9.0881266
2024-10-19T10:15:34,2024-10-19,6,10,Verkehrszeichen,Robert-Leicht-Straße 128,48.741367876013,9.108066838784
2024-10-19T10:15:34,2024-10-19,6,10,Gefahrenstelle,In der Nähe von Eberhardstraße 49,48.773161307338,9.1773905561749
