first_seen_at_timestamp,first_seen_date,first_seen_weekday,first_seen_hour,category,location,lat,lon
2024-07-22T00:28:40,2024-07-22,1,0,Gefahrenstelle,In der Nähe von Am Leuzebad 22,48.79961151534,9.2105370513355
2024-07-22T00:28:40,2024-07-22,1,0,Sonstiges,Usedomstraße 63,48.838456251673,9.1511745230608
2024-07-22T00:28:40,2024-07-22,1,0,Poller,In der Nähe von Hofener Straße 122,48.815067352582,9.226474981148
2024-07-22T00:28:40,2024-07-22,1,0,Brunnen / Gewässer,Seeadlerstraße 3,48.832566320068,9.2311297392422
2024-07-22T00:28:40,2024-07-22,1,0,Gehweg - Schäden,Rotweg 172,48.834827577824,9.1953012714271
2024-07-22T00:28:40,2024-07-22,1,0,Wilder Müll,In der Nähe von Großglocknerstraße 59,48.782218133868,9.2548235603192
2024-07-22T00:28:40,2024-07-22,1,0,Gehweg - Schäden,Burgenlandstraße 98,48.810541536112,9.158214033337
2024-07-22T00:28:40,2024-07-22,1,0,SSB Haltestelle,In der Nähe von Biberbrunnen (Wilhelm-Geiger-Platz),48.811831516943,9.1590762085554
2024-07-22T00:28:40,2024-07-22,1,0,Ampel,In der Nähe von Emmauskirche (Schemppstraße 49),48.736286627005,9.2134510221808
2024-07-22T00:28:40,2024-07-22,1,0,Gehweg - Schäden,Stuttgarter Straße 74,48.809816129222,9.161055903274
2024-07-22T00:28:40,2024-07-22,1,0,Ampel,In der Nähe von Dürnauer Weg 56,48.723947167111,9.2035105569439
2024-07-22T00:28:40,2024-07-22,1,0,Gefahrenstelle,Löwentorstraße 43,48.8068359,9.1873696
2024-07-22T00:28:40,2024-07-22,1,0,Sonstiges,Im Gaizen 57,48.817778571458,9.1550355624518
2024-07-22T00:28:40,2024-07-22,1,0,Straßenbeleuchtung,In der Nähe von Nagoldstraße 100,48.821922193536,9.2145979225426
2024-07-22T00:28:40,2024-07-22,1,0,Verkehrszeichen,Schiltacher Straße 12A,48.740623861779,9.1379731342651
2024-07-22T00:28:40,2024-07-22,1,0,Brunnen / Gewässer,Strümpfelbacher Straße 3,48.778432865327,9.2548104362946
2024-07-22T00:28:40,2024-07-22,1,0,Sonstiges,Bolzstraße 6,48.779943851856,9.178399844165
2024-07-22T00:28:40,2024-07-22,1,0,Wilder Müll,In der Nähe von Kochelseeweg 23,48.830847149712,9.2185893134948
2024-07-22T00:28:40,2024-07-22,1,0,Sonstiges,In der Nähe von Richard-Wagner-Straße 28,48.77163275356,9.1912176713021
2024-07-22T00:28:40,2024-07-22,1,0,Gehweg - Verschmutzung,Möwenweg 60,48.833035901112,9.2176916953685
2024-07-22T00:28:40,2024-07-22,1,0,Gehweg - Verschmutzung,Mühlhäuser Straße 303,48.835486801671,9.2189332683811
2024-07-22T00:28:40,2024-07-22,1,0,Sonstiges,In der Nähe von Jahnstraße 85,48.7548477742,9.1810313211661
2024-07-22T00:28:40,2024-07-22,1,0,Wilder Müll,In der Nähe von Altenburger Steige 32,48.811834352116,9.2110026872687
2024-07-22T00:28:40,2024-07-22,1,0,Sonstiges,In der Nähe von Nauheimer Straße 53,48.806059942297,9.2221692974753
2024-07-22T00:28:40,2024-07-22,1,0,Sonstiges,In der Nähe von Nauheimer Straße 53,48.806060740563,9.2221696198028
2024-07-22T00:28:40,2024-07-22,1,0,Sonstiges,In der Nähe von Elsterweg 17,48.759246609553,9.1451185681566
2024-07-22T00:28:40,2024-07-22,1,0,Kanaldeckel,In der Nähe von Lorenzstaffel 8,48.772050968534,9.184481297921
2024-07-22T00:28:40,2024-07-22,1,0,Gefahrenstelle,In der Nähe von Heusteigstraße 87,48.767065926847,9.1734926422337
2024-07-22T00:28:40,2024-07-22,1,0,Sonstiges,Haldenrainstraße 162,48.832471823762,9.1946107996512
2024-07-22T00:28:40,2024-07-22,1,0,Sonstiges,Talstraße 71,48.785647191024,9.2153265943836
2024-07-22T00:28:40,2024-07-22,1,0,Sonstiges,In der Nähe von Werner-Voß-Weg 12,48.743709102007,9.2093045381222
2024-07-22T00:28:40,2024-07-22,1,0,Sonstiges,In der Nähe von Äckerwaldstraße 19,48.744373661323,9.2077744880001
2024-07-22T00:28:40,2024-07-22,1,0,Gehweg - Schäden,In der Nähe von Friedhofstraße 24,48.793553120743,9.1877372669802
2024-07-22T00:28:40,2024-07-22,1,0,Sonstiges,Augustenstraße 82A,48.769670428342,9.1600317174405
2024-07-22T00:28:40,2024-07-22,1,0,Radweg - Scherben,In der Nähe von Spielfläche (Benzenäckerstraße/ Brachvogelweg),48.835040135355,9.2433207482186
2024-07-22T00:28:40,2024-07-22,1,0,Sonstiges,Vogelsangstraße 55,48.77382750974,9.1527089106469
2024-07-22T00:28:40,2024-07-22,1,0,Sonstiges,Vogelsangstraße 55,48.773827506446,9.1527089106369
2024-07-22T00:28:40,2024-07-22,1,0,Wilder Müll,In der Nähe von Neckartalstraße 107,48.808085873573,9.2143981306378
2024-07-22T00:28:40,2024-07-22,1,0,Sonstiges,Reichenhaller Straße 63,48.802473167935,9.2320400301213
2024-07-22T00:28:40,2024-07-22,1,0,Straße - Schäden,Zeppelinstraße 26,48.782785263717,9.154383239191
2024-07-22T05:15:44,2024-07-22,1,5,Gehweg - Verschmutzung,In der Nähe von Altglas-Container (Sparrhärmlingweg / Am Römerkastell),48.812333006078,9.2061705798191
2024-07-22T06:16:25,2024-07-22,1,6,Radweg - Schäden,In der Nähe von Schillerdenkmal vor dem Grossen Haus (Walter-Erich-Schäfer-Weg),48.780280818037,9.1840087800916
2024-07-22T07:15:10,2024-07-22,1,7,Gefahrenstelle,In der Nähe von Waldäckerstraße 11,48.829709378726,9.1577302633542
2024-07-22T07:15:10,2024-07-22,1,7,Wilder Müll,Waiblinger Straße 84,48.80553877673,9.2285404682094
2024-07-22T07:15:10,2024-07-22,1,7,Wilder Müll,Schozacher Straße 40,48.830768935501,9.1853113793459
2024-07-22T07:15:10,2024-07-22,1,7,Gehweg - Verschmutzung,In der Nähe von Spielfläche (Bihlplatz),48.760005323473,9.1519341693389
2024-07-22T07:15:10,2024-07-22,1,7,Radweg - Scherben,In der Nähe von Samaraweg,48.808581040025,9.1863085370231
2024-07-22T07:15:10,2024-07-22,1,7,Wilder Müll,In der Nähe von Mainstraße 63,48.82334306118,9.2197834967327
2024-07-22T07:15:10,2024-07-22,1,7,Straße - Verschmutzung,In der Nähe von Moselstraße 38,48.822567886262,9.2208365716278
2024-07-22T07:15:10,2024-07-22,1,7,Gefahrenstelle,In der Nähe von Grazer Straße 40,48.810400716449,9.1597544324942
2024-07-22T07:15:10,2024-07-22,1,7,Gefahrenstelle,In der Nähe von Skulptur Der Mönch von Münster (Jagststraße / Schussengasse),48.819927069965,9.2244697284664
2024-07-22T07:15:10,2024-07-22,1,7,Ampel,Schemppstraße 80,48.738996118114,9.2189491542402
2024-07-22T07:15:10,2024-07-22,1,7,Ampel,Schemppstraße 86,48.738985649849,9.2197243670112
2024-07-22T08:16:28,2024-07-22,1,8,Wilder Müll,Hechtstraße 25,48.843058048858,9.2206562858819
2024-07-22T08:16:28,2024-07-22,1,8,Gehweg - Schäden,In der Nähe von Schillerdenkmal vor dem Grossen Haus (Walter-Erich-Schäfer-Weg),48.779750895156,9.1837149328152
2024-07-22T09:16:03,2024-07-22,1,9,Radweg - Scherben,In der Nähe von Hedelfinger Straße 155,48.760736113409,9.2539139428726
2024-07-22T09:16:03,2024-07-22,1,9,Radweg - Scherben,In der Nähe von Poststraße 39/1,48.797261771313,9.213401685281
2024-07-22T09:16:03,2024-07-22,1,9,Wilder Müll,Veielbrunnenweg 88,48.798994012682,9.2263728277537
2024-07-22T09:16:03,2024-07-22,1,9,Sonstiges,Eberhardstraße 39,48.772891679034,9.1779665520541
2024-07-22T10:15:25,2024-07-22,1,10,Wilder Müll,In der Nähe von Strümpfelbacher Straße 40,48.780872160242,9.2549270235083
2024-07-22T11:14:38,2024-07-22,1,11,Verkehrszeichen,Leinfeldener Straße 61,48.744853245132,9.1706309476615
2024-07-22T11:14:38,2024-07-22,1,11,Sonstiges,Reutlinger Straße 123,48.740749239085,9.1718547916993
2024-07-22T11:14:38,2024-07-22,1,11,Gefahrenstelle,Möhringer Straße 153,48.758447154052,9.150594131466
2024-07-22T12:17:02,2024-07-22,1,12,Gehweg - Verschmutzung,Aachener Straße 8,48.806607312843,9.210690422134
2024-07-22T12:17:02,2024-07-22,1,12,Gefahrenstelle,Nürnberger Straße 50,48.80705413385,9.238258582729
2024-07-22T13:16:02,2024-07-22,1,13,Wilder Müll,Schmidener Straße 150,48.813394259427,9.2320223192837
2024-07-22T13:16:02,2024-07-22,1,13,Gefahrenstelle,In der Nähe von Heidlochstraße 52,48.822805894572,9.1981039601554
2024-07-22T14:15:07,2024-07-22,1,14,Wilder Müll,Schönbühlstraße 100,48.7826569392,9.2124142723204
2024-07-22T15:15:38,2024-07-22,1,15,Sonstiges,In der Nähe von Schönbühlstraße 87,48.7827535,9.2128451
2024-07-22T16:15:55,2024-07-22,1,16,Gehweg - Schäden,In der Nähe von Pelikanstraße 22,48.832990995119,9.2361405213025
2024-07-22T16:15:55,2024-07-22,1,16,Straße - Verschmutzung,In der Nähe von Veielbrunnenweg 82,48.799266450019,9.2257348817101
2024-07-22T18:16:15,2024-07-22,1,18,Gefahrenstelle,Lenninger Straße 10,48.781570150923,9.2210672514052
2024-07-22T18:16:15,2024-07-22,1,18,Bäder,In der Nähe von Inselbad 3,48.779298506818,9.2452484161636
2024-07-22T18:16:15,2024-07-22,1,18,Straße - Schäden,Rigaer Straße 5,48.841300424109,9.2270540557611
2024-07-22T19:14:36,2024-07-22,1,19,Ampel,Schemppstraße 82,48.739087003746,9.2195273427349
2024-07-22T19:14:36,2024-07-22,1,19,Wilder Müll,In der Nähe von Wartbergstraße 36/1,48.805093074183,9.1779208793843
2024-07-22T19:14:36,2024-07-22,1,19,Sonstiges,In der Nähe von Murgtalstraße 16,48.821529315861,9.2213135207155
2024-07-22T19:14:36,2024-07-22,1,19,Gehweg - Schäden,Thingstraße 14B,48.71747299093,9.0979942685096
2024-07-22T19:14:36,2024-07-22,1,19,Wilder Müll,In der Nähe von Hasenbergsteige 120,48.765014391706,9.1423072984128
2024-07-22T20:15:19,2024-07-22,1,20,Ampel,In der Nähe von Freihofstraße 87/1,48.842870397368,9.1588296222485
2024-07-22T20:15:19,2024-07-22,1,20,Ampel,In der Nähe von Heutingsheimer Straße 1,48.843078696047,9.1592772745821
2024-07-22T20:15:19,2024-07-22,1,20,Gefahrenstelle,In der Nähe von Pelikanstraße 22,48.832966450961,9.2361435770427
