first_seen_at_timestamp,first_seen_date,first_seen_weekday,first_seen_hour,category,location,lat,lon
2024-08-28T00:28:13,2024-08-28,3,0,Wilder Müll,"In der Nähe von Am Schattenring, Gew. 1",48.756475480452,9.1136569646172
2024-08-28T00:28:13,2024-08-28,3,0,Sonstiges,In der Nähe von Niebuhrweg 79,48.840755623189,9.1472406479599
2024-08-28T00:28:13,2024-08-28,3,0,Sonstiges,In der Nähe von Rasmussenweg 58,48.84226029344,9.1523398633856
2024-08-28T00:28:13,2024-08-28,3,0,Gehweg - Verschmutzung,In der Nähe von Mauchweg 2,48.842389312895,9.1500417355115
2024-08-28T00:28:13,2024-08-28,3,0,Verkehrszeichen,Bietigheimer Straße 24,48.833521026749,9.1741886061392
2024-08-28T00:28:13,2024-08-28,3,0,Sonstiges,Dachswaldweg 116,48.746347719826,9.1197471799508
2024-08-28T00:28:13,2024-08-28,3,0,Sonstiges,Leibnizstraße 46,48.781314719181,9.1437201823255
2024-08-28T00:28:13,2024-08-28,3,0,Straßenbeleuchtung,Ernst-Bloch-Weg 19,48.804277527623,9.1395231436225
2024-08-28T00:28:13,2024-08-28,3,0,Bäder,In der Nähe von Mineralbad Berg (Am Schwanenplatz 9),48.796343256113,9.2060063092873
2024-08-28T00:28:13,2024-08-28,3,0,Straßenbeleuchtung,Jahnstraße 68,48.752836081803,9.1802357256658
2024-08-28T00:28:13,2024-08-28,3,0,Sonstiges,Böblinger Straße 18,48.76414789476,9.1656886269589
2024-08-28T00:28:13,2024-08-28,3,0,Wilder Müll,Plettenbergstraße 11,48.779278849205,9.2196687751279
2024-08-28T00:28:13,2024-08-28,3,0,Straßenbeleuchtung,In der Nähe von Filderblickweg 5,48.761797438958,9.2185790685743
2024-08-28T00:28:13,2024-08-28,3,0,Wilder Müll,Augustenstraße 105,48.768604362822,9.1567893847268
2024-08-28T00:28:13,2024-08-28,3,0,Wilder Müll,In der Nähe von Himmelsleiter 22,48.838153311316,9.1977682858187
2024-08-28T00:28:13,2024-08-28,3,0,Sonstiges,In der Nähe von Züricher Straße 22,48.8093509,9.2075436
2024-08-28T00:28:13,2024-08-28,3,0,Gehweg - Verschmutzung,In der Nähe von Oswald-Hesse-Straße 29,48.810613771467,9.1683991015578
2024-08-28T00:28:13,2024-08-28,3,0,Straße - Verschmutzung,Am Eichenhain 19,48.7428006,9.2042168
2024-08-28T00:28:13,2024-08-28,3,0,Brunnen / Gewässer,Veielbrunnenweg 6,48.798766257656,9.2185283089895
2024-08-28T00:28:13,2024-08-28,3,0,Gefahrenstelle,In der Nähe von Friedrichstraße 27,48.780633835675,9.1773766888849
2024-08-28T00:28:13,2024-08-28,3,0,Bäder,Inselbad 4,48.778389375928,9.2458401270128
2024-08-28T00:28:13,2024-08-28,3,0,Sonstiges,"In der Nähe von Fehlhalde, Gew. 2",48.846314674524,9.1986404648145
2024-08-28T00:28:13,2024-08-28,3,0,Gefahrenstelle,Augustenstraße 119,48.768678298856,9.1553334484204
2024-08-28T00:28:13,2024-08-28,3,0,Wilder Müll,"In der Nähe von Burghalde, Gew. 5",48.76021077861,9.2103956267323
2024-08-28T00:28:13,2024-08-28,3,0,Sonstiges,In der Nähe von Niebuhrweg 79,48.840874006227,9.1472293460472
2024-08-28T00:28:13,2024-08-28,3,0,Gefahrenstelle,Korianderstraße 26,48.744401792267,9.2331872305847
2024-08-28T00:28:13,2024-08-28,3,0,Sonstiges,In der Nähe von Alte Stuttgarter Straße 100,48.777597234001,9.130522393026
2024-08-28T00:28:13,2024-08-28,3,0,Gefahrenstelle,Wagrainstraße 80,48.829555883991,9.2155555508935
2024-08-28T00:28:13,2024-08-28,3,0,Verkehrszeichen,Hopfenseeweg 5,48.8301641457,9.2173976271688
2024-08-28T00:28:13,2024-08-28,3,0,Wilder Müll,Tulpenapfelweg 37,48.8408965,9.1891107
2024-08-28T00:28:13,2024-08-28,3,0,Verkehrszeichen,In der Nähe von Echterdinger Straße 3,48.701577166234,9.2081841865389
2024-08-28T00:28:13,2024-08-28,3,0,Verkehrszeichen,In der Nähe von Aachener Straße 10,48.806639151512,9.2104226282785
2024-08-28T00:28:13,2024-08-28,3,0,Wilder Müll,In der Nähe von Aachener Straße 10,48.806620198087,9.2103780612411
2024-08-28T00:28:13,2024-08-28,3,0,Wilder Müll,In der Nähe von Aachener Straße 10,48.806687619627,9.2104333308191
2024-08-28T00:28:13,2024-08-28,3,0,SSB Haltestelle,Sindelbachstraße 14,48.726642885719,9.1389139168027
2024-08-28T00:28:13,2024-08-28,3,0,Sonstiges,Bebelstraße 22,48.775308490733,9.155217794116
2024-08-28T00:28:13,2024-08-28,3,0,Wilder Müll,Heinrich-Ebner-Straße 20,48.798389455684,9.2226934970891
2024-08-28T00:28:13,2024-08-28,3,0,Sonstiges,In der Nähe von Spielfläche Neckarauenpark (Neckarauenpark),48.8128346,9.2217452
2024-08-28T00:28:13,2024-08-28,3,0,Sonstiges,Schwabenplatz 7,48.730453268234,9.1091432344269
2024-08-28T00:28:13,2024-08-28,3,0,Straßenbeleuchtung,In der Nähe von Muggensturmer Straße 23,48.8094856,9.1101645
2024-08-28T05:15:19,2024-08-28,3,5,Gefahrenstelle,In der Nähe von Lodzer Steg,48.806980781032,9.1890265446827
2024-08-28T06:16:21,2024-08-28,3,6,Gehweg - Schäden,"In der Nähe von Heidfeld, Gew. 1",48.709769122961,9.1838759132478
2024-08-28T06:16:21,2024-08-28,3,6,Wilder Müll,Viaduktstraße 10,48.812699559149,9.2239418899792
2024-08-28T06:16:21,2024-08-28,3,6,Wilder Müll,In der Nähe von Jägerhalde 15,48.774862931494,9.2360632712409
2024-08-28T07:14:59,2024-08-28,3,7,Radweg - Scherben,In der Nähe von Gerätespielfläche (Fasanenhofstraße/Janusz-Korczak-Weg),48.710100005553,9.1530414627382
2024-08-28T07:14:59,2024-08-28,3,7,Gehweg - Verschmutzung,Forststraße 141,48.775790097572,9.1515987649177
2024-08-28T07:14:59,2024-08-28,3,7,Straße - Schäden,In der Nähe von Schwabstraße 73,48.773068592401,9.1562445264281
2024-08-28T07:14:59,2024-08-28,3,7,Wilder Müll,Reichenhaller Straße 24,48.801305252703,9.2267372931118
2024-08-28T07:14:59,2024-08-28,3,7,Gefahrenstelle,In der Nähe von Eierstraße 148,48.754307685577,9.1613184954499
2024-08-28T07:14:59,2024-08-28,3,7,Sonstiges,In der Nähe von Mörikestraße 21,48.766108797368,9.1669138477626
2024-08-28T08:16:07,2024-08-28,3,8,Verkehrszeichen,Heidenburgstraße 2A,48.846352314815,9.2289714746332
2024-08-28T08:16:07,2024-08-28,3,8,Wilder Müll,Wagrainstraße 80A,48.829358205165,9.2154320737922
2024-08-28T08:16:07,2024-08-28,3,8,Ampel,In der Nähe von Fasanenhofstraße 15/1,48.713598817422,9.1635809264543
2024-08-28T08:16:07,2024-08-28,3,8,Wilder Müll,In der Nähe von Robert-Leicht-Straße 167,48.744642161253,9.1114904565934
2024-08-28T08:16:07,2024-08-28,3,8,Wilder Müll,In der Nähe von Schreiberstraße 34,48.760387356114,9.1608650985711
2024-08-28T09:15:41,2024-08-28,3,9,Sonstiges,In der Nähe von Möhringer Landstraße 101,48.730043584404,9.1274793671854
2024-08-28T09:15:41,2024-08-28,3,9,Poller,In der Nähe von Altglas-Container (Schönbühlstraße / Julienstraße),48.783785475675,9.2103076981496
2024-08-28T09:15:41,2024-08-28,3,9,Straßenbeleuchtung,Hohlgraben 15,48.839172605113,9.18990779823
2024-08-28T10:15:32,2024-08-28,3,10,Sonstiges,Schweinfurthstraße 8,48.845321440922,9.1569060669828
2024-08-28T10:15:32,2024-08-28,3,10,Sonstiges,Schachtelhalmweg 50,48.705639470786,9.2232490126215
2024-08-28T10:15:32,2024-08-28,3,10,Gefahrenstelle,Lindenschulstraße 37,48.776673173902,9.249084824394
2024-08-28T11:14:38,2024-08-28,3,11,Straßenbeleuchtung,Außerhalb Stuttgarts,48.623559200356,9.8362654618846
2024-08-28T11:14:38,2024-08-28,3,11,Wilder Müll,Langobardenstraße 30,48.828505797285,9.1712009223123
2024-08-28T12:17:03,2024-08-28,3,12,Sonstiges,Filderbahnstraße 6,48.726229255044,9.146037906302
2024-08-28T13:16:31,2024-08-28,3,13,Ampel,Schwabenplatz 7,48.730453271515,9.109143234434
2024-08-28T14:15:01,2024-08-28,3,14,Verkehrszeichen,Leuschnerstraße 53,48.775720324089,9.1631678505145
2024-08-28T16:16:30,2024-08-28,3,16,Sonstiges,Eltinger Straße 38,48.779529793393,9.1236646632244
2024-08-28T17:15:07,2024-08-28,3,17,Ampel,In der Nähe von Neckartalstraße 242,48.816560531731,9.221655358944
2024-08-28T17:15:07,2024-08-28,3,17,Sonstiges,Dachswaldweg 93,48.745063405134,9.1176901281133
