first_seen_at_timestamp,first_seen_date,first_seen_weekday,first_seen_hour,category,location,lat,lon
2024-12-23T00:33:06,2024-12-23,1,0,Straßeneinlauf - verstopft,In der Nähe von Riedgrasweg 43,48.708980341857,9.2044202278234
2024-12-23T00:33:06,2024-12-23,1,0,Sonstiges,In der Nähe von Gablenberger Hauptstraße 88B,48.7769349,9.2047972
2024-12-23T00:33:06,2024-12-23,1,0,Straße - Verschmutzung,Oppenheimer Straße 2,48.81060405211,9.1215209421218
2024-12-23T00:33:06,2024-12-23,1,0,Gehweg - Verschmutzung,Schloßstraße 79,48.776010243187,9.16171241149
2024-12-23T00:33:06,2024-12-23,1,0,Verkehrszeichen,In der Nähe von Föhrichstraße 147,48.811708167827,9.1358574431953
2024-12-23T00:33:06,2024-12-23,1,0,Wilder Müll,In der Nähe von Landhausstraße 264,48.7828898,9.219477
2024-12-23T00:33:06,2024-12-23,1,0,Verkehrszeichen,Forststraße 94,48.777674506532,9.1566231950587
2024-12-23T00:33:06,2024-12-23,1,0,Verkehrszeichen,Senefelderstraße 82,48.77846830521,9.15873545464
2024-12-23T00:33:06,2024-12-23,1,0,Sonstiges,In der Nähe von Lange Morgen 18/14,48.742328550138,9.2324185382405
2024-12-23T00:33:06,2024-12-23,1,0,Verkehrszeichen,In der Nähe von Elsässer Straße 15,48.831342145434,9.1694613591164
2024-12-23T00:33:06,2024-12-23,1,0,Straßenbeleuchtung,Zuffenhäuser Kelterplatz 1,48.829210115754,9.1754272016777
2024-12-23T00:33:06,2024-12-23,1,0,Straße - Verschmutzung,Beskidenstraße 24,48.806377524407,9.25334491548
2024-12-23T00:33:06,2024-12-23,1,0,Sonstiges,In der Nähe von Gerätespielfläche (Klingenbachanlage ll),48.781471675256,9.2112003023591
2024-12-23T00:33:06,2024-12-23,1,0,Gefahrenstelle,Wiener Straße 277,48.807589891876,9.145293405814
2024-12-23T00:33:06,2024-12-23,1,0,Sonstiges,In der Nähe von Böckinger Straße 21,48.836975469016,9.1969070210921
2024-12-23T00:33:06,2024-12-23,1,0,Wilder Müll,Steinheimer Straße 24,48.831597817438,9.1788148019634
2024-12-23T00:33:06,2024-12-23,1,0,Straße - Verschmutzung,In der Nähe von Altglas-Container (Onstmettinger Weg / Ebinger Weg),48.733607510195,9.1358559749346
2024-12-23T00:33:06,2024-12-23,1,0,Wilder Müll,Schwabbacher Straße 15,48.830708472733,9.1837441863251
2024-12-23T00:33:06,2024-12-23,1,0,Verkehrszeichen,Johannesstraße 72,48.780331063623,9.1597389124836
2024-12-23T00:33:06,2024-12-23,1,0,Wilder Müll,In der Nähe von Augsburger Straße 500,48.774059651683,9.2612108255875
2024-12-23T00:33:06,2024-12-23,1,0,Gefahrenstelle,Scheffelstraße 19,48.774202783481,9.1477694281298
2024-12-23T00:33:06,2024-12-23,1,0,Wilder Müll,In der Nähe von Inselstraße 144A,48.778293018622,9.2491839795933
2024-12-23T00:33:06,2024-12-23,1,0,Wilder Müll,Hackstraße 83,48.789358712685,9.2075957504238
2024-12-23T00:33:06,2024-12-23,1,0,Wilder Müll,In der Nähe von Altglas-Container (Landhausstraße / Comburgstraße),48.782903087884,9.2203278108027
2024-12-23T00:33:06,2024-12-23,1,0,Straßeneinlauf - verstopft,In der Nähe von Augustenstraße 6,48.77251671204,9.1693657259413
2024-12-23T00:33:06,2024-12-23,1,0,Sonstiges,Regenpfeiferweg 18,48.83014628936,9.2356423338525
2024-12-23T00:33:06,2024-12-23,1,0,Wilder Müll,In der Nähe von Altglas-Container (Erdmannhäuser Straße / Ottmarsheimer Straße),48.847118578824,9.1603323571847
2024-12-23T00:33:06,2024-12-23,1,0,Verkehrszeichen,Linzer Straße 25,48.810622624048,9.155932927781
2024-12-23T00:33:06,2024-12-23,1,0,Wilder Müll,In der Nähe von Am Mittelkai 69,48.75352197939,9.2662301431321
2024-12-23T00:33:06,2024-12-23,1,0,Wilder Müll,In der Nähe von Hafenbahnstraße 35,48.75509145077,9.2687053588388
2024-12-23T00:33:06,2024-12-23,1,0,Sonstiges,In der Nähe von Eglosheimer Straße 23,48.845598,9.1641679
2024-12-23T00:33:06,2024-12-23,1,0,Radweg - Scherben,In der Nähe von Gerätespielfläche (Fasanenhofstraße/Janusz-Korczak-Weg),48.710086219161,9.153032219339
2024-12-23T00:33:06,2024-12-23,1,0,Straße - Verschmutzung,In der Nähe von Laubeweg 2,48.709736805341,9.1539196191443
2024-12-23T00:33:06,2024-12-23,1,0,Gefahrenstelle,In der Nähe von Pfalzstraße 30,48.803147594794,9.2349693254571
2024-12-23T00:33:06,2024-12-23,1,0,Verkehrszeichen,In der Nähe von Oberschlesische Straße 91,48.803727617145,9.2389605547262
2024-12-23T00:33:06,2024-12-23,1,0,Sonstiges,Echazstraße 1,48.819977167072,9.2239879315082
2024-12-23T00:33:06,2024-12-23,1,0,Gefahrenstelle,Katzenbachstraße 100,48.733672076059,9.1012352468322
2024-12-23T00:33:06,2024-12-23,1,0,Verkehrszeichen,Nägelestraße 5,48.75162333122,9.1732523164477
2024-12-23T00:33:06,2024-12-23,1,0,Sonstiges,In der Nähe von Altglas-Container (Sommerrainstraße gegenüber Resedenweg 2 an der Litfaßsäule),48.814950657543,9.2458802579667
2024-12-23T00:33:06,2024-12-23,1,0,Straßenbeleuchtung,In der Nähe von Pfostenwäldle 15,48.811988690731,9.1363075401479
2024-12-23T02:33:13,2024-12-23,1,2,Sonstiges,In der Nähe von Balthasar-Neumann-Straße 63,48.842247598202,9.2065904314374
2024-12-23T07:15:29,2024-12-23,1,7,Gehweg - Verschmutzung,In der Nähe von Taubenheimstraße 39,48.804363267962,9.2271972674051
2024-12-23T08:16:31,2024-12-23,1,8,Straßenbeleuchtung,Pfaffenwaldring 35,48.748864303043,9.1035511789915
2024-12-23T08:16:31,2024-12-23,1,8,Wilder Müll,Talstraße 56,48.784642489579,9.2137976004496
2024-12-23T09:15:46,2024-12-23,1,9,Wilder Müll,Vogelsangstraße 4,48.772675295756,9.1598779457693
2024-12-23T09:15:46,2024-12-23,1,9,Wilder Müll,In der Nähe von Gerätespielfläche (Gammertinger-/ Pilsener Straße),48.723862127503,9.1591751167737
2024-12-23T09:15:46,2024-12-23,1,9,Sonstiges,In der Nähe von Altglas-Container (Schemppstraße / Olivenstraße),48.736369699635,9.2137012769304
2024-12-23T09:15:46,2024-12-23,1,9,Wilder Müll,Böcklerstraße 3,48.760734967827,9.1552409189034
2024-12-23T09:15:46,2024-12-23,1,9,Sonstiges,Deidesheimer Straße 2,48.813864076296,9.118150749499
2024-12-23T11:14:49,2024-12-23,1,11,Gehweg - Verschmutzung,In der Nähe von Möwenweg 24,48.835215285541,9.2204818924532
2024-12-23T12:17:12,2024-12-23,1,12,Wilder Müll,Gablenberger Hauptstraße 22,48.779508528982,9.2073781721239
2024-12-23T13:17:04,2024-12-23,1,13,Sonstiges,In der Nähe von Rotenwaldstraße 126,48.7695313,9.1448629
2024-12-23T13:17:04,2024-12-23,1,13,Gefahrenstelle,Argonnenstraße 21,48.806663883327,9.2457331588621
2024-12-23T13:17:04,2024-12-23,1,13,Straßenbeleuchtung,Sommestraße 20,48.806039834085,9.2430607566099
2024-12-23T14:15:15,2024-12-23,1,14,Begrünung,In der Nähe von Cottastraße 58,48.765529598063,9.1764820089356
2024-12-23T14:15:15,2024-12-23,1,14,Wilder Müll,In der Nähe von Zazenhäuser Straße 48,48.836484703657,9.1821843587598
2024-12-23T15:15:37,2024-12-23,1,15,Verkehrszeichen,Augustenstraße 7,48.772275380788,9.1690498197286
2024-12-23T15:15:37,2024-12-23,1,15,Wilder Müll,In der Nähe von Hasenbergsteige 35,48.76678003667,9.1585758518922
2024-12-23T18:16:19,2024-12-23,1,18,Ampel,Solitudestraße 223,48.814263863597,9.1120180401672
2024-12-23T18:16:19,2024-12-23,1,18,Gefahrenstelle,In der Nähe von Breitscheidstraße 5,48.780086878588,9.1706075246975
2024-12-23T19:14:38,2024-12-23,1,19,Wilder Müll,In der Nähe von Altglas-Container (Sparrhärmlingweg / Am Römerkastell),48.81230685,9.20610953
2024-12-23T19:14:38,2024-12-23,1,19,Straßenbeleuchtung,Wiener Platz 4,48.814143880957,9.1681144575022
