first_seen_at_timestamp,first_seen_date,first_seen_weekday,first_seen_hour,category,location,lat,lon
2024-10-02T00:30:55,2024-10-02,3,0,Gefahrenstelle,Heerstraße 21,48.732216151152,9.099586822428
2024-10-02T00:30:55,2024-10-02,3,0,Ampel,Taldorfer Straße 10,48.730308321097,9.2029057850843
2024-10-02T00:30:55,2024-10-02,3,0,Wilder Müll,In der Nähe von In der Sandgrube 1,48.839330892716,9.1605642208758
2024-10-02T00:30:55,2024-10-02,3,0,Ampel,Heerstraße 37,48.733168974015,9.1004590685402
2024-10-02T00:30:55,2024-10-02,3,0,Straße - Schäden,In der Nähe von Wagrainstraße 22,48.833446395202,9.2195177413042
2024-10-02T00:30:55,2024-10-02,3,0,Gehweg - Schäden,In der Nähe von Wagrainstraße 33H,48.832501407507,9.218632770023
2024-10-02T00:30:55,2024-10-02,3,0,Sonstiges,In der Nähe von Altkleider-Container (Möwenweg / Seeblickweg),48.832880147942,9.2170766070512
2024-10-02T00:30:55,2024-10-02,3,0,Ampel,In der Nähe von Villastraße 4A,48.795069300565,9.2018668042342
2024-10-02T00:30:55,2024-10-02,3,0,Wilder Müll,In der Nähe von Am Steinenberg 7,48.75435097154,9.2514907533447
2024-10-02T00:30:55,2024-10-02,3,0,Gehweg - Schäden,In der Nähe von Mühlhäuser Straße 301/1,48.834871552072,9.2190360189729
2024-10-02T00:30:55,2024-10-02,3,0,Wilder Müll,Libanonstraße 52,48.779343922098,9.2008848444016
2024-10-02T00:30:55,2024-10-02,3,0,Wilder Müll,In der Nähe von Nordbahnhofstraße 82,48.797700297843,9.1901372728802
2024-10-02T00:30:55,2024-10-02,3,0,Wilder Müll,Sprollstraße 81,48.73581303041,9.1818748850062
2024-10-02T00:30:55,2024-10-02,3,0,Sonstiges,In der Nähe von Markus-Schleicher-Straße 18,48.712178353046,9.1560449018396
2024-10-02T00:30:55,2024-10-02,3,0,Sonstiges,In der Nähe von Markus-Schleicher-Straße 15A,48.712087929829,9.1559618861882
2024-10-02T00:30:55,2024-10-02,3,0,Gehweg - Verschmutzung,In der Nähe von Altglas-Container (Schemppstraße / Olivenstraße),48.736424713122,9.2137094390019
2024-10-02T00:30:55,2024-10-02,3,0,Wilder Müll,Rotebühlstraße 131,48.770339127744,9.1578563254048
2024-10-02T00:30:55,2024-10-02,3,0,Sonstiges,Böblinger Straße 68,48.763569694208,9.1610737306457
2024-10-02T00:30:55,2024-10-02,3,0,Ampel,In der Nähe von Behringstraße 1,48.721582268531,9.1063138862227
2024-10-02T00:30:55,2024-10-02,3,0,Straßeneinlauf - verstopft,Wildermuthweg 16,48.770079313394,9.1358354847668
2024-10-02T00:30:55,2024-10-02,3,0,Sonstiges,Rosmarinweg 50,48.816341377615,9.2424839465651
2024-10-02T00:30:55,2024-10-02,3,0,Sonstiges,Im Degen 32,48.776381893536,9.2335258686116
2024-10-02T00:30:55,2024-10-02,3,0,Gefahrenstelle,Wagrainstraße 80,48.829555883991,9.2155555508935
2024-10-02T00:30:55,2024-10-02,3,0,Wilder Müll,Landhausstraße 153,48.786741,9.205022
2024-10-02T00:30:55,2024-10-02,3,0,Begrünung,In der Nähe von Wolzogenstraße 1,48.822047956757,9.116223780215
2024-10-02T00:30:55,2024-10-02,3,0,Wilder Müll,Nagoldstraße 35,48.82030713804,9.2198690981654
2024-10-02T00:30:55,2024-10-02,3,0,Wilder Müll,In der Nähe von Altglas-Container (Schwarenbergstraße / Heubergstraße),48.7835614,9.2017505
2024-10-02T00:30:55,2024-10-02,3,0,Gehweg - Verschmutzung,Ostendstraße 10,48.789908957892,9.2067675188483
2024-10-02T00:30:55,2024-10-02,3,0,Wilder Müll,Tannenäckerstraße 13,48.812986237677,9.1462488486114
2024-10-02T00:30:55,2024-10-02,3,0,Sonstiges,Ostendstraße 75,48.784696233177,9.2090195363582
2024-10-02T00:30:55,2024-10-02,3,0,SSB Haltestelle,Genfer Weg 8,48.714887143087,9.1582129527004
2024-10-02T00:30:55,2024-10-02,3,0,Wilder Müll,In der Nähe von Lauftreff Ende Triebweg (Triebweg),48.807784976295,9.1331336193422
2024-10-02T00:30:55,2024-10-02,3,0,Begrünung,In der Nähe von Steinhaldenstraße 123,48.822418895536,9.233380947748
2024-10-02T00:30:55,2024-10-02,3,0,Ampel,In der Nähe von Dürnauer Weg 56,48.72395262444,9.2036252058912
2024-10-02T00:30:55,2024-10-02,3,0,Sonstiges,In der Nähe von Josenhansstraße 3,48.822449852492,9.1176547020203
2024-10-02T00:30:55,2024-10-02,3,0,Sonstiges,Bebelstraße 83,48.774625676614,9.1477026160461
2024-10-02T00:30:55,2024-10-02,3,0,Gefahrenstelle,Bittingerweg 2,48.73742515891,9.1267574920376
2024-10-02T00:30:55,2024-10-02,3,0,Wilder Müll,In der Nähe von Altglas-Container (Triebweg / Stefan-Zweig-Straße),48.808220187439,9.1395884399979
2024-10-02T00:30:55,2024-10-02,3,0,Straßenbeleuchtung,In der Nähe von Im Schwenkrain 4,48.808460422031,9.2013192780867
2024-10-02T00:30:55,2024-10-02,3,0,Gehweg - Verschmutzung,Schmale Straße 13,48.774344194632,9.1752495727966
