first_seen_at_timestamp,first_seen_date,first_seen_weekday,first_seen_hour,category,location,lat,lon
2024-10-31T00:32:04,2024-10-31,4,0,Wilder Müll,Segelfalterstraße 93,48.845993531687,9.1713695659147
2024-10-31T00:32:04,2024-10-31,4,0,Wilder Müll,In der Nähe von Altglas-Container (Ostendstraße / Hackstraße),48.789109630841,9.2073729957846
2024-10-31T00:32:04,2024-10-31,4,0,Gehweg - Verschmutzung,In der Nähe von Sickstraße 37/1,48.791348235316,9.2052697078309
2024-10-31T00:32:04,2024-10-31,4,0,Wilder Müll,Hermann-Löns-Weg 17,48.742916022029,9.2055817323921
2024-10-31T00:32:04,2024-10-31,4,0,Straßenbeleuchtung,Nibelungenstraße 1,48.803885398469,9.1820255703913
2024-10-31T00:32:04,2024-10-31,4,0,Wilder Müll,Wagrainstraße 80B,48.829151581267,9.2152813085246
2024-10-31T00:32:04,2024-10-31,4,0,Gehweg - Verschmutzung,In der Nähe von Rohrackerstraße 267,48.756796230087,9.2294516883252
2024-10-31T00:32:04,2024-10-31,4,0,Treppe,In der Nähe von Luikenweg 3,48.756668067107,9.2273441424511
2024-10-31T00:32:04,2024-10-31,4,0,Straßenbeleuchtung,"In der Nähe von Frauenkopf, Gew. 5",48.761655193797,9.2077169124215
2024-10-31T00:32:04,2024-10-31,4,0,Sonstiges,Schickhardtstraße 47,48.766160736832,9.1609323250239
2024-10-31T00:32:04,2024-10-31,4,0,Sonstiges,Vogelsangstraße 6,48.772729651945,9.159605915798
2024-10-31T00:32:04,2024-10-31,4,0,Gehweg - Schäden,Lenbachstraße 61,48.803691190478,9.1677254372565
2024-10-31T00:32:04,2024-10-31,4,0,Gefahrenstelle,Rottannenweg 2A,48.76644368687,9.1879595720476
2024-10-31T00:32:04,2024-10-31,4,0,Sonstiges,Spitalhofstraße 1,48.840838031034,9.1983521673404
2024-10-31T00:32:04,2024-10-31,4,0,Sonstiges,Himmelsleiter 7,48.839164666449,9.1999244372352
2024-10-31T00:32:04,2024-10-31,4,0,Straßenbeleuchtung,In der Nähe von Vogelsangstraße 135/1,48.772614540837,9.1445800048084
2024-10-31T00:32:04,2024-10-31,4,0,Straßenbeleuchtung,Nibelungenstraße 1,48.803885398469,9.1820255703913
2024-10-31T00:32:04,2024-10-31,4,0,Straßenbeleuchtung,In der Nähe von Salamanderweg 1,48.802190887766,9.0924536650492
2024-10-31T00:32:04,2024-10-31,4,0,Wilder Müll,"In der Nähe von Oberer Grund, Gew. 1",48.820851408871,9.1571787919119
2024-10-31T00:32:04,2024-10-31,4,0,Sonstiges,Mathildenstraße 9,48.814648244591,9.1166542307138
2024-10-31T00:32:04,2024-10-31,4,0,Radweg - Scherben,In der Nähe von Mercedesstraße 161/2,48.78095733017,9.2488173071934
2024-10-31T00:32:04,2024-10-31,4,0,Verkehrszeichen,In der Nähe von Steigstraße 24,48.718531497032,9.1044005035824
2024-10-31T00:32:04,2024-10-31,4,0,Straßenbeleuchtung,In der Nähe von Münstersteg,48.82073732614,9.228450153438
2024-10-31T00:32:04,2024-10-31,4,0,Sonstiges,In der Nähe von Kurze Straße 14,48.8185507,9.177641
2024-10-31T00:32:04,2024-10-31,4,0,Wilder Müll,In der Nähe von Zamenhofstraße 58,48.769262623179,9.1378955527199
2024-10-31T00:32:04,2024-10-31,4,0,Gehweg - Verschmutzung,Im Steinengarten 5,48.726359863814,9.1003703510859
2024-10-31T00:32:04,2024-10-31,4,0,Radweg - Scherben,In der Nähe von Zum Langwieser See 2,48.699213909671,9.2074596383673
2024-10-31T00:32:04,2024-10-31,4,0,Wilder Müll,In der Nähe von Mozartstraße 54,48.766914099422,9.1753369607038
2024-10-31T00:32:04,2024-10-31,4,0,SSB Haltestelle,In der Nähe von Filderbahnplatz 15/2,48.730732509089,9.1472639881186
2024-10-31T00:32:04,2024-10-31,4,0,Wilder Müll,"In der Nähe von Frauenkopf, Gew. 5",48.761855937024,9.2062563151544
2024-10-31T00:32:04,2024-10-31,4,0,Verkehrszeichen,In der Nähe von Uhlbacher Straße 59,48.766289444528,9.2703219558579
2024-10-31T00:32:04,2024-10-31,4,0,Straßenbeleuchtung,In der Nähe von Bebelstraße 94,48.774700632401,9.1454968456923
2024-10-31T00:32:04,2024-10-31,4,0,Begrünung,"In der Nähe von Lefzenbrunnen (Espan, Gew.)",48.8116838,9.2424127
2024-10-31T00:32:04,2024-10-31,4,0,Radweg - Scherben,In der Nähe von Mercedesstraße 161/2,48.781065673313,9.2486129867437
2024-10-31T00:32:04,2024-10-31,4,0,Begrünung,In der Nähe von Schmollerstraße 149A,48.82958050989,9.2358771262106
2024-10-31T00:32:04,2024-10-31,4,0,Sonstiges,Regenpfeiferweg 24,48.830137763466,9.2354106573526
2024-10-31T00:32:04,2024-10-31,4,0,Straßenbeleuchtung,In der Nähe von Vaihinger Landstraße 127,48.771556088808,9.123180642182
2024-10-31T00:32:04,2024-10-31,4,0,Gefahrenstelle,In der Nähe von Wohnanlage Fasanenhof (Laubeweg 1),48.709921328712,9.1538512383613
2024-10-31T00:32:04,2024-10-31,4,0,Gefahrenstelle,In der Nähe von Senefelderstraße 55,48.776112165241,9.1602978529525
2024-10-31T00:32:04,2024-10-31,4,0,Wilder Müll,Mühlstraße 10,48.807481398219,9.1593212076307
2024-10-31T01:44:13,2024-10-31,4,1,Wilder Müll,In der Nähe von Gerätespielfläche (Straßburger Straße/ Burgunder Straße),48.830059027577,9.168873879579
2024-10-31T01:44:13,2024-10-31,4,1,Sonstiges,Schmidener Straße 174A,48.814226686166,9.2340966080604
2024-10-31T04:16:19,2024-10-31,4,4,SSB Haltestelle,In der Nähe von Karl-Benz-Platz 9/1,48.780028796729,9.2492214701189
2024-10-31T06:16:34,2024-10-31,4,6,Sonstiges,In der Nähe von MHPArena Stuttgart (Mercedesstraße 87),48.792116655706,9.2320942222732
2024-10-31T06:16:34,2024-10-31,4,6,Gefahrenstelle,Heubergstraße 2A,48.78379194176,9.201555789533
2024-10-31T06:16:34,2024-10-31,4,6,Radweg - Schäden,In der Nähe von Am Leuzebad 6,48.799134442039,9.2102290170562
2024-10-31T06:16:34,2024-10-31,4,6,Gehweg - Verschmutzung,Falchstraße 16,48.82602447885,9.2364677306839
2024-10-31T07:15:27,2024-10-31,4,7,Wilder Müll,Langobardenstraße 46,48.828616344172,9.1694436406458
