first_seen_at_timestamp,first_seen_date,first_seen_weekday,first_seen_hour,category,location,lat,lon
2024-08-30T00:28:58,2024-08-30,5,0,Wilder Müll,Feuerbacher-Tal-Straße 30,48.806442257889,9.1561173924222
2024-08-30T00:28:58,2024-08-30,5,0,Kanaldeckel,In der Nähe von Kriegsbergstraße 55,48.782148296903,9.1736506781742
2024-08-30T00:28:58,2024-08-30,5,0,Sonstiges,Johannesstraße 94,48.781547014346,9.1586537701217
2024-08-30T00:28:58,2024-08-30,5,0,Radweg - Verschmutzung,Reutlinger Straße 61,48.744252487362,9.1753081525988
2024-08-30T00:28:58,2024-08-30,5,0,Sonstiges,Nürnberger Straße 50,48.806941074782,9.2379578400275
2024-08-30T00:28:58,2024-08-30,5,0,Radweg - Verschmutzung,In der Nähe von Brandenkopfweg 30,48.740320949542,9.1221252446832
2024-08-30T00:28:58,2024-08-30,5,0,Wilder Müll,Hackstraße 61,48.790234785846,9.2036635170533
2024-08-30T00:28:58,2024-08-30,5,0,Wilder Müll,Böblinger Straße 449,48.741270686427,9.1310244716193
2024-08-30T00:28:58,2024-08-30,5,0,Gehweg - Verschmutzung,Augustenstraße 119,48.768678298856,9.1553334484204
2024-08-30T00:28:58,2024-08-30,5,0,Bäder,Rosentalstraße 21,48.728716063554,9.1003142157707
2024-08-30T00:28:58,2024-08-30,5,0,Gefahrenstelle,Obere Waiblinger Straße 137,48.80762171812,9.2350600907751
2024-08-30T00:28:58,2024-08-30,5,0,Straßenbeleuchtung,Hedwigweg 22,48.7950466424,9.2596329935084
2024-08-30T00:28:58,2024-08-30,5,0,Sonstiges,In der Nähe von Lautenschlagerstraße 4,48.782726491445,9.1794798137949
2024-08-30T00:28:58,2024-08-30,5,0,Straßenbeleuchtung,Hornissenweg 102,48.853073358971,9.1520637043848
2024-08-30T00:28:58,2024-08-30,5,0,Wilder Müll,Herzogstraße 11,48.773869768065,9.1676124663311
2024-08-30T00:28:58,2024-08-30,5,0,Kanaldeckel,Bergstraße 24,48.775328772131,9.2054962715149
2024-08-30T00:28:58,2024-08-30,5,0,Sonstiges,Rosenaustraße 2,48.808284249765,9.2135712153593
2024-08-30T00:28:58,2024-08-30,5,0,Sonstiges,In der Nähe von Sankt-Pöltener-Straße 10,48.808918020488,9.1620879614587
2024-08-30T00:28:58,2024-08-30,5,0,Gefahrenstelle,Max-Brod-Weg 18,48.834319079312,9.2032437234706
2024-08-30T00:28:58,2024-08-30,5,0,Sonstiges,Eberhardstraße 39,48.772891679034,9.1779665520541
2024-08-30T00:28:58,2024-08-30,5,0,Sonstiges,In der Nähe von Spielfläche Seeblickweg (Seeblickweg),48.829824205333,9.2233962961407
2024-08-30T00:28:58,2024-08-30,5,0,Wilder Müll,Böhringerstraße 64,48.830776940507,9.1683608585237
2024-08-30T00:28:58,2024-08-30,5,0,Sonstiges,In der Nähe von Strümpfelbacher Straße 32,48.779936520648,9.2543844065804
2024-08-30T00:28:58,2024-08-30,5,0,Sonstiges,Paulinenstraße 21,48.771055777763,9.1727860458777
2024-08-30T00:28:58,2024-08-30,5,0,Radweg - Schäden,In der Nähe von Birkacher Straße 75,48.726483137486,9.2110907505703
2024-08-30T00:28:58,2024-08-30,5,0,Radweg - Schäden,In der Nähe von Alte Untertürkheimer Straße 51,48.796873865852,9.2351018495034
2024-08-30T00:28:58,2024-08-30,5,0,Wilder Müll,In der Nähe von Altglas-Container (Moselstraße Festwiese),48.822256786,9.2209161216677
2024-08-30T00:28:58,2024-08-30,5,0,Wilder Müll,In der Nähe von Moselstraße 34,48.822312298906,9.2210763637428
2024-08-30T00:28:58,2024-08-30,5,0,Sonstiges,In der Nähe von Murgtalstraße 16,48.821145660452,9.2215365561273
2024-08-30T00:28:58,2024-08-30,5,0,Wilder Müll,In der Nähe von Altglas-Container (Moselstraße Festwiese),48.822480227085,9.22057025414
2024-08-30T00:28:58,2024-08-30,5,0,Wilder Müll,In der Nähe von Altglas-Container (Moselstraße Festwiese),48.822437704801,9.2204330443169
2024-08-30T00:28:58,2024-08-30,5,0,Gefahrenstelle,In der Nähe von Ferdinand-Hanauer-Straße 32,48.817690328421,9.2347076449478
2024-08-30T00:28:58,2024-08-30,5,0,Sonstiges,In der Nähe von Moselstraße 32,48.82227726697,9.2213405145138
2024-08-30T00:28:58,2024-08-30,5,0,Gefahrenstelle,In der Nähe von Franz-Schubert-Straße 78,48.7783125,9.1323392
2024-08-30T00:28:58,2024-08-30,5,0,Wilder Müll,In der Nähe von Beilsteiner Straße 38,48.833381656983,9.1797552231613
2024-08-30T00:28:58,2024-08-30,5,0,Wilder Müll,In der Nähe von Waldspielplatz (Siegelberger-Anlage),48.826894182874,9.1609913230603
2024-08-30T00:28:58,2024-08-30,5,0,Gefahrenstelle,In der Nähe von Billertstraße 28,48.742806839819,9.1312103635405
2024-08-30T00:28:58,2024-08-30,5,0,Straßenbeleuchtung,Pflugfelder Straße 32,48.853009360873,9.152840527405
2024-08-30T00:28:58,2024-08-30,5,0,Sonstiges,In der Nähe von Lindpaintnerstraße 22,48.772899075413,9.1308140336845
2024-08-30T00:28:58,2024-08-30,5,0,Straßenbeleuchtung,In der Nähe von Leopoldo-Retti-Weg,48.777161072286,9.1826315925903
2024-08-30T05:15:20,2024-08-30,5,5,Wilder Müll,In der Nähe von Dillweg 21,48.743017520209,9.2315740686473
2024-08-30T06:16:25,2024-08-30,5,6,Wilder Müll,Schmollerstraße 100,48.828778729362,9.2312894477166
2024-08-30T06:16:25,2024-08-30,5,6,Wilder Müll,Rückertstraße 7,48.7743067,9.1454067
2024-08-30T07:15:15,2024-08-30,5,7,Wilder Müll,In der Nähe von Hohenheimer Straße 97,48.767235535204,9.1832425642451
2024-08-30T07:15:15,2024-08-30,5,7,Wilder Müll,In der Nähe von Wolframstraße 29,48.790506373186,9.1857068635221
2024-08-30T10:15:32,2024-08-30,5,10,Sonstiges,Pfaffenweg 62/1,48.759397346284,9.1661492304951
2024-08-30T10:15:32,2024-08-30,5,10,Sonstiges,Josenhansstraße 10,48.823453294548,9.1185547563829
2024-08-30T11:15:13,2024-08-30,5,11,Gehweg - Verschmutzung,Bebelstraße 83,48.774625676614,9.1477026160461
2024-08-30T11:15:13,2024-08-30,5,11,Straßenbeleuchtung,Scharfenschloßstraße 5,48.808820080781,9.153959211082
2024-08-30T11:15:13,2024-08-30,5,11,Wilder Müll,Anisweg 25,48.743198751645,9.2319846749761
2024-08-30T12:16:59,2024-08-30,5,12,Wilder Müll,Waldburgstraße 11,48.725037337436,9.1094714457679
2024-08-30T12:16:59,2024-08-30,5,12,Brunnen / Gewässer,Johannesstraße 86,48.780934825811,9.1589921493299
2024-08-30T13:16:30,2024-08-30,5,13,Gefahrenstelle,In der Nähe von Wernerstraße 53,48.817925572395,9.1670356988907
2024-08-30T13:16:30,2024-08-30,5,13,Wilder Müll,Schöttlestraße 26,48.761196017069,9.1694777715322
2024-08-30T13:16:30,2024-08-30,5,13,Sonstiges,In der Nähe von Rudolf-Keller-Brunnen (Gablenberger Weg),48.7672273,9.2003556
2024-08-30T13:16:30,2024-08-30,5,13,Sonstiges,Scharfenschloßstraße 3,48.808909697012,9.1542182638491
2024-08-30T13:16:30,2024-08-30,5,13,Ampel,In der Nähe von Filderhauptstraße 3,48.7006889,9.2143567
2024-08-30T14:15:15,2024-08-30,5,14,Sonstiges,In der Nähe von Nordbahnhofstraße 171,48.8032145,9.1898455
2024-08-30T15:15:30,2024-08-30,5,15,Gehweg - Schäden,In der Nähe von Kernerstraße 36,48.7805616,9.1897993
2024-08-30T15:15:30,2024-08-30,5,15,Wilder Müll,"In der Nähe von Burghalde, Gew. 5",48.760198976729,9.2105062125966
2024-08-30T15:15:30,2024-08-30,5,15,Wilder Müll,In der Nähe von Albert-Schäffle-Straße 20,48.770617246549,9.202811209176
2024-08-30T15:15:30,2024-08-30,5,15,Straßenbeleuchtung,In der Nähe von Mittlerer Pfad 28,48.821671615781,9.0948513652261
2024-08-30T16:15:55,2024-08-30,5,16,Sonstiges,Bismarckstraße 34,48.773194888139,9.1548846325391
2024-08-30T16:15:55,2024-08-30,5,16,Straße - Verschmutzung,Knappenweg 73,48.74835148311,9.1219829215496
2024-08-30T16:15:55,2024-08-30,5,16,Wilder Müll,In der Nähe von Neckartalstraße 300,48.818812758105,9.2270945095765
2024-08-30T17:15:09,2024-08-30,5,17,Sonstiges,Silberburgstraße 132,48.7752316,9.16537
2024-08-30T19:14:34,2024-08-30,5,19,Sonstiges,In der Nähe von Scharnhauser Straße 34C,48.703197518203,9.2174588212473
2024-08-30T20:15:46,2024-08-30,5,20,Wilder Müll,In der Nähe von Mönsheimer Weg 16,48.817546058567,9.0877226251246
2024-08-30T21:15:24,2024-08-30,5,21,Wilder Müll,Heidestraße 48A,48.810530976067,9.1718752175842
