first_seen_at_timestamp,first_seen_date,first_seen_weekday,first_seen_hour,category,location,lat,lon
2024-05-10T00:24:55,2024-05-10,5,0,Gefahrenstelle,In der Nähe von Altkleider-Container (Rohrer Höhe gegenüber Gebäude 51),48.7180039,9.0920715
2024-05-10T00:24:55,2024-05-10,5,0,Gefahrenstelle,In der Nähe von Metzinger Straße 30,48.7411172,9.1692981
2024-05-10T00:24:55,2024-05-10,5,0,Gefahrenstelle,Kissinger Straße 68,48.802925966297,9.2305441054826
2024-05-10T00:24:55,2024-05-10,5,0,Gefahrenstelle,Kissinger Straße 68/1,48.802727894088,9.2306249071467
2024-05-10T00:24:55,2024-05-10,5,0,Gefahrenstelle,Katharinenstraße 21A,48.772230121575,9.181080902699
2024-05-10T00:24:55,2024-05-10,5,0,Sonstiges,Am Steinenberg 5,48.754423983288,9.2527325702079
2024-05-10T00:24:55,2024-05-10,5,0,Ampel,Florentiner Straße 20,48.739056431122,9.2155899591734
2024-05-10T00:24:55,2024-05-10,5,0,Sonstiges,In der Nähe von Leuschnerstraße 62,48.775184749393,9.1611341705066
2024-05-10T00:24:55,2024-05-10,5,0,Wilder Müll,Haldenstraße 38,48.809092975478,9.2091617790792
2024-05-10T00:24:55,2024-05-10,5,0,Wilder Müll,Rüderner Straße 18,48.76280702067,9.2705160325393
2024-05-10T00:24:55,2024-05-10,5,0,Sonstiges,In der Nähe von Herrenberger Straße 28,48.7278295,9.1118127
2024-05-10T00:24:55,2024-05-10,5,0,Gefahrenstelle,In der Nähe von Schirmerstraße 35,48.845667736273,9.2346833804898
2024-05-10T00:24:55,2024-05-10,5,0,Gehweg - Verschmutzung,In der Nähe von Möwenweg 67,48.832667807482,9.2175796136206
2024-05-10T00:24:55,2024-05-10,5,0,Wilder Müll,Zaisgasse 1,48.805953163913,9.2141877960277
2024-05-10T00:24:55,2024-05-10,5,0,Gehweg - Schäden,In der Nähe von Möwenweg 4,48.836240803678,9.2223199096892
2024-05-10T00:24:55,2024-05-10,5,0,Gehweg - Schäden,Silberburgstraße 162,48.772133298673,9.1677836157595
2024-05-10T00:24:55,2024-05-10,5,0,Verkehrszeichen,In der Nähe von Sautterweg 30,48.7103044,9.1520973
2024-05-10T00:24:55,2024-05-10,5,0,Ampel,In der Nähe von Wiener Straße 113,48.810661985652,9.1559560841781
2024-05-10T00:24:55,2024-05-10,5,0,Radweg - Scherben,In der Nähe von Altglas-Container (Siriusweg Parkplatz),48.718280002752,9.1120859217256
2024-05-10T00:24:55,2024-05-10,5,0,Schlagloch,Klingenstraße 12,48.775472914724,9.2046810222465
2024-05-10T00:24:55,2024-05-10,5,0,Wilder Müll,In der Nähe von Großglocknerstraße 60,48.782086287275,9.2547961895145
2024-05-10T00:24:55,2024-05-10,5,0,Straßenbeleuchtung,Falchstraße 39,48.826379734672,9.238690221598
2024-05-10T00:24:55,2024-05-10,5,0,Gehweg - Schäden,In der Nähe von Schubartstraße 4,48.786276169787,9.1911761192555
2024-05-10T00:24:55,2024-05-10,5,0,Sonstiges,Rotenwaldstraße 114,48.770493365722,9.1430768672474
2024-05-10T00:24:55,2024-05-10,5,0,Wilder Müll,In der Nähe von Inselstraße 33,48.776552880787,9.2440262218771
2024-05-10T00:24:55,2024-05-10,5,0,Ampel,In der Nähe von Ulmer Straße 281,48.775382585448,9.2378670172298
2024-05-10T00:24:55,2024-05-10,5,0,Gefahrenstelle,In der Nähe von Gerätespielfläche (Mercatorweg),48.840674171758,9.145200678635
2024-05-10T00:24:55,2024-05-10,5,0,Gehweg - Schäden,In der Nähe von Altenburger Steige 32,48.811894045824,9.210450280365
2024-05-10T00:24:55,2024-05-10,5,0,Sonstiges,In der Nähe von Spielplatz Altenburger Steige (Altenburger Steige),48.811538930077,9.211358778717
2024-05-10T00:24:55,2024-05-10,5,0,Wilder Müll,Danneckerstraße 34,48.770525669089,9.183742242294
2024-05-10T00:24:55,2024-05-10,5,0,Sonstiges,In der Nähe von Stresemannstraße 29/1,48.803318878862,9.1726896612828
2024-05-10T00:24:55,2024-05-10,5,0,Wilder Müll,Damaschkestraße 31,48.827533989076,9.2284361001741
2024-05-10T00:24:55,2024-05-10,5,0,Gehweg - Verschmutzung,Obere Weinsteige 9,48.750125083143,9.1705127568568
2024-05-10T00:24:55,2024-05-10,5,0,Wilder Müll,In der Nähe von Feuerbacher-Tal-Straße 160,48.796468592473,9.1500569424463
2024-05-10T00:24:55,2024-05-10,5,0,Sonstiges,In der Nähe von Krehlstraße 107,48.719183052798,9.1021896747411
2024-05-10T00:24:55,2024-05-10,5,0,Gehweg - Verschmutzung,In der Nähe von Marktplatz (M) 4,48.775294388881,9.1778284892431
2024-05-10T00:24:55,2024-05-10,5,0,Gefahrenstelle,Silcherstraße 7,48.778279627082,9.1663476547096
2024-05-10T00:24:55,2024-05-10,5,0,Gehweg - Schäden,In der Nähe von Schloßstraße 77,48.776160364234,9.1618095948854
2024-05-10T00:24:55,2024-05-10,5,0,Ampel,In der Nähe von Kohlerstraße 1,48.7367253,9.214527
2024-05-10T00:24:55,2024-05-10,5,0,Straße - Schäden,Paradiesstraße 1,48.732112467645,9.1143689023406
2024-05-10T05:14:48,2024-05-10,5,5,Straße - Verschmutzung,In der Nähe von Kochelseeweg 33,48.830759876659,9.2188889777546
2024-05-10T06:15:50,2024-05-10,5,6,Gehweg - Schäden,Mühlhäuser Straße 303,48.835486801671,9.2189332683811
2024-05-10T06:15:50,2024-05-10,5,6,Sonstiges,Rudolfstraße 26,48.794770491431,9.2096877245938
2024-05-10T06:15:50,2024-05-10,5,6,Sonstiges,Mühlhäuser Straße 301,48.834713553353,9.2187254952222
2024-05-10T07:15:14,2024-05-10,5,7,Gefahrenstelle,Gallusstraße 21,48.740004509644,9.1290217913305
2024-05-10T07:15:14,2024-05-10,5,7,Gehweg - Schäden,In der Nähe von Happoldstraße 79,48.809500809946,9.169594402576
2024-05-10T08:15:39,2024-05-10,5,8,Straßenbeleuchtung,Silberburgstraße 26,48.783840205002,9.1592191365907
2024-05-10T08:15:39,2024-05-10,5,8,Wilder Müll,In der Nähe von Flohbergstraße 13,48.791857200527,9.2576446195082
2024-05-10T09:15:11,2024-05-10,5,9,Wilder Müll,Oeffinger Straße 51,48.840386984254,9.2383751748959
2024-05-10T13:15:23,2024-05-10,5,13,Straße - Verschmutzung,Ötztaler Straße 32,48.782846799785,9.2521238180698
2024-05-10T16:15:56,2024-05-10,5,16,Sonstiges,Melanchthonstraße 17,48.807061680998,9.2317479531426
