first_seen_at_timestamp,first_seen_date,first_seen_weekday,first_seen_hour,category,location,lat,lon
2024-08-18T00:30:09,2024-08-18,7,0,Sonstiges,In der Nähe von Schmalzmarkt,48.77493215727,9.20370718275
2024-08-18T00:30:09,2024-08-18,7,0,Sonstiges,In der Nähe von Bachhalde 53,48.847248346645,9.2243594438922
2024-08-18T00:30:09,2024-08-18,7,0,Straßenbeleuchtung,Württembergstraße 123,48.787509977529,9.266659847097
2024-08-18T00:30:09,2024-08-18,7,0,SSB Haltestelle,Sturmvogelweg 2,48.831691949783,9.2364398959168
2024-08-18T00:30:09,2024-08-18,7,0,Wilder Müll,In der Nähe von Am Reichelenberg 3/1,48.769735701071,9.1865558603932
2024-08-18T00:30:09,2024-08-18,7,0,Sonstiges,Taldorfer Straße 59,48.729868530244,9.1971382259529
2024-08-18T00:30:09,2024-08-18,7,0,Gefahrenstelle,"In der Nähe von Dornhaldenfriedhof (Auf der Dornhalde, Gew. 8)",48.75273013608,9.1520972172481
2024-08-18T00:30:09,2024-08-18,7,0,Straßenbeleuchtung,Karl-Schurz-Straße 30,48.794565094173,9.2088562902572
2024-08-18T00:30:09,2024-08-18,7,0,Sonstiges,Rückertstraße 5B,48.773837047665,9.145332088511
2024-08-18T00:30:09,2024-08-18,7,0,Verkehrszeichen,In der Nähe von Filderhauptstraße 63,48.701570698293,9.2082564676439
2024-08-18T00:30:09,2024-08-18,7,0,Wilder Müll,In der Nähe von Stresemannstraße 9,48.801456973801,9.1730316717889
2024-08-18T00:30:09,2024-08-18,7,0,Straßeneinlauf - verstopft,In der Nähe von Robert-Haug-Weg 15,48.798520617794,9.1728227222519
2024-08-18T00:30:09,2024-08-18,7,0,Wilder Müll,In der Nähe von Viergiebelweg 27,48.798289802061,9.172198761031
2024-08-18T00:30:09,2024-08-18,7,0,Gefahrenstelle,In der Nähe von Wiener Platz 3,48.813387085434,9.1682010819256
2024-08-18T00:30:09,2024-08-18,7,0,Straßenbeleuchtung,In der Nähe von Toilettenanlage (Wiener Platz 4),48.814243730464,9.1682147799507
2024-08-18T00:30:09,2024-08-18,7,0,Wilder Müll,In der Nähe von Altglas-Container (Dieterlestraße / Mühlstraße),48.807380276809,9.1594874562102
2024-08-18T00:30:09,2024-08-18,7,0,Wilder Müll,Hartwaldstraße 61,48.836149732204,9.2250411904525
2024-08-18T00:30:09,2024-08-18,7,0,Sonstiges,Remscheider Straße 5,48.80732381539,9.2123567927297
2024-08-18T00:30:09,2024-08-18,7,0,Wilder Müll,In der Nähe von Wiener Straße 81,48.811841155602,9.1603131414438
2024-08-18T00:30:09,2024-08-18,7,0,Verkehrszeichen,In der Nähe von Wiener Straße 176,48.809516840515,9.1518325411012
2024-08-18T00:30:09,2024-08-18,7,0,Straße - Schäden,In der Nähe von Herschelstraße 16A,48.717672219595,9.1204284768535
2024-08-18T00:30:09,2024-08-18,7,0,Gefahrenstelle,Gutenbergstraße 85,48.770944268833,9.1560889685016
2024-08-18T00:30:09,2024-08-18,7,0,Gehweg - Schäden,Pflasteräckerstraße 64,48.779565078268,9.2109175200589
2024-08-18T00:30:09,2024-08-18,7,0,Wilder Müll,In der Nähe von Altglas-Container (Korntaler Straße / Mercatorweg),48.841838893933,9.1449112504326
2024-08-18T00:30:09,2024-08-18,7,0,Wilder Müll,"In der Nähe von Ebene, Gew. (O) 11",48.774034445428,9.2206953149251
2024-08-18T00:30:09,2024-08-18,7,0,Sonstiges,Korntaler Straße 86A,48.843185147597,9.1533966869407
2024-08-18T00:30:09,2024-08-18,7,0,Ampel,Albert-Schäffle-Straße 101,48.769591181349,9.1993214613161
2024-08-18T00:30:09,2024-08-18,7,0,Wilder Müll,In der Nähe von Emerholzweg 79,48.853999132318,9.1347330565622
2024-08-18T00:30:09,2024-08-18,7,0,Sonstiges,In der Nähe von Spielfläche (Hagelsbrunnenweg),48.715024244811,9.1193492236971
2024-08-18T00:30:09,2024-08-18,7,0,Sonstiges,In der Nähe von Arthurstraße 12,48.716491541281,9.0998562398578
2024-08-18T00:30:09,2024-08-18,7,0,Brunnen / Gewässer,In der Nähe von Am Hohengeren 12,48.7805628,9.1945224
2024-08-18T00:30:09,2024-08-18,7,0,Sonstiges,In der Nähe von Thomas-Münzer-Weg 51,48.843211107567,9.1956308715367
2024-08-18T00:30:09,2024-08-18,7,0,Sonstiges,Gutenbergstraße 93,48.770648670667,9.1551489922655
2024-08-18T00:30:09,2024-08-18,7,0,Wilder Müll,In der Nähe von Augsburger Straße 515,48.772973106643,9.2612152717428
2024-08-18T00:30:09,2024-08-18,7,0,Sonstiges,In der Nähe von Kapellenweg 2,48.834570637876,9.2210162973445
2024-08-18T00:30:09,2024-08-18,7,0,Wilder Müll,Gutenbergstraße 14,48.77422350169,9.1656128956201
2024-08-18T00:30:09,2024-08-18,7,0,Straßenbeleuchtung,In der Nähe von Am Höhenpark 16,48.801553715886,9.1717911680397
2024-08-18T00:30:09,2024-08-18,7,0,Sonstiges,In der Nähe von Wiener Platz 5,48.814268973622,9.1680035461961
2024-08-18T00:30:09,2024-08-18,7,0,Wilder Müll,In der Nähe von Altglas-Container (Lindpaintnerstraße / Botnanger Straße),48.773001101008,9.1328840989629
2024-08-18T00:30:09,2024-08-18,7,0,Wilder Müll,Landhausstraße 23,48.784259251578,9.1912796580254
2024-08-18T03:15:25,2024-08-18,7,3,Sonstiges,In der Nähe von Werastraße 49,48.782756392674,9.19160065519
2024-08-18T08:15:42,2024-08-18,7,8,Straße - Verschmutzung,Liststaffel 9,48.763099340651,9.1691414895083
2024-08-18T08:15:42,2024-08-18,7,8,Gefahrenstelle,Aldinger Straße 104,48.842324212601,9.2324421315981
2024-08-18T08:15:42,2024-08-18,7,8,Straße - Verschmutzung,In der Nähe von Tannenbergstraße 63,48.810810810811,9.2477615952493
2024-08-18T09:15:42,2024-08-18,7,9,Sonstiges,Nißlestraße 20,48.796956039927,9.2099419338619
2024-08-18T10:15:26,2024-08-18,7,10,Wilder Müll,In der Nähe von Austraße 46,48.82239421797,9.2249641899935
2024-08-18T10:15:26,2024-08-18,7,10,Wilder Müll,In der Nähe von Freibergstraße 33,48.822908066864,9.2176264259988
2024-08-18T10:15:26,2024-08-18,7,10,Wilder Müll,In der Nähe von Nagoldstraße 75,48.820885259424,9.2168601814534
2024-08-18T10:15:26,2024-08-18,7,10,Wilder Müll,In der Nähe von Kinzigstraße 16,48.82041232791,9.219762291976
2024-08-18T10:15:26,2024-08-18,7,10,Sonstiges,In der Nähe von Gerätespielfläche (Langenburger Straße),48.826824338385,9.1784738408025
2024-08-18T10:15:26,2024-08-18,7,10,Gefahrenstelle,Am Stadtpark 50,48.829081207444,9.1588582851962
2024-08-18T11:14:18,2024-08-18,7,11,Sonstiges,Fliegenweg 21,48.848411809865,9.153344498219
2024-08-18T12:16:56,2024-08-18,7,12,Wilder Müll,Filderbahnstraße 59,48.730053080453,9.1456410211281
2024-08-18T12:16:56,2024-08-18,7,12,Ampel,In der Nähe von Dürnauer Weg 56,48.723916889108,9.203731516857
