first_seen_at_timestamp,first_seen_date,first_seen_weekday,first_seen_hour,category,location,lat,lon
2024-06-25T00:26:07,2024-06-25,2,0,Gefahrenstelle,In der Nähe von Campingplatz Stuttgart (Mercedesstraße 40),48.793468993059,9.2183678382732
2024-06-25T00:26:07,2024-06-25,2,0,Straßenbeleuchtung,Schlüsselwiesen 40,48.781344142707,9.2169144576667
2024-06-25T00:26:07,2024-06-25,2,0,Wilder Müll,In der Nähe von Liststraße 81,48.762444271166,9.1660927690515
2024-06-25T00:26:07,2024-06-25,2,0,Sonstiges,In der Nähe von Dinkelstraße 100,48.722355948388,9.1913150703829
2024-06-25T00:26:07,2024-06-25,2,0,Verkehrszeichen,In der Nähe von Lehmgrubenstraße 25,48.786579684769,9.2122117693102
2024-06-25T00:26:07,2024-06-25,2,0,Gefahrenstelle,Ontariostraße 10,48.755496314204,9.2181637030235
2024-06-25T00:26:07,2024-06-25,2,0,Gefahrenstelle,Möhringer Straße 3C,48.763535523771,9.1661356648494
2024-06-25T00:26:07,2024-06-25,2,0,Radweg - Verschmutzung,In der Nähe von Büsnauer Straße 112,48.740413645688,9.0897169999743
2024-06-25T00:26:07,2024-06-25,2,0,Sonstiges,Reinsburgstraße 184,48.769307708466,9.1487485358486
2024-06-25T00:26:07,2024-06-25,2,0,Sonstiges,Holbeinweg 37,48.798428767666,9.1612806302521
2024-06-25T00:26:07,2024-06-25,2,0,Brunnen / Gewässer,Rosenbergstraße 23,48.78050929629,9.1626790393865
2024-06-25T00:26:07,2024-06-25,2,0,Wilder Müll,Schmidener Straße 145,48.813377198955,9.2315591219819
2024-06-25T00:26:07,2024-06-25,2,0,Sonstiges,Albert-Schäffle-Straße 94,48.770031816781,9.199418471188
2024-06-25T00:26:07,2024-06-25,2,0,Sonstiges,Meistersingerstraße 29,48.754156844254,9.1694652015584
2024-06-25T00:26:07,2024-06-25,2,0,Gefahrenstelle,In der Nähe von Neue Weinsteige 66,48.765530619538,9.1813775856905
2024-06-25T00:26:07,2024-06-25,2,0,Sonstiges,In der Nähe von Altglas-Container (Boskopweg / Renettenweg),48.759447404884,9.2351085448088
2024-06-25T00:26:07,2024-06-25,2,0,Gehweg - Schäden,In der Nähe von Theodor-Heuss-Straße 11,48.777090952677,9.1744344308064
2024-06-25T00:26:07,2024-06-25,2,0,Wilder Müll,Silberburgstraße 64,48.781146,9.1612655
2024-06-25T00:26:07,2024-06-25,2,0,Brunnen / Gewässer,Zeppelinstraße 16,48.7760091,9.1581556
2024-06-25T00:26:07,2024-06-25,2,0,Sonstiges,In der Nähe von Speidelweg 92,48.7582473688,9.2259211909251
2024-06-25T00:26:07,2024-06-25,2,0,Wilder Müll,Silberburgstraße 64,48.7811076,9.1613709
2024-06-25T00:26:07,2024-06-25,2,0,Wilder Müll,In der Nähe von Oswald-Hesse-Straße 14,48.8115366,9.169365
2024-06-25T00:26:07,2024-06-25,2,0,Sonstiges,Stuttgarter Straße 3,48.812216031574,9.1699740633692
2024-06-25T00:26:07,2024-06-25,2,0,Wilder Müll,In der Nähe von Pfaffenwaldring 52/1,48.7474209,9.0916436
2024-06-25T00:26:07,2024-06-25,2,0,Wilder Müll,"In der Nähe von Bandtäle, Gew. 3/1",48.748011,9.090984
2024-06-25T00:26:07,2024-06-25,2,0,Wilder Müll,Oberstdorfer Straße 26,48.782454747837,9.2531111887228
2024-06-25T00:26:07,2024-06-25,2,0,Kanaldeckel,Kölner Straße 40,48.82149857872,9.2028177404424
2024-06-25T00:26:07,2024-06-25,2,0,Gehweg - Verschmutzung,In der Nähe von Steinröhre Gew. 1,48.819578,9.0805096
2024-06-25T00:26:07,2024-06-25,2,0,Wilder Müll,In der Nähe von Am Bismarckturm 57,48.795177259014,9.1654096750407
2024-06-25T00:26:07,2024-06-25,2,0,Poller,In der Nähe von Feuerbacher Weg 51,48.795322598054,9.1660331308441
2024-06-25T00:26:07,2024-06-25,2,0,Sonstiges,In der Nähe von Feuerbacher Weg 51,48.795319199429,9.1660828242793
2024-06-25T00:26:07,2024-06-25,2,0,Wilder Müll,In der Nähe von Steinröhre Gew. 1,48.8191337,9.0805212
2024-06-25T00:26:07,2024-06-25,2,0,Wilder Müll,In der Nähe von Altglas-Container (Freibergstraße / Moselstraße),48.823083178922,9.2184261956259
2024-06-25T00:26:07,2024-06-25,2,0,Gehweg - Schäden,In der Nähe von Mühlhäuser Straße 303,48.835360370725,9.2183629494888
2024-06-25T00:26:07,2024-06-25,2,0,Gehweg - Schäden,In der Nähe von Mühlhäuser Straße 303,48.83529165351,9.2183978699376
2024-06-25T00:26:07,2024-06-25,2,0,Gehweg - Schäden,In der Nähe von Max-Eyth-See (Am Max-Eyth-See),48.834628900727,9.2151445815134
2024-06-25T00:26:07,2024-06-25,2,0,Gefahrenstelle,In der Nähe von Heilbronner Straße 203/1,48.805002150897,9.183991504248
2024-06-25T00:26:07,2024-06-25,2,0,Straße - Schäden,In der Nähe von Möwenweg 60,48.833165509053,9.2180131725622
2024-06-25T00:26:07,2024-06-25,2,0,Wilder Müll,Forststraße 193,48.775328614892,9.1467246984396
2024-06-25T00:26:07,2024-06-25,2,0,Straßenbeleuchtung,Haldenrainstraße 139,48.832244552182,9.1922472464853
