first_seen_at_timestamp,first_seen_date,first_seen_weekday,first_seen_hour,category,location,lat,lon
2024-08-27T00:28:37,2024-08-27,2,0,Verkehrszeichen,Bussardweg 1,48.80544870271,9.1058181486876
2024-08-27T00:28:37,2024-08-27,2,0,Gehweg - Schäden,Immenhofer Straße 13,48.767092912653,9.1755917715956
2024-08-27T00:28:37,2024-08-27,2,0,Verkehrszeichen,In der Nähe von Amstetter Straße 34,48.757554439897,9.2561575570371
2024-08-27T00:28:37,2024-08-27,2,0,Sonstiges,Am Schwanenplatz 10,48.796802598801,9.2052299348494
2024-08-27T00:28:37,2024-08-27,2,0,Sonstiges,In der Nähe von Spielfläche (Stadtgarten),48.782800681091,9.1730369047709
2024-08-27T00:28:37,2024-08-27,2,0,Sonstiges,In der Nähe von Kleinkinderspielfläche (Sporthalle Talwiesen),48.831411258195,9.1794576723877
2024-08-27T00:28:37,2024-08-27,2,0,Gehweg - Verschmutzung,In der Nähe von Stammheimer Straße 148,48.842414973457,9.1593140083007
2024-08-27T00:28:37,2024-08-27,2,0,Straße - Schäden,Tiefer Weg 55,48.71913596781,9.2124729833238
2024-08-27T00:28:37,2024-08-27,2,0,Treppe,In der Nähe von Silberweg,48.7733988238,9.1990049588007
2024-08-27T00:28:37,2024-08-27,2,0,Straßenbeleuchtung,Mühlhäuser Straße 319,48.83734973857,9.2185189301025
2024-08-27T00:28:37,2024-08-27,2,0,Gehweg - Verschmutzung,In der Nähe von Bodelschwinghstraße 20/2,48.747189871901,9.1611271485101
2024-08-27T00:28:37,2024-08-27,2,0,Brunnen / Gewässer,In der Nähe von Sternenbrunnen (Zur Uhlandshöhe / Sternwarte),48.782621664434,9.19647328142
2024-08-27T00:28:37,2024-08-27,2,0,Ampel,In der Nähe von Stuttgarter Straße 86,48.809504533585,9.1600616017272
2024-08-27T00:28:37,2024-08-27,2,0,Sonstiges,Mönchfeldstraße 8,48.842274205108,9.2304656996748
2024-08-27T00:28:37,2024-08-27,2,0,Radweg - Schäden,In der Nähe von WasenSportSommer,48.799326687129,9.2132290453144
2024-08-27T00:28:37,2024-08-27,2,0,Straße - Schäden,In der Nähe von Welzheimer Straße 23,48.782393199958,9.215548201251
2024-08-27T00:28:37,2024-08-27,2,0,Straßenbeleuchtung,Alte Weinsteige 29,48.761339761887,9.166645490931
2024-08-27T00:28:37,2024-08-27,2,0,Wilder Müll,In der Nähe von Eibseeweg 19,48.828194614692,9.2175158414999
2024-08-27T00:28:37,2024-08-27,2,0,Sonstiges,In der Nähe von Duisburger Straße 22,48.807725793818,9.2115823066527
2024-08-27T00:28:37,2024-08-27,2,0,Sonstiges,Mühlhäuser Straße 271/1,48.835027829364,9.2142435799145
2024-08-27T00:28:37,2024-08-27,2,0,Radweg - Schäden,Jahnstraße 50,48.751167370258,9.1773048315883
2024-08-27T00:28:37,2024-08-27,2,0,Straßenbeleuchtung,Eckartstraße 6,48.795054981701,9.1909258280817
2024-08-27T00:28:37,2024-08-27,2,0,Sonstiges,Württembergstraße 230,48.785706562037,9.2723135702913
2024-08-27T00:28:37,2024-08-27,2,0,Sonstiges,In der Nähe von Thomastraße 16,48.799583296039,9.1645945528698
2024-08-27T00:28:37,2024-08-27,2,0,Gehweg - Verschmutzung,Klara-Neuburger-Straße 9,48.739360774364,9.2211405187753
2024-08-27T00:28:37,2024-08-27,2,0,Sonstiges,In der Nähe von Spitalstraße 16,48.831241840965,9.1786283474382
2024-08-27T00:28:37,2024-08-27,2,0,Sonstiges,In der Nähe von Am Kochenhof 58,48.797948499179,9.1679237120452
2024-08-27T00:28:37,2024-08-27,2,0,Gefahrenstelle,In der Nähe von Baubüro Rosensteintunnel (Neckartalstraße 42/1),48.803136416893,9.2082784629995
2024-08-27T00:28:37,2024-08-27,2,0,SSB Haltestelle,In der Nähe von Hallschlag 25,48.813192409901,9.208673833708
2024-08-27T00:28:37,2024-08-27,2,0,Sonstiges,In der Nähe von Spielfläche (Hirsauer Staße/ Kuckucksruf),48.741964291446,9.1358274292178
2024-08-27T00:28:37,2024-08-27,2,0,Ampel,In der Nähe von Fasanenhofstraße 15/1,48.713655215405,9.1636661364641
2024-08-27T00:28:37,2024-08-27,2,0,Radweg - Verschmutzung,In der Nähe von Fasanenhofstraße 145/4,48.709719899193,9.1525580680911
2024-08-27T00:28:37,2024-08-27,2,0,Radweg - Scherben,In der Nähe von Altglas-Container (Europaplatz),48.713825875356,9.1624956562927
2024-08-27T00:28:37,2024-08-27,2,0,SSB Haltestelle,In der Nähe von Wilhelmastraße 1,48.806320963175,9.2104790850141
2024-08-27T00:28:37,2024-08-27,2,0,Sonstiges,In der Nähe von Mühlhäuser Straße 303,48.835492283037,9.2190792493981
2024-08-27T00:28:37,2024-08-27,2,0,Sonstiges,In der Nähe von Stammheimer Straße 142,48.842026933463,9.1592689660033
2024-08-27T00:28:37,2024-08-27,2,0,Wilder Müll,In der Nähe von Schurwaldstraße 42,48.781741389527,9.2158309573212
2024-08-27T00:28:37,2024-08-27,2,0,Sonstiges,Züricher Straße 22,48.775860140745,9.1768809364622
2024-08-27T00:28:37,2024-08-27,2,0,Sonstiges,"In der Nähe von In den Stubenweinbergen, Gew. 5",48.770414255732,9.2300771138394
2024-08-27T00:28:37,2024-08-27,2,0,Gehweg - Verschmutzung,Wagenburgstraße 10,48.778590334602,9.1921564911671
2024-08-27T05:15:16,2024-08-27,2,5,Wilder Müll,In der Nähe von Klagenfurter Straße 31,48.80858318555,9.1579574210322
2024-08-27T05:15:16,2024-08-27,2,5,Wilder Müll,In der Nähe von Eckartstraße 20,48.795365776578,9.1917228535559
2024-08-27T05:15:16,2024-08-27,2,5,Wilder Müll,In der Nähe von Knappstraße 8,48.796068922774,9.1922090014775
2024-08-27T05:15:16,2024-08-27,2,5,Wilder Müll,In der Nähe von Mittnachtstraße 17,48.797400933765,9.1930672378463
2024-08-27T06:16:20,2024-08-27,2,6,Straßeneinlauf - verstopft,In der Nähe von Nordbahnhofstraße 11,48.790887458687,9.1881851634503
2024-08-27T07:15:06,2024-08-27,2,7,Wilder Müll,"In der Nähe von Am Schattenring, Gew. 1",48.756475480452,9.1136569646172
2024-08-27T08:16:08,2024-08-27,2,8,Sonstiges,In der Nähe von Niebuhrweg 79,48.840755623189,9.1472406479599
2024-08-27T08:16:08,2024-08-27,2,8,Sonstiges,In der Nähe von Rasmussenweg 58,48.84226029344,9.1523398633856
2024-08-27T08:16:08,2024-08-27,2,8,Gehweg - Verschmutzung,In der Nähe von Mauchweg 2,48.842389312895,9.1500417355115
2024-08-27T08:16:08,2024-08-27,2,8,Verkehrszeichen,Bietigheimer Straße 24,48.833521026749,9.1741886061392
2024-08-27T08:16:08,2024-08-27,2,8,Sonstiges,Dachswaldweg 116,48.746347719826,9.1197471799508
2024-08-27T09:15:28,2024-08-27,2,9,Sonstiges,Leibnizstraße 46,48.781314719181,9.1437201823255
2024-08-27T09:15:28,2024-08-27,2,9,Straßenbeleuchtung,Ernst-Bloch-Weg 19,48.804277527623,9.1395231436225
2024-08-27T09:15:28,2024-08-27,2,9,Bäder,In der Nähe von Mineralbad Berg (Am Schwanenplatz 9),48.796343256113,9.2060063092873
2024-08-27T09:15:28,2024-08-27,2,9,Straßenbeleuchtung,Jahnstraße 68,48.752836081803,9.1802357256658
2024-08-27T09:15:28,2024-08-27,2,9,Sonstiges,Böblinger Straße 18,48.76414789476,9.1656886269589
