first_seen_at_timestamp,first_seen_date,first_seen_weekday,first_seen_hour,category,location,lat,lon
2025-02-12T00:31:45,2025-02-12,3,0,Gehweg - Verschmutzung,In der Nähe von P+R Platz Wagrainäcker (Max-Eyth-See) (Mühlhäuser Straße),48.831359488691,9.2133638377466
2025-02-12T00:31:45,2025-02-12,3,0,Wilder Müll,Burgenlandstraße 74,48.811041822705,9.1607353988284
2025-02-12T00:31:45,2025-02-12,3,0,Gefahrenstelle,Wrangellstraße 11,48.713179919903,9.2028504941322
2025-02-12T00:31:45,2025-02-12,3,0,Wilder Müll,Ulmer Straße 289,48.7749081,9.2386292
2025-02-12T00:31:45,2025-02-12,3,0,Straßenbeleuchtung,In der Nähe von Schelmenwasenstraße 15A,48.712348283405,9.1671942688639
2025-02-12T00:31:45,2025-02-12,3,0,Sonstiges,In der Nähe von Speidelweg 128/1,48.76106405782,9.2258348110947
2025-02-12T00:31:45,2025-02-12,3,0,Gefahrenstelle,In der Nähe von Losäckerstraße 20,48.815758260512,9.0853969902588
2025-02-12T00:31:45,2025-02-12,3,0,Verkehrszeichen,In der Nähe von Zuckerbergstraße 9,48.829501103332,9.223079530476
2025-02-12T00:31:45,2025-02-12,3,0,Wilder Müll,In der Nähe von Steinkopfstraße 6,48.762603416413,9.1853011793233
2025-02-12T00:31:45,2025-02-12,3,0,Straßenbeleuchtung,Bernhauser Straße 11,48.699356677681,9.2156514073964
2025-02-12T00:31:45,2025-02-12,3,0,Sonstiges,Wiener Straße 20,48.813679664795,9.1656474664705
2025-02-12T00:31:45,2025-02-12,3,0,Verkehrszeichen,Reichenhaller Straße 58,48.802185766437,9.2318071965668
2025-02-12T00:31:45,2025-02-12,3,0,Sonstiges,Steigstraße 80B,48.716934059697,9.097014377015
2025-02-12T00:31:45,2025-02-12,3,0,Wilder Müll,Am Mühlkanal 17,48.796079827178,9.2119126626074
2025-02-12T00:31:45,2025-02-12,3,0,Wilder Müll,Frauenstraße 7,48.761747137341,9.1584553279681
2025-02-12T00:31:45,2025-02-12,3,0,Straße - Verschmutzung,In der Nähe von Furtbachstraße 2B,48.771059150843,9.1721391866365
2025-02-12T00:31:45,2025-02-12,3,0,Sonstiges,In der Nähe von Fasanenhofstraße 101,48.709136153966,9.1537778132095
2025-02-12T00:31:45,2025-02-12,3,0,Straße - Schäden,In der Nähe von Gerätespielfläche (Urbansplatz),48.780944629789,9.1880677180641
2025-02-12T00:31:45,2025-02-12,3,0,Gefahrenstelle,In der Nähe von Allmersbacher Straße 40,48.805090196005,9.2470016823752
2025-02-12T00:31:45,2025-02-12,3,0,Wilder Müll,Ostendstraße 110,48.781882904424,9.207687431185
2025-02-12T00:31:45,2025-02-12,3,0,Gehweg - Verschmutzung,In der Nähe von Echazstraße 20,48.820932322275,9.2229665604341
2025-02-12T00:31:45,2025-02-12,3,0,Wilder Müll,In der Nähe von Sigmaringer Straße 121,48.73272433882,9.15663866555
2025-02-12T00:31:45,2025-02-12,3,0,Ampel,Stuttgarter Straße 99,48.808456374761,9.1568318740873
2025-02-12T00:31:45,2025-02-12,3,0,Gehweg - Verschmutzung,Falbenhennenstraße 9,48.7667672248,9.1767881856902
2025-02-12T00:31:45,2025-02-12,3,0,Ampel,Bebelstraße 26,48.775228809754,9.1542647922634
2025-02-12T00:31:45,2025-02-12,3,0,Straßenbeleuchtung,Wildensteinstraße 19,48.804427105149,9.1561656123234
2025-02-12T00:31:45,2025-02-12,3,0,Wilder Müll,Körschwiesen 25,48.717442993352,9.1639581448926
2025-02-12T00:31:45,2025-02-12,3,0,Poller,In der Nähe von Bernsteinstraße 116,48.736462406912,9.2273049995977
2025-02-12T00:31:45,2025-02-12,3,0,Sonstiges,Eierstraße 13,48.762615647311,9.1614108647395
2025-02-12T00:31:45,2025-02-12,3,0,Verkehrszeichen,In der Nähe von Schwieberdinger Straße 3,48.82594579832,9.168819381971
2025-02-12T00:31:45,2025-02-12,3,0,Sonstiges,Liliencronstraße 4,48.743774968802,9.2131073146428
2025-02-12T00:31:45,2025-02-12,3,0,Wilder Müll,In der Nähe von Altglas-Container (Sparrhärmlingweg / Am Römerkastell),48.812313017849,9.2061529596635
2025-02-12T00:31:45,2025-02-12,3,0,Sonstiges,In der Nähe von Wernerstraße 87,48.822221766933,9.1705938385314
2025-02-12T00:31:45,2025-02-12,3,0,Ampel,In der Nähe von Schmalzmarkt,48.775004732494,9.2036910361305
2025-02-12T00:31:45,2025-02-12,3,0,Gefahrenstelle,Hauptstraße 62,48.729988968762,9.1053890200146
2025-02-12T00:31:45,2025-02-12,3,0,Sonstiges,In der Nähe von Leobener Straße 71,48.814272451875,9.1603768369691
2025-02-12T00:31:45,2025-02-12,3,0,Straßenbeleuchtung,Strebelstraße 9,48.713510948747,9.2038849804404
2025-02-12T00:31:45,2025-02-12,3,0,Sonstiges,In der Nähe von Villacher Straße 12,48.81193683325,9.1575373866377
2025-02-12T00:31:45,2025-02-12,3,0,Sonstiges,In der Nähe von Beim Fasanengarten 5,48.81690715552,9.0852002924194
2025-02-12T00:31:45,2025-02-12,3,0,Kanaldeckel,Scillawaldstraße 70B,48.83685124855,9.2251260977604
2025-02-12T07:15:22,2025-02-12,3,7,SSB Haltestelle,In der Nähe von Fellbacher Straße 100,48.7895777,9.2592497
2025-02-12T07:15:22,2025-02-12,3,7,Sonstiges,In der Nähe von Schadstoff-/Wertstoffmobil-Standplatz (Barbarossastraße / Bertramstraße),48.79133653972,9.2575730789082
