first_seen_at_timestamp,first_seen_date,first_seen_weekday,first_seen_hour,category,location,lat,lon
2025-12-08T00:39:04,2025-12-08,1,0,Gefahrenstelle,In der Nähe von Jagststraße / Schussengasse,48.819925807672,9.2244852704224
2025-12-08T00:39:04,2025-12-08,1,0,Wilder Müll,In der Nähe von Hasenbergsteige 92A,48.764844905355,9.1470823820337
2025-12-08T00:39:04,2025-12-08,1,0,Wilder Müll,In der Nähe von Jägerhausweg,48.764540005189,9.1438884244731
2025-12-08T00:39:04,2025-12-08,1,0,Wilder Müll,In der Nähe von Hasenbergsteige 92/1,48.764420955359,9.1466840083816
2025-12-08T00:39:04,2025-12-08,1,0,Wilder Müll,Waldhornweg,48.804886858588,9.1082696312679
2025-12-08T00:39:04,2025-12-08,1,0,Gehweg - Schäden,Schiltacher Straße,48.740777262035,9.1375791106981
2025-12-08T00:39:04,2025-12-08,1,0,Wilder Müll,In der Nähe von Wagrainstraße 80,48.829859252346,9.2159298979767
2025-12-08T00:39:04,2025-12-08,1,0,Wilder Müll,In der Nähe von Korntaler Straße / Mercatorweg,48.841847762803,9.1447615589362
2025-12-08T00:39:04,2025-12-08,1,0,Wilder Müll,Schurwaldstraße,48.782535622167,9.2195468595975
2025-12-08T00:39:04,2025-12-08,1,0,Wilder Müll,Schreiberstraße,48.759602135596,9.1613059629873
2025-12-08T00:39:04,2025-12-08,1,0,Straße - Schäden,Waiblinger Straße,48.803918686356,9.2197082722253
2025-12-08T00:39:04,2025-12-08,1,0,Gehweg - Verschmutzung,In der Nähe von Tapachstraße / Schozacher Straße,48.828311501306,9.1913807630313
2025-12-08T00:39:04,2025-12-08,1,0,Wilder Müll,Römerstraße,48.762073566511,9.1753157364441
2025-12-08T00:39:04,2025-12-08,1,0,Straße - Verschmutzung,In der Nähe von Eglosheimer Straße 17,48.845993252549,9.1633263488008
2025-12-08T00:39:04,2025-12-08,1,0,Wilder Müll,Talstraße,48.785647194321,9.2153265943977
2025-12-08T00:39:04,2025-12-08,1,0,Sonstiges,Böblinger Straße,48.763985124987,9.1662732254434
2025-12-08T00:39:04,2025-12-08,1,0,Wilder Müll,Schnellweg,48.758973562909,9.1538884563813
2025-12-08T00:39:04,2025-12-08,1,0,Sonstiges,Forststraße,48.777949730616,9.1578529641844
2025-12-08T00:39:04,2025-12-08,1,0,Sonstiges,In der Nähe von Hoppenlau-Friedhof,48.781278,9.1689884
2025-12-08T00:39:04,2025-12-08,1,0,Ampel,Marienstraße,48.7723970793,9.1719219465127
2025-12-08T00:39:04,2025-12-08,1,0,Gefahrenstelle,In der Nähe von Jagststraße / Schussengasse,48.819933261328,9.2244477699321
2025-12-08T00:39:04,2025-12-08,1,0,Gefahrenstelle,In der Nähe von Jagststraße / Schussengasse,48.819933261328,9.2244477699321
2025-12-08T00:39:04,2025-12-08,1,0,Sonstiges,Böblinger Straße,48.764092171592,9.1668995373567
2025-12-08T00:39:04,2025-12-08,1,0,Sonstiges,In der Nähe von Stauffenberg-Platz,48.776593265186,9.1797583080775
2025-12-08T00:39:04,2025-12-08,1,0,Gehweg - Verschmutzung,In der Nähe von Vaihinger Straße 92A,48.7282945,9.1387538
2025-12-08T00:39:04,2025-12-08,1,0,Wilder Müll,In der Nähe von Tapachtal lll,48.831566964301,9.2030030646606
2025-12-08T00:39:04,2025-12-08,1,0,Wilder Müll,In der Nähe von Am Schnarrenberg,48.827143608077,9.2071400044294
2025-12-08T00:39:04,2025-12-08,1,0,Sonstiges,Katzenbachstraße,48.732763887568,9.1105761656531
2025-12-08T00:39:04,2025-12-08,1,0,Verkehrszeichen,Roßbergstraße,48.78384462934,9.2022911099233
2025-12-08T00:39:04,2025-12-08,1,0,Straße - Verschmutzung,In der Nähe von Klopstockstraße 70,48.77770581009,9.1467209478246
2025-12-08T00:39:04,2025-12-08,1,0,Sonstiges,"In der Nähe von Espan, Gew.",48.811711505703,9.2422734496477
2025-12-08T00:39:04,2025-12-08,1,0,Wilder Müll,Weimarstraße,48.775274140788,9.1669229898075
2025-12-08T00:39:04,2025-12-08,1,0,Straßenbeleuchtung,In der Nähe von Solferinoweg 15A,48.715267949704,9.1538639511675
2025-12-08T00:39:04,2025-12-08,1,0,Straßenbeleuchtung,Künzelsauer Straße,48.826231331084,9.1761797822706
2025-12-08T00:39:04,2025-12-08,1,0,Sonstiges,Marktplatz,48.774058047408,9.1787262962645
2025-12-08T00:39:04,2025-12-08,1,0,Gefahrenstelle,In der Nähe von Sindelbachstraße 41,48.724835066626,9.1387775872045
2025-12-08T00:39:04,2025-12-08,1,0,Straßenbeleuchtung,Luisenstraße,48.785660138064,9.2132029235494
2025-12-08T00:39:04,2025-12-08,1,0,Wilder Müll,In der Nähe von Lohäckerstraße 15/1,48.718533019706,9.1477003104317
2025-12-08T00:39:04,2025-12-08,1,0,Straßenbeleuchtung,Genfer Weg,48.714887146364,9.1582129527107
2025-12-08T00:39:04,2025-12-08,1,0,Gefahrenstelle,Württembergstraße,48.785706562037,9.2723135702913
2025-12-08T06:17:39,2025-12-08,1,6,Sonstiges,Sankt-Pöltener-Straße,48.81133853136,9.160845311849
2025-12-08T06:17:39,2025-12-08,1,6,Gehweg - Verschmutzung,In der Nähe von Urbanstraße 50,48.779686185168,9.1879385177113
2025-12-08T06:17:39,2025-12-08,1,6,Wilder Müll,Unterländer Straße,48.832447971647,9.1698653500962
2025-12-08T07:16:54,2025-12-08,1,7,Ampel,In der Nähe von Charlottenplatz 17/2,48.777067268975,9.1817822954648
2025-12-08T07:16:54,2025-12-08,1,7,Wilder Müll,Kirchtalstraße,48.836007638233,9.1716898108697
2025-12-08T07:16:54,2025-12-08,1,7,Gehweg - Verschmutzung,In der Nähe von Wilhelmsplatz (M) 6,48.7715268,9.1791268
2025-12-08T07:16:54,2025-12-08,1,7,Gehweg - Verschmutzung,Obere Weinsteige,48.750125083143,9.1705127568568
2025-12-08T07:16:54,2025-12-08,1,7,Wilder Müll,In der Nähe von Staufeneckstraße 29,48.809123309661,9.1545534517162
