first_seen_at_timestamp,first_seen_date,first_seen_weekday,first_seen_hour,category,location,lat,lon
2025-10-14T00:34:24,2025-10-14,2,0,Gefahrenstelle,In der Nähe von Röntgenstraße 32,48.789481022369,9.2139821225366
2025-10-14T00:34:24,2025-10-14,2,0,Gefahrenstelle,In der Nähe von Erwin-Schoettle-Platz,48.761943991457,9.1602297021931
2025-10-14T00:34:24,2025-10-14,2,0,Sonstiges,In der Nähe von Neckarstraße 154/2,48.7890547,9.195106
2025-10-14T00:34:24,2025-10-14,2,0,Sonstiges,Eberhardstraße,48.772891679034,9.1779665520541
2025-10-14T00:34:24,2025-10-14,2,0,Sonstiges,In der Nähe von Eberhardstraße 37,48.773087742871,9.1783633556225
2025-10-14T00:34:24,2025-10-14,2,0,Sonstiges,Lehmfeldstraße,48.818867660229,9.238927004501
2025-10-14T00:34:24,2025-10-14,2,0,Wilder Müll,Solitudestraße,48.807058452106,9.1043927738674
2025-10-14T00:34:24,2025-10-14,2,0,Wilder Müll,In der Nähe von Neue Straße 150,48.768880810262,9.2132154328543
2025-10-14T00:34:24,2025-10-14,2,0,Sonstiges,Schwabstraße,48.780623525497,9.1563912241136
2025-10-14T00:34:24,2025-10-14,2,0,Straßenbeleuchtung,Uhlbacher Straße,48.76725242683,9.2699275196287
2025-10-14T00:34:24,2025-10-14,2,0,Gefahrenstelle,In der Nähe von Süßener Straße 24,48.774351091239,9.2440377403513
2025-10-14T00:34:24,2025-10-14,2,0,Verkehrszeichen,In der Nähe von Pfizerstraße 15,48.77418443468,9.1905628846479
2025-10-14T00:34:24,2025-10-14,2,0,Wilder Müll,Dürnauer Weg,48.725019851814,9.2022182441727
2025-10-14T00:34:24,2025-10-14,2,0,Gehweg - Verschmutzung,Wagrainstraße,48.829151581267,9.2152813085246
2025-10-14T00:34:24,2025-10-14,2,0,Straße - Verschmutzung,In der Nähe von Zumsteegstraße 4,48.777945273336,9.1324872119551
2025-10-14T00:34:24,2025-10-14,2,0,Sonstiges,Eberhardstraße,48.772891675741,9.1779665520424
2025-10-14T00:34:24,2025-10-14,2,0,Wilder Müll,In der Nähe von Hasenbergsteige / Bürgerallee,48.762987897958,9.1330628651071
2025-10-14T00:34:24,2025-10-14,2,0,Sonstiges,Linzer Straße,48.812192481635,9.1547595432211
2025-10-14T00:34:24,2025-10-14,2,0,Wilder Müll,Salzburger Straße,48.810809530607,9.152943769717
2025-10-14T00:34:24,2025-10-14,2,0,Gefahrenstelle,Nellinger Straße,48.744603106203,9.235935874879
2025-10-14T00:34:24,2025-10-14,2,0,Sonstiges,In der Nähe von Lindpaintnerstraße 17A,48.773159186091,9.1309829757982
2025-10-14T00:34:24,2025-10-14,2,0,Sonstiges,Silberwaldstraße,48.745512039135,9.2126521645496
2025-10-14T00:34:24,2025-10-14,2,0,Sonstiges,Bockelstraße,48.747447629728,9.2350649759863
2025-10-14T00:34:24,2025-10-14,2,0,Gehweg - Verschmutzung,Neue Weinsteige,48.766042228697,9.1815430436282
2025-10-14T00:34:24,2025-10-14,2,0,Ampel,Neue Weinsteige,48.765771059194,9.1810440710348
2025-10-14T00:34:24,2025-10-14,2,0,Gefahrenstelle,In der Nähe von Schwabstraße 52,48.774617143293,9.1561640491539
2025-10-14T00:34:24,2025-10-14,2,0,Gehweg - Verschmutzung,In der Nähe von Heinrich-Hertz-Straße,48.765704162391,9.2501178862553
2025-10-14T00:34:24,2025-10-14,2,0,SSB Haltestelle,In der Nähe von Holzstraße 21/2,48.775121599781,9.1816810209357
2025-10-14T00:34:24,2025-10-14,2,0,Sonstiges,Rotebühlstraße,48.769372776484,9.1540018869327
2025-10-14T00:34:24,2025-10-14,2,0,Wilder Müll,In der Nähe von Remstalstraße 32,48.802199578412,9.2407352221418
2025-10-14T00:34:24,2025-10-14,2,0,Sonstiges,Markusplatz,48.764443224034,9.1728609562092
2025-10-14T00:34:24,2025-10-14,2,0,Sonstiges,Markusplatz,48.764613898657,9.1730248371868
2025-10-14T00:34:24,2025-10-14,2,0,Gehweg - Schäden,In der Nähe von Regenpfeiferweg 42/1,48.830000141273,9.2376498864464
2025-10-14T00:34:24,2025-10-14,2,0,Sonstiges,Neue Weinsteige,48.765771059194,9.1810440710348
2025-10-14T00:34:24,2025-10-14,2,0,Sonstiges,Wildseestraße,48.769521227849,9.2652716996052
2025-10-14T00:34:24,2025-10-14,2,0,Ampel,In der Nähe von Überkinger Straße 2,48.805866461277,9.2131628010626
2025-10-14T00:34:24,2025-10-14,2,0,Wilder Müll,In der Nähe von Eckartstraße 7,48.795511115779,9.1912026353814
2025-10-14T00:34:24,2025-10-14,2,0,Radweg - Verschmutzung,In der Nähe von König-Karl-Straße 93/1,48.799745553077,9.2115959349579
2025-10-14T00:34:24,2025-10-14,2,0,Ampel,In der Nähe von Hölderlinstraße 1,48.785165464866,9.1660188994035
2025-10-14T00:34:24,2025-10-14,2,0,Begrünung,In der Nähe von Salzäcker Straße gegenüber Salzäckerschule,48.721367784742,9.1559317374434
2025-10-14T02:38:24,2025-10-14,2,2,Wilder Müll,Neckarstraße,48.786409855967,9.1909338718183
2025-10-14T05:16:08,2025-10-14,2,5,Gefahrenstelle,Stuifenstraße,48.784132540566,9.2073291567417
2025-10-14T06:17:03,2025-10-14,2,6,SSB Haltestelle,Brucknerstraße,48.773289706434,9.1290253963293
2025-10-14T06:17:03,2025-10-14,2,6,Gehweg - Verschmutzung,In der Nähe von Wilhelmsplatz 5/1 (Stgt),48.7714024,9.1788896
2025-10-14T06:17:03,2025-10-14,2,6,Gefahrenstelle,Am Bergwald,48.757145596933,9.243600318417
2025-10-14T07:16:19,2025-10-14,2,7,Sonstiges,Melanchthonstraße,48.807196122261,9.2319937229383
2025-10-14T07:16:19,2025-10-14,2,7,Gehweg - Verschmutzung,In der Nähe von Solitudestraße 121,48.80697085528,9.1043525616638
2025-10-14T07:16:19,2025-10-14,2,7,Wilder Müll,In der Nähe von Staibhöhe/ Jägerhalde,48.777643152216,9.2260247601948
2025-10-14T07:16:19,2025-10-14,2,7,Wilder Müll,In der Nähe von Stresemannstraße 6,48.8021599035,9.1746029764246
2025-10-14T07:16:19,2025-10-14,2,7,Gefahrenstelle,In der Nähe von Bebelstraße 70,48.77476586461,9.1479113956188
2025-10-14T07:16:19,2025-10-14,2,7,Sonstiges,In der Nähe von Doggenburgstraße 38,48.783913063073,9.1478917670839
2025-10-14T08:16:42,2025-10-14,2,8,Gefahrenstelle,In der Nähe von Keplerstraße 11,48.782391466291,9.1754818924038
2025-10-14T08:16:42,2025-10-14,2,8,Gefahrenstelle,In der Nähe von König-Karl-Straße 51,48.804069708006,9.2175056095549
2025-10-14T08:16:42,2025-10-14,2,8,Sonstiges,Reichenbachstraße,48.798517950148,9.2260030236019
2025-10-14T08:16:42,2025-10-14,2,8,Straßenbeleuchtung,Bernsteinstraße,48.738022010408,9.2294991152769
2025-10-14T08:16:42,2025-10-14,2,8,Wilder Müll,Eckartstraße,48.795576039934,9.1913499109736
2025-10-14T08:16:42,2025-10-14,2,8,Ampel,In der Nähe von Friedrich-Ebert-Straße / Birkenwaldstraße,48.799385677576,9.1755454913939
2025-10-14T09:16:13,2025-10-14,2,9,Gefahrenstelle,In der Nähe von Grüninger Straße 34,48.721961079278,9.2052592535153
2025-10-14T09:16:13,2025-10-14,2,9,Gefahrenstelle,In der Nähe von Leinenweberstraße 33,48.729456272798,9.1467846345037
2025-10-14T09:16:13,2025-10-14,2,9,Wilder Müll,Burgenlandstraße,48.810987334079,9.1611029776087
2025-10-14T09:16:13,2025-10-14,2,9,Wilder Müll,Eckartstraße,48.7954416,9.1912506
2025-10-14T10:16:14,2025-10-14,2,10,Wilder Müll,Klotzstraße,48.796570331688,9.2093275782004
2025-10-14T10:16:14,2025-10-14,2,10,Wilder Müll,In der Nähe von Dortmunder Straße 7,48.814402634704,9.2084148888889
2025-10-14T10:16:14,2025-10-14,2,10,SSB Haltestelle,In der Nähe von Wilhelmastraße 3,48.806313280128,9.2104311542748
2025-10-14T10:16:14,2025-10-14,2,10,Wilder Müll,In der Nähe von Wilhelmastraße 8/1,48.806497417786,9.2105057628273
2025-10-14T10:16:14,2025-10-14,2,10,Wilder Müll,In der Nähe von Heumadener Straße 6,48.758296158665,9.2545968282205
2025-10-14T11:15:37,2025-10-14,2,11,Straße - Schäden,Backnanger Straße,48.806344646193,9.2392624642458
2025-10-14T11:15:37,2025-10-14,2,11,Wilder Müll,Gundelsheimer Straße,48.833119940377,9.1943680332162
2025-10-14T11:15:37,2025-10-14,2,11,Gefahrenstelle,In der Nähe von Jagststraße / Schussengasse,48.819926600523,9.2244627338152
2025-10-14T11:15:37,2025-10-14,2,11,Sonstiges,In der Nähe von Neue Brücke 10,48.775032546568,9.1758482859917
2025-10-14T11:15:37,2025-10-14,2,11,Gefahrenstelle,In der Nähe von Falkertstraße/ Diakonissenplatz,48.780126575314,9.1631426618873
2025-10-14T11:15:37,2025-10-14,2,11,Straßenbeleuchtung,In der Nähe von Nordbahnhofstraße 43,48.794722397495,9.1894939042874
2025-10-14T12:17:39,2025-10-14,2,12,Wilder Müll,In der Nähe von Weißenburgstraße 21,48.7684887509,9.1772268564225
2025-10-14T12:17:39,2025-10-14,2,12,Wilder Müll,In der Nähe von Wannenstraße 2,48.767034654128,9.1614743278806
2025-10-14T13:20:34,2025-10-14,2,13,Sonstiges,Böblinger Straße,48.742186989066,9.1321558091331
2025-10-14T13:20:34,2025-10-14,2,13,Sonstiges,In der Nähe von Pfullinger Straße 39,48.740191537188,9.1701231460428
2025-10-14T13:20:34,2025-10-14,2,13,Sonstiges,Vaihinger Straße,48.727366826288,9.1353396682734
2025-10-14T13:20:34,2025-10-14,2,13,Sonstiges,Mönchsbergstraße,48.828429052815,9.1859022601727
2025-10-14T14:16:09,2025-10-14,2,14,Bäder,In der Nähe von Landhausstraße 192,48.784543,9.2105719
2025-10-14T14:16:09,2025-10-14,2,14,Gehweg - Schäden,In der Nähe von Kauffmannstraße 82B,48.77727961902,9.1175994372587
2025-10-14T14:16:09,2025-10-14,2,14,Bäder,Landhausstraße,48.78460327536,9.2106663648618
2025-10-14T15:16:36,2025-10-14,2,15,Straße - Verschmutzung,In der Nähe von Hermann-Pleuer-Straße 7,48.798680229279,9.1676816613177
2025-10-14T15:16:36,2025-10-14,2,15,Wilder Müll,Wallmerstraße,48.782490815491,9.2544634327215
2025-10-14T16:16:33,2025-10-14,2,16,Gefahrenstelle,In der Nähe von Safranweg 27,48.743851479485,9.2319255376477
2025-10-14T17:15:35,2025-10-14,2,17,Sonstiges,In der Nähe von Augustenstraße 86,48.769397603138,9.1593566731221
2025-10-14T17:15:35,2025-10-14,2,17,Wilder Müll,Beuthener Straße,48.8057287,9.233465
2025-10-14T18:16:55,2025-10-14,2,18,Gehweg - Verschmutzung,Ludwigstraße,48.772294138719,9.1557392925336
2025-10-14T18:16:55,2025-10-14,2,18,Straßenbeleuchtung,In der Nähe von Überkinger Straße 48,48.808938814075,9.2169632144546
2025-10-14T18:16:55,2025-10-14,2,18,Straße - Schäden,In der Nähe von Scharnhauser Straße 90,48.70597139062,9.2280282184346
2025-10-14T19:15:06,2025-10-14,2,19,Radweg - Scherben,In der Nähe von Fasanenhofstraße 145/1,48.709806999995,9.152869367745
2025-10-14T19:15:06,2025-10-14,2,19,Radweg - Scherben,In der Nähe von Fasanenhofstraße 6,48.713891387559,9.16251271548
2025-10-14T19:15:06,2025-10-14,2,19,Gehweg - Verschmutzung,In der Nähe von Fasanenhofstraße 161,48.709750175837,9.1530794643482
2025-10-14T22:15:41,2025-10-14,2,22,Gefahrenstelle,In der Nähe von Staufeneckstraße 12,48.807853239626,9.155656716799
