first_seen_at_timestamp,first_seen_date,first_seen_weekday,first_seen_hour,category,location,lat,lon
2025-10-28T00:34:52,2025-10-28,2,0,Sonstiges,Morlockstraße,48.7975822,9.2262345
2025-10-28T00:34:52,2025-10-28,2,0,Gefahrenstelle,Margaretenstraße,48.790060525628,9.2525956322514
2025-10-28T00:34:52,2025-10-28,2,0,Verkehrszeichen,In der Nähe von Taubenheimstraße 18,48.806341739458,9.2252941457512
2025-10-28T00:34:52,2025-10-28,2,0,Sonstiges,Am Weißenhof,48.800609639775,9.1770432667411
2025-10-28T00:34:52,2025-10-28,2,0,Straßenbeleuchtung,Im Kappelfeld,48.810424022587,9.1519483133925
2025-10-28T00:34:52,2025-10-28,2,0,Sonstiges,Tiefenbachstraße,48.756127852385,9.2219215966854
2025-10-28T00:34:52,2025-10-28,2,0,Kanaldeckel,In der Nähe von Porscheplatz 9,48.834960091405,9.1516441023006
2025-10-28T00:34:52,2025-10-28,2,0,Sonstiges,Krailenshaldenstraße,48.817763492756,9.1779346289894
2025-10-28T00:34:52,2025-10-28,2,0,Radweg - Scherben,In der Nähe von Fasanenhofstraße 6,48.713887720084,9.1625033837617
2025-10-28T00:34:52,2025-10-28,2,0,Gehweg - Verschmutzung,In der Nähe von Fasanenhofstraße 145/1,48.709681123519,9.1527767312691
2025-10-28T00:34:52,2025-10-28,2,0,Begrünung,Degenfelder Straße,48.772344543537,9.2456200729836
2025-10-28T00:34:52,2025-10-28,2,0,Verkehrszeichen,Haldenrainstraße,48.831698886998,9.1887758370814
2025-10-28T00:34:52,2025-10-28,2,0,Wilder Müll,In der Nähe von Theoderichweg 6,48.809443644647,9.1753060756749
2025-10-28T00:34:52,2025-10-28,2,0,Kanaldeckel,Trochtelfinger Straße,48.73188835831,9.1591774268174
2025-10-28T00:34:52,2025-10-28,2,0,Begrünung,Degenfelder Straße,48.772344543537,9.2456200729836
2025-10-28T00:34:52,2025-10-28,2,0,Gefahrenstelle,In der Nähe von In den Ringelgärten 20,48.813680856967,9.2387004898376
2025-10-28T00:34:52,2025-10-28,2,0,Sonstiges,In der Nähe von,48.846697632625,9.215666453401
2025-10-28T00:34:52,2025-10-28,2,0,Sonstiges,Altenbergstraße,48.760764691071,9.1782230570695
2025-10-28T00:34:52,2025-10-28,2,0,Straßenbeleuchtung,Botnanger Straße,48.774648717945,9.1395713812193
2025-10-28T00:34:52,2025-10-28,2,0,Sonstiges,Schimmelweg,48.790022831717,9.2614314581738
2025-10-28T00:34:52,2025-10-28,2,0,Verkehrszeichen,In der Nähe von Schachtelhalmweg 50,48.705621567391,9.2232747989253
2025-10-28T00:34:52,2025-10-28,2,0,Sonstiges,Glemsgaustraße,48.814284205009,9.111817800031
2025-10-28T00:34:52,2025-10-28,2,0,SSB Haltestelle,Teinacher Straße,48.80902402574,9.2219778685381
2025-10-28T00:34:52,2025-10-28,2,0,Wilder Müll,In der Nähe von Korntaler Straße 77/1,48.843325979956,9.1532767397467
2025-10-28T00:34:52,2025-10-28,2,0,Wilder Müll,In der Nähe von Am Alten Friedhof 1,48.7820963,9.2540634
2025-10-28T00:34:52,2025-10-28,2,0,Sonstiges,Kurt-Schumacher-Straße,48.721921730482,9.164870064949
2025-10-28T00:34:52,2025-10-28,2,0,Wilder Müll,Hohewartstraße,48.807668228505,9.1542416960312
2025-10-28T00:34:52,2025-10-28,2,0,Straße - Schäden,In der Nähe von Rotenbergstraße 97,48.787560245391,9.2092084062755
2025-10-28T00:34:52,2025-10-28,2,0,Sonstiges,Fliegenweg,48.84810624537,9.1543133614037
2025-10-28T00:34:52,2025-10-28,2,0,Gefahrenstelle,Fliegenweg,48.848122600951,9.1543522756727
2025-10-28T00:34:52,2025-10-28,2,0,Sonstiges,Fliegenweg,48.848122600951,9.1543522756727
2025-10-28T00:34:52,2025-10-28,2,0,Straße - Schäden,In der Nähe von Rippoldsauer Straße 28/1,48.8046592,9.2307456
2025-10-28T00:34:52,2025-10-28,2,0,Sonstiges,Auwiesenstraße,48.723590954936,9.1114002354175
2025-10-28T00:34:52,2025-10-28,2,0,Straßenbeleuchtung,Feuerbacher Weg,48.79163468216,9.1690603864482
2025-10-28T00:34:52,2025-10-28,2,0,Radweg - Verschmutzung,In der Nähe von Hedelfinger Straße 93,48.764873803686,9.2503916381091
2025-10-28T00:34:52,2025-10-28,2,0,Wilder Müll,Rohrer Höhe,48.717666840014,9.0920127292801
2025-10-28T00:34:52,2025-10-28,2,0,Sonstiges,Filderhauptstraße,48.700776441266,9.2116753904245
2025-10-28T00:34:52,2025-10-28,2,0,Ampel,Balinger Straße,48.729760995016,9.1418053931837
2025-10-28T00:34:52,2025-10-28,2,0,Wilder Müll,In der Nähe von Gebelsbergstraße / Benckendorffstraße,48.76067727073,9.1498722326295
2025-10-28T00:34:52,2025-10-28,2,0,Sonstiges,Fliegenweg,48.848122600951,9.1543522756727
2025-10-28T07:15:51,2025-10-28,2,7,SSB Haltestelle,Glemsgaustraße,48.814724963986,9.1118596447155
2025-10-28T07:15:51,2025-10-28,2,7,Ampel,In der Nähe von Filderhauptstraße 35,48.701022011755,9.2112423876838
2025-10-28T07:15:51,2025-10-28,2,7,Gehweg - Verschmutzung,Pfarrhausstraße,48.735311005826,9.1092761495965
2025-10-28T08:16:51,2025-10-28,2,8,Wilder Müll,Bodoweg,48.789422485809,9.2603800110563
2025-10-28T08:16:51,2025-10-28,2,8,Radweg - Verschmutzung,In der Nähe von Böblinger Straße 290,48.753097704011,9.1383217095959
2025-10-28T08:16:51,2025-10-28,2,8,Kanaldeckel,Pliensäckerstraße,48.834795110866,9.1821647796869
2025-10-28T08:16:51,2025-10-28,2,8,Wilder Müll,Frauenstraße,48.762125643227,9.1579666571715
2025-10-28T09:16:16,2025-10-28,2,9,Begrünung,In der Nähe von Höhbergstraße 57,48.7687465,9.2446966
2025-10-28T09:16:16,2025-10-28,2,9,Sonstiges,In der Nähe von Doggerstraße 9,48.724483407117,9.1142972470833
2025-10-28T10:16:19,2025-10-28,2,10,Sonstiges,In der Nähe von Hauptstätter Straße 75,48.769793998585,9.1750725385118
2025-10-28T10:16:19,2025-10-28,2,10,Straßenbeleuchtung,Hartwaldstraße,48.836589516519,9.2262587768592
2025-10-28T10:16:19,2025-10-28,2,10,Sonstiges,Heilbronner Straße,48.789862891626,9.1806960971134
2025-10-28T10:16:19,2025-10-28,2,10,Gehweg - Verschmutzung,Schwarzwaldstraße,48.741256949936,9.1272295822372
2025-10-28T11:15:27,2025-10-28,2,11,Wilder Müll,Reinsburgstraße,48.769896889401,9.1652992603903
2025-10-28T11:15:27,2025-10-28,2,11,Wilder Müll,Gablenberger Hauptstraße,48.780874900584,9.207941906724
2025-10-28T11:15:27,2025-10-28,2,11,Wilder Müll,In der Nähe von Nordbahnhofstraße 61,48.795884400056,9.1898476798466
2025-10-28T12:17:37,2025-10-28,2,12,Sonstiges,In der Nähe von Friedemannweg 12,48.7300941,9.1253049
2025-10-28T12:17:37,2025-10-28,2,12,Sonstiges,Staufeneckstraße,48.808954366437,9.154449939617
2025-10-28T12:17:37,2025-10-28,2,12,Straßenbeleuchtung,In der Nähe von Rudolf-Steiner-Weg 12,48.790208822815,9.1538785933819
2025-10-28T13:20:20,2025-10-28,2,13,Gehweg - Schäden,Arnulf-Klett-Platz,48.782954024319,9.1806294143491
2025-10-28T13:20:20,2025-10-28,2,13,Begrünung,Mönchhaldenstraße,48.790987964209,9.1731254548784
2025-10-28T15:17:07,2025-10-28,2,15,Kanaldeckel,In der Nähe von Rosenbergstraße 35,48.779982333185,9.1608162239395
2025-10-28T15:17:07,2025-10-28,2,15,Sonstiges,Eberhardstraße,48.772891675741,9.1779665520424
2025-10-28T15:17:07,2025-10-28,2,15,Sonstiges,Marktplatz (M),48.774798521316,9.178163841504
2025-10-28T15:17:07,2025-10-28,2,15,Verkehrszeichen,Fuchswaldstraße,48.744699524671,9.132781035567
2025-10-28T15:17:07,2025-10-28,2,15,Sonstiges,Fuchswaldstraße,48.744321230816,9.1328241927007
2025-10-28T16:16:44,2025-10-28,2,16,Straße - Schäden,Hofmeisterstraße,48.727269615943,9.1258617034848
2025-10-28T16:16:44,2025-10-28,2,16,Wilder Müll,In der Nähe von Neue Straße 176,48.770051430725,9.2135686251071
2025-10-28T16:16:44,2025-10-28,2,16,Gehweg - Verschmutzung,In der Nähe von Mühlhäuser Straße 319/1,48.836823722296,9.219221424281
2025-10-28T16:16:44,2025-10-28,2,16,Sonstiges,In der Nähe von Charlottenstraße 42,48.773276186204,9.1868430443391
2025-10-28T17:15:54,2025-10-28,2,17,Sonstiges,In der Nähe von Mozartstraße 3,48.769014101143,9.1798024086982
2025-10-28T17:15:54,2025-10-28,2,17,Wilder Müll,In der Nähe von Brachvogelweg/Kreisstraße Seeblickweg,48.83426647902,9.245534953444
2025-10-28T19:15:17,2025-10-28,2,19,Gefahrenstelle,In der Nähe von Zahn-Nopper-Straße 2/1,48.832436979495,9.1646412979682
2025-10-28T19:15:17,2025-10-28,2,19,Begrünung,In der Nähe von Zahn-Nopper-Straße 2/1,48.832195554876,9.1650994233371
2025-10-28T20:16:19,2025-10-28,2,20,Verkehrszeichen,In der Nähe von Rennstraße 9,48.813635295909,9.1101232444688
