first_seen_at_timestamp,first_seen_date,first_seen_weekday,first_seen_hour,category,location,lat,lon
2025-08-12T00:37:36,2025-08-12,2,0,Wilder Müll,In der Nähe von Libanonstraße 40,48.779157065149,9.1993506075396
2025-08-12T00:37:36,2025-08-12,2,0,Wilder Müll,In der Nähe von Böblinger Straße 253,48.754190473552,9.1401321066791
2025-08-12T00:37:36,2025-08-12,2,0,Straße - Schäden,In der Nähe von Im Elsental 2/1,48.745406716817,9.133203462985
2025-08-12T00:37:36,2025-08-12,2,0,Gehweg - Schäden,In der Nähe von Rotenwaldstraße 70A,48.772546190584,9.1475262200301
2025-08-12T00:37:36,2025-08-12,2,0,Wilder Müll,In der Nähe von Altglas-Container (Lindenfelsstraße / Schlotterbeckstraße),48.785183607107,9.2500224495529
2025-08-12T00:37:36,2025-08-12,2,0,Sonstiges,Gärtnerstraße,48.757183937523,9.2549886736003
2025-08-12T00:37:36,2025-08-12,2,0,Sonstiges,In der Nähe von Hermann-Löns-Weg 21,48.742349210215,9.2057367884597
2025-08-12T00:37:36,2025-08-12,2,0,Sonstiges,In der Nähe von Degerlocher Straße 55/1,48.743857436878,9.1594588623798
2025-08-12T00:37:36,2025-08-12,2,0,Wilder Müll,In der Nähe von Max-Horkheimer-Brunnen (Stadtpark (Zuffenhausen)),48.827990738103,9.1639592216559
2025-08-12T00:37:36,2025-08-12,2,0,Wilder Müll,In der Nähe von Hirschsprungallee 12,48.827255134876,9.1521218185979
2025-08-12T00:37:36,2025-08-12,2,0,Brunnen / Gewässer,In der Nähe von Hohewartstraße 195/1,48.803048929618,9.1385922802068
2025-08-12T00:37:36,2025-08-12,2,0,Gefahrenstelle,Neuwirtshausstraße,48.839404638215,9.1410652662745
2025-08-12T00:37:36,2025-08-12,2,0,Gehweg - Verschmutzung,In der Nähe von Seyfferstraße 76,48.7740318,9.1525285
2025-08-12T00:37:36,2025-08-12,2,0,Straße - Schäden,Geiwitzstraße,48.731534045963,9.1245050988892
2025-08-12T00:37:36,2025-08-12,2,0,Wilder Müll,Im Kaisemer,48.787958889536,9.1786324681765
2025-08-12T00:37:36,2025-08-12,2,0,Straßenbeleuchtung,In der Nähe von Filderbahnstraße 64,48.729881641867,9.1460682406632
2025-08-12T00:37:36,2025-08-12,2,0,Sonstiges,Hagebuttenweg,48.705235288736,9.2182182127254
2025-08-12T00:37:36,2025-08-12,2,0,Sonstiges,Sonnenbühl,48.745559302031,9.1479438851587
2025-08-12T00:37:36,2025-08-12,2,0,Gehweg - Verschmutzung,In der Nähe von Osterbronnstraße 54,48.718712938021,9.1136555310325
2025-08-12T00:37:36,2025-08-12,2,0,Treppe,In der Nähe von Kernerstraße 59,48.780050221607,9.1909464441712
2025-08-12T00:37:36,2025-08-12,2,0,Sonstiges,In der Nähe von Konrad-Adenauer-Straße 5/1,48.779158969707,9.1848826555365
2025-08-12T00:37:36,2025-08-12,2,0,Gefahrenstelle,Schneckenbergstraße,48.805630299427,9.1529003678965
2025-08-12T00:37:36,2025-08-12,2,0,Brunnen / Gewässer,In der Nähe von Heimsche Gasse 4,48.804715,9.2147678
2025-08-12T00:37:36,2025-08-12,2,0,Brunnen / Gewässer,In der Nähe von Leuzebrunnen (DAS LEUZE / Rosensteig),48.798112339963,9.2093933988666
2025-08-12T00:37:36,2025-08-12,2,0,Wilder Müll,Wilhelmstraße (Ca),48.8068085,9.2157087
2025-08-12T00:37:36,2025-08-12,2,0,Gefahrenstelle,Wenzelstraße,48.845688738397,9.2424458198018
2025-08-12T00:37:36,2025-08-12,2,0,Wilder Müll,Leypoldtstraße,48.703042724708,9.2169039659057
2025-08-12T00:37:36,2025-08-12,2,0,Sonstiges,Leypoldtstraße,48.702844303541,9.2171749388995
2025-08-12T00:37:36,2025-08-12,2,0,Verkehrszeichen,Rosenbergstraße,48.775758801582,9.1479917700299
2025-08-12T00:37:36,2025-08-12,2,0,Sonstiges,Leypoldtstraße,48.70289807465,9.2172839006029
2025-08-12T00:37:36,2025-08-12,2,0,Gehweg - Verschmutzung,In der Nähe von Gerätespielfläche (Straßburger Straße/ Burgunder Straße),48.830046228238,9.168755688238
2025-08-12T00:37:36,2025-08-12,2,0,Straße - Verschmutzung,Mozartstraße,48.770339564346,9.1790127733821
2025-08-12T00:37:36,2025-08-12,2,0,Sonstiges,Widmaierstraße,48.774728868523,9.1837473915405
2025-08-12T00:37:36,2025-08-12,2,0,Ampel,Ruppmannstraße,48.728573220725,9.1181411766664
2025-08-12T00:37:36,2025-08-12,2,0,Gehweg - Verschmutzung,In der Nähe von Stotzstraße 5,48.787198054883,9.1942319058773
2025-08-12T00:37:36,2025-08-12,2,0,Wilder Müll,In der Nähe von Hirschstraße 8,48.77531806391,9.177241095226
2025-08-12T00:37:36,2025-08-12,2,0,Sonstiges,Katzenbachstraße,48.732763887568,9.1105761656531
2025-08-12T00:37:36,2025-08-12,2,0,Wilder Müll,In der Nähe von Weberstraße 39,48.773169310094,9.1831313474385
2025-08-12T00:37:36,2025-08-12,2,0,Gefahrenstelle,Schützenbühlstraße,48.833958606181,9.1641199870959
2025-08-12T00:37:36,2025-08-12,2,0,Gehweg - Verschmutzung,In der Nähe von Heidestraße 10,48.810853412823,9.1743978533139
2025-08-12T04:17:52,2025-08-12,2,4,Wilder Müll,In der Nähe von Bahnhof (Zuffenhausen) 14,48.831315153962,9.1650330294059
2025-08-12T04:17:52,2025-08-12,2,4,Wilder Müll,In der Nähe von Schützenbühlstraße 3,48.834011675835,9.1643948201175
2025-08-12T04:17:52,2025-08-12,2,4,Wilder Müll,In der Nähe von Gottfried-Keller-Straße 18/1,48.83446056438,9.1614678730075
2025-08-12T05:16:10,2025-08-12,2,5,Wilder Müll,In der Nähe von Schützenbühlstraße 51,48.834414476206,9.1592796259192
2025-08-12T06:17:08,2025-08-12,2,6,Sonstiges,Dieterlestraße,48.807517174596,9.1594711359041
2025-08-12T06:17:08,2025-08-12,2,6,Straße - Verschmutzung,In der Nähe von Pfeilstraße 39/1,48.745388418298,9.1167632451554
