first_seen_at_timestamp,first_seen_date,first_seen_weekday,first_seen_hour,category,location,lat,lon
2025-02-04T00:31:12,2025-02-04,2,0,Sonstiges,In der Nähe von Solitudestraße 271,48.816997612155,9.1147641980061
2025-02-04T00:31:12,2025-02-04,2,0,Straßenbeleuchtung,Rührbrunnenweg 19,48.774790112846,9.2816050743501
2025-02-04T00:31:12,2025-02-04,2,0,Wilder Müll,Beim Fasanengarten 38A,48.8169582342,9.0885299684256
2025-02-04T00:31:12,2025-02-04,2,0,Sonstiges,Löwen-Markt 5,48.814435789162,9.1131938995696
2025-02-04T00:31:12,2025-02-04,2,0,Sonstiges,Widdumhofstraße 19,48.813926031057,9.1100871019511
2025-02-04T00:31:12,2025-02-04,2,0,Wilder Müll,Kemptener Straße 10A,48.768266790343,9.2468249883733
2025-02-04T00:31:12,2025-02-04,2,0,Straße - Verschmutzung,In der Nähe von Altglas-Container (Korntaler Straße / Mercatorweg),48.841812369649,9.1446252966513
2025-02-04T00:31:12,2025-02-04,2,0,Straßenbeleuchtung,In der Nähe von Altglas-Container (Fliegenweg Parkplatz Sporthalle),48.849685731437,9.1501519999694
2025-02-04T00:31:12,2025-02-04,2,0,Wilder Müll,In der Nähe von Elbestraße 157/1,48.825062054445,9.2118499256246
2025-02-04T00:31:12,2025-02-04,2,0,Sonstiges,In der Nähe von Auf der Kanzel 43,48.799116740877,9.1788855341834
2025-02-04T00:31:12,2025-02-04,2,0,Gehweg - Verschmutzung,Unterländer Straße 29,48.831850300655,9.172520425955
2025-02-04T00:31:12,2025-02-04,2,0,Sonstiges,Planckstraße 28,48.775687387697,9.2010877933387
2025-02-04T00:31:12,2025-02-04,2,0,Sonstiges,Planckstraße 40,48.774708656798,9.2000358631194
2025-02-04T00:31:12,2025-02-04,2,0,Wilder Müll,Talstraße 61,48.784993509356,9.2137037973505
2025-02-04T00:31:12,2025-02-04,2,0,Sonstiges,In der Nähe von Nagoldstraße 38,48.820402611847,9.2196969936144
2025-02-04T00:31:12,2025-02-04,2,0,Sonstiges,In der Nähe von Nagoldstraße 42,48.820496712056,9.2193165906532
2025-02-04T00:31:12,2025-02-04,2,0,Verkehrszeichen,Wörishofener Straße 54,48.800874693599,9.2306436462119
2025-02-04T00:31:12,2025-02-04,2,0,Gehweg - Verschmutzung,Nürnberger Straße 1,48.805973594114,9.2315386524468
2025-02-04T00:31:12,2025-02-04,2,0,Sonstiges,In der Nähe von Burgfelder Straße 9,48.728079897383,9.1413608907158
2025-02-04T00:31:12,2025-02-04,2,0,Wilder Müll,In der Nähe von Johanneskirche am Feuersee (Gutenbergstraße 11),48.7735876,9.1645361
2025-02-04T00:31:12,2025-02-04,2,0,Sonstiges,Jägerstraße 14,48.786240125587,9.1789803261231
2025-02-04T00:31:12,2025-02-04,2,0,Straße - Verschmutzung,In der Nähe von Bottwarstraße 26,48.830730634824,9.1776909577932
2025-02-04T00:31:12,2025-02-04,2,0,Straße - Schäden,In der Nähe von Gaisburger Brücke,48.790163078068,9.223113950831
2025-02-04T00:31:12,2025-02-04,2,0,Wilder Müll,Rütlistraße 14,48.833662788606,9.1633831830573
2025-02-04T00:31:12,2025-02-04,2,0,Wilder Müll,Marconistraße 82,48.829467574819,9.1525372804337
2025-02-04T00:31:12,2025-02-04,2,0,Wilder Müll,In der Nähe von Heimgartenstraße 20,48.757487957767,9.2570906937753
2025-02-04T00:31:12,2025-02-04,2,0,Wilder Müll,Ehrenhalde 2,48.790227872711,9.1652298843871
2025-02-04T00:31:12,2025-02-04,2,0,Wilder Müll,Forststraße 189,48.775345999343,9.1472011282922
2025-02-04T00:31:12,2025-02-04,2,0,Gefahrenstelle,Lautenschlagerstraße 14,48.782138134789,9.1788704517162
2025-02-04T00:31:12,2025-02-04,2,0,Wilder Müll,Hohewartstraße 18,48.808027223917,9.1548693022218
2025-02-04T00:31:12,2025-02-04,2,0,Wilder Müll,Heubergstraße 2C,48.783720093566,9.2014874363093
2025-02-04T00:31:12,2025-02-04,2,0,Wilder Müll,Tannenäckerstraße 28,48.814137882988,9.1461159850339
2025-02-04T00:31:12,2025-02-04,2,0,Wilder Müll,Fahrionstraße 41,48.807199760451,9.1613087556811
2025-02-04T00:31:12,2025-02-04,2,0,Wilder Müll,In der Nähe von Altglas-Container (Lindenfelsstraße / Schlotterbeckstraße),48.785234290144,9.2500381169568
2025-02-04T00:31:12,2025-02-04,2,0,Wilder Müll,In der Nähe von Katharinenstraße 21A,48.772292572126,9.1810611172425
2025-02-04T00:31:12,2025-02-04,2,0,Sonstiges,Solitudestraße 237,48.815012009865,9.1127048204418
2025-02-04T00:31:12,2025-02-04,2,0,Gehweg - Verschmutzung,Augsburger Straße 634,48.765100131837,9.2670310721608
2025-02-04T00:31:12,2025-02-04,2,0,Straßenbeleuchtung,Solitudestraße 25,48.800686059695,9.0978702951198
2025-02-04T00:31:12,2025-02-04,2,0,Schlagloch,In der Nähe von Grubenäcker 149A,48.801193002863,9.1025377779897
2025-02-04T00:31:12,2025-02-04,2,0,Straßenbeleuchtung,In der Nähe von Grubenäcker 155,48.801162507414,9.1016916620615
2025-02-04T05:15:21,2025-02-04,2,5,Wilder Müll,In der Nähe von Boschwerk 6C,48.822539037032,9.1593887086028
2025-02-04T06:16:36,2025-02-04,2,6,Wilder Müll,In der Nähe von Gottfried-Keller-Straße 22,48.8352877434,9.1595370338937
2025-02-04T07:15:22,2025-02-04,2,7,Sonstiges,Löwen-Markt 1,48.814258913658,9.1133675498548
2025-02-04T08:16:20,2025-02-04,2,8,Wilder Müll,Weilimdorfer Straße 189,48.813739873789,9.1330656962885
2025-02-04T08:16:20,2025-02-04,2,8,Wilder Müll,In der Nähe von Melchiorstraße 20,48.846067590567,9.1602188299039
2025-02-04T08:16:20,2025-02-04,2,8,Ampel,Möhringer Straße 133,48.759101696294,9.1522424679206
2025-02-04T08:16:20,2025-02-04,2,8,Verkehrszeichen,In der Nähe von Schwabstraße 32,48.771495297791,9.1576160951668
2025-02-04T09:15:40,2025-02-04,2,9,Gehweg - Verschmutzung,Deckerstraße 43,48.800345815431,9.2251397088311
2025-02-04T09:15:40,2025-02-04,2,9,Gehweg - Verschmutzung,Abelsbergstraße 26E,48.789199580633,9.2110123551999
2025-02-04T10:15:44,2025-02-04,2,10,Wilder Müll,Zahn-Nopper-Straße 5A,48.832422172065,9.1628068449313
2025-02-04T10:15:44,2025-02-04,2,10,Verkehrszeichen,Abstatter Straße 41,48.832552833926,9.1998436233552
2025-02-04T11:14:52,2025-02-04,2,11,Wilder Müll,In der Nähe von Salamanderbrunnen (Gänsheidestraße / Gerokstraße),48.773369498484,9.1945611112434
2025-02-04T11:14:52,2025-02-04,2,11,Verkehrszeichen,Königsträßle 42,48.750580393877,9.1844585475061
2025-02-04T11:14:52,2025-02-04,2,11,Wilder Müll,Zuffenhäuser Pfad 4,48.845892239539,9.1604925252461
2025-02-04T11:14:52,2025-02-04,2,11,Wilder Müll,Bernsteinstraße 76,48.736229261991,9.2307693810465
2025-02-04T12:17:12,2025-02-04,2,12,Brunnen / Gewässer,In der Nähe von Heinlesberg 20,48.740285550738,9.204445272752
2025-02-04T12:17:12,2025-02-04,2,12,Gehweg - Verschmutzung,Katharinenstraße 22,48.77267720763,9.1827973850774
2025-02-04T12:17:12,2025-02-04,2,12,Gehweg - Verschmutzung,Deckerstraße 43,48.800176670036,9.2251729288813
2025-02-04T12:17:12,2025-02-04,2,12,Sonstiges,In der Nähe von Heilbronner Straße 291,48.813112681119,9.1793652263768
2025-02-04T13:16:57,2025-02-04,2,13,Wilder Müll,In der Nähe von Marktplatz (Ca) 18,48.805600584385,9.214572043187
2025-02-04T13:16:57,2025-02-04,2,13,Sonstiges,Arminstraße 25,48.764517038163,9.1654721147229
2025-02-04T13:16:57,2025-02-04,2,13,Wilder Müll,Viehwasen 51,48.777607373891,9.2412764707538
2025-02-04T14:15:38,2025-02-04,2,14,Wilder Müll,Burgstallstraße 23,48.758633780368,9.1523362981253
2025-02-04T14:15:38,2025-02-04,2,14,Wilder Müll,Burtenbachstraße 68,48.843904795827,9.1534125141766
2025-02-04T15:15:48,2025-02-04,2,15,Wilder Müll,In der Nähe von Ohmstraße 12,48.8281675,9.1651699
2025-02-04T15:15:48,2025-02-04,2,15,Sonstiges,Schozacher Straße 51,48.829451508626,9.1877999850976
2025-02-04T16:16:06,2025-02-04,2,16,Gefahrenstelle,In der Nähe von Charlottenstraße 1,48.775676310744,9.1832109497376
2025-02-04T16:16:06,2025-02-04,2,16,Ampel,In der Nähe von Jahnstraße 70,48.7531716,9.1813407
2025-02-04T16:16:06,2025-02-04,2,16,Straßenbeleuchtung,In der Nähe von Mühlhäuser Straße 203,48.82949719887,9.2130377148935
2025-02-04T16:16:06,2025-02-04,2,16,Wilder Müll,In der Nähe von Ludwigsburger Straße 270,48.8414467,9.1767667
2025-02-04T16:16:06,2025-02-04,2,16,Begrünung,Liebigstraße 51,48.758109737597,9.1606344818464
2025-02-04T17:16:02,2025-02-04,2,17,Wilder Müll,In der Nähe von Geräte-und Ballspielfläche (Herder-/ Vogelsangstraße),48.772797839857,9.1424448035386
2025-02-04T18:16:32,2025-02-04,2,18,Sonstiges,Charlottenstraße 1,48.77556362632,9.1836109072445
2025-02-04T20:15:42,2025-02-04,2,20,Wilder Müll,In der Nähe von Kanalstraße 10,48.775025829949,9.1833618239946
