first_seen_at_timestamp,first_seen_date,first_seen_weekday,first_seen_hour,category,location,lat,lon
2025-11-07T00:37:06,2025-11-07,5,0,Sonstiges,In der Nähe von Fasanenhofstraße 181/1,48.709933354678,9.1534834140947
2025-11-07T00:37:06,2025-11-07,5,0,Ampel,Fritz-Elsas-Straße,48.776300366211,9.17021376104
2025-11-07T00:37:06,2025-11-07,5,0,Bäder,In der Nähe von Am Steinenberg 5,48.754391183966,9.252818797307
2025-11-07T00:37:06,2025-11-07,5,0,Bäder,In der Nähe von Am Steinenberg 5A,48.754015304343,9.2524036715853
2025-11-07T00:37:06,2025-11-07,5,0,Sonstiges,Am Steinenberg,48.754463535736,9.252539574711
2025-11-07T00:37:06,2025-11-07,5,0,Verkehrszeichen,In der Nähe von Falkertstraße 4,48.778855464225,9.1651862637943
2025-11-07T00:37:06,2025-11-07,5,0,Gehweg - Verschmutzung,In der Nähe von Augsburger Straße 435/1,48.777076134406,9.2564671071361
2025-11-07T00:37:06,2025-11-07,5,0,Sonstiges,Am Steinenberg,48.754463535736,9.252539574711
2025-11-07T00:37:06,2025-11-07,5,0,Radweg - Verschmutzung,In der Nähe von Felix-Mendelssohn-Bartholdy-Allee,48.792436835163,9.1955714617366
2025-11-07T00:37:06,2025-11-07,5,0,Gehweg - Verschmutzung,In der Nähe von Unterer Schloßgarten 2/1,48.789062091729,9.1904858346413
2025-11-07T00:37:06,2025-11-07,5,0,Radweg - Verschmutzung,In der Nähe von Am Neckartor 22,48.788508217873,9.190431237909
2025-11-07T00:37:06,2025-11-07,5,0,Gehweg - Verschmutzung,In der Nähe von Walter-Erich-Schäfer-Weg,48.779583032537,9.1837038621422
2025-11-07T00:37:06,2025-11-07,5,0,Gehweg - Verschmutzung,In der Nähe von Oberer Schloßgarten,48.781210099508,9.1843280109037
2025-11-07T00:37:06,2025-11-07,5,0,Sonstiges,Gewerbestraße,48.726290842291,9.1445420829714
2025-11-07T00:37:06,2025-11-07,5,0,Sonstiges,In der Nähe von Föhrichstraße 36,48.810609081252,9.1474039667808
2025-11-07T00:37:06,2025-11-07,5,0,Wilder Müll,Mittenfeldstraße,48.804977467255,9.0861664366653
2025-11-07T00:37:06,2025-11-07,5,0,Sonstiges,In der Nähe von Mühlsteg,48.809402958522,9.2162086251509
2025-11-07T00:37:06,2025-11-07,5,0,Sonstiges,In der Nähe von Sattelstraße 73,48.789327502463,9.2490466420818
2025-11-07T00:37:06,2025-11-07,5,0,Wilder Müll,In der Nähe von Kniebisstraße / Strombergstraße,48.7825934,9.2051267
2025-11-07T00:37:06,2025-11-07,5,0,Sonstiges,In der Nähe von Steinhaldenstraße 54,48.821887,9.2342182
2025-11-07T00:37:06,2025-11-07,5,0,Begrünung,Torgauer Straße,48.819540616269,9.1088869681657
2025-11-07T00:37:06,2025-11-07,5,0,Gehweg - Verschmutzung,Königstraße,48.782339970735,9.1821109982164
2025-11-07T00:37:06,2025-11-07,5,0,Sonstiges,Am Steinenberg,48.754463535736,9.252539574711
2025-11-07T00:37:06,2025-11-07,5,0,SSB Haltestelle,Zeppelinstraße,48.782335376291,9.1544499229962
2025-11-07T00:37:06,2025-11-07,5,0,Sonstiges,Salzwiesenstraße,48.835798059015,9.1610735019408
2025-11-07T00:37:06,2025-11-07,5,0,Sonstiges,Krailenshaldenstraße,48.817763492756,9.1779346289894
2025-11-07T00:37:06,2025-11-07,5,0,Bäder,Am Steinenberg,48.754463535736,9.252539574711
2025-11-07T00:37:06,2025-11-07,5,0,Sonstiges,Am Steinenberg,48.754463539024,9.2525395747275
2025-11-07T00:37:06,2025-11-07,5,0,Gefahrenstelle,In der Nähe von Kirchheimer Straße 148A,48.739817078848,9.2258558548051
2025-11-07T00:37:06,2025-11-07,5,0,Sonstiges,In der Nähe von Veielbrunnenweg 97/1,48.799152676508,9.2275376805947
2025-11-07T00:37:06,2025-11-07,5,0,Sonstiges,Leierwiesen,48.761361640149,9.1701425769378
2025-11-07T00:37:06,2025-11-07,5,0,Straßenbeleuchtung,Filderhauptstraße,48.711253814945,9.2033864932479
2025-11-07T00:37:06,2025-11-07,5,0,Sonstiges,Am Steinenberg,48.754463535736,9.252539574711
2025-11-07T00:37:06,2025-11-07,5,0,Sonstiges,Anwar-el-Sadat-Straße,48.819800369911,9.1923684575195
2025-11-07T00:37:06,2025-11-07,5,0,Straßeneinlauf - verstopft,In der Nähe von Klett-Passage 12,48.782714527536,9.1818783765033
2025-11-07T00:37:06,2025-11-07,5,0,Ampel,In der Nähe von Schloßstraße 51,48.778072559606,9.1680993669909
2025-11-07T00:37:06,2025-11-07,5,0,Bäder,In der Nähe von Am Schwanenplatz 9,48.796375610451,9.2063124934482
2025-11-07T00:37:06,2025-11-07,5,0,Sonstiges,In der Nähe von Marienplatz 20,48.764232606592,9.1685504353853
2025-11-07T00:37:06,2025-11-07,5,0,Gefahrenstelle,In der Nähe von Kauffmannstraße 37/1,48.7787037,9.1217003
2025-11-07T00:37:06,2025-11-07,5,0,Bäder,In der Nähe von Rosentalstraße 15,48.728392881087,9.1011100435939
2025-11-07T06:17:04,2025-11-07,5,6,Straßenbeleuchtung,Böckinger Straße,48.835388008705,9.193709079615
2025-11-07T07:15:54,2025-11-07,5,7,Wilder Müll,Kelterstraße,48.757492126808,9.1583875208256
2025-11-07T07:15:54,2025-11-07,5,7,Gefahrenstelle,Spitzkrautweg,48.714646508752,9.1975409572651
2025-11-07T08:16:55,2025-11-07,5,8,Wilder Müll,Probststraße,48.731491447502,9.1491496759895
2025-11-07T09:16:06,2025-11-07,5,9,Gefahrenstelle,In der Nähe von Rohrackerstraße 318,48.756799854236,9.2257826557176
2025-11-07T09:16:06,2025-11-07,5,9,Sonstiges,Bernsteinstraße,48.735880078025,9.2299381715225
2025-11-07T09:16:06,2025-11-07,5,9,Sonstiges,In der Nähe von Am Ochsenwald 41/1,48.719107205575,9.0919072390502
2025-11-07T09:16:06,2025-11-07,5,9,Sonstiges,In der Nähe von Fasanenhofstraße 137,48.70931918972,9.1531464665774
2025-11-07T09:16:06,2025-11-07,5,9,Gehweg - Verschmutzung,In der Nähe von Kirchplatz / Korntaler Straße,48.848651852732,9.1598916379154
2025-11-07T10:16:23,2025-11-07,5,10,Gefahrenstelle,In der Nähe von Rohrackerstraße 328,48.757007163317,9.2248259630019
2025-11-07T12:17:33,2025-11-07,5,12,Brunnen / Gewässer,In der Nähe von Wilhelma 49,48.8046592,9.1947008
2025-11-07T13:19:19,2025-11-07,5,13,Radweg - Verschmutzung,In der Nähe von Unterer Schloßgarten 4,48.78967649851,9.1913852943874
2025-11-07T13:19:19,2025-11-07,5,13,Radweg - Verschmutzung,In der Nähe von Ferdinand-Leitner-Steg,48.782041776825,9.1847418138097
2025-11-07T13:19:19,2025-11-07,5,13,Straße - Verschmutzung,Beskidenstraße,48.80637752771,9.2533449154966
2025-11-07T13:19:19,2025-11-07,5,13,Straßenbeleuchtung,Frankfurter Straße,48.811504433071,9.2038325247663
2025-11-07T14:16:19,2025-11-07,5,14,Gefahrenstelle,In der Nähe von Orionweg 6C,48.717715080048,9.117075395613
2025-11-07T14:16:19,2025-11-07,5,14,Wilder Müll,In der Nähe von Friedenstraße 13,48.78559829993,9.1931345977904
2025-11-07T14:16:19,2025-11-07,5,14,Radweg - Verschmutzung,In der Nähe von Mercedesstraße 163/1,48.780726906753,9.2486609872861
2025-11-07T15:16:06,2025-11-07,5,15,Radweg - Schäden,Nobelstraße,48.74045479662,9.1009408937253
2025-11-07T16:16:09,2025-11-07,5,16,Gefahrenstelle,Am Steinenberg,48.754463535736,9.252539574711
2025-11-07T16:16:09,2025-11-07,5,16,Sonstiges,Fritz-Elsas-Straße,48.77604230901,9.1706685682167
2025-11-07T17:15:33,2025-11-07,5,17,Sonstiges,Fliegenweg,48.848122597636,9.1543522756626
2025-11-07T17:15:33,2025-11-07,5,17,Sonstiges,In der Nähe von Am Steinenberg 5,48.754324286137,9.2527195389041
2025-11-07T18:16:55,2025-11-07,5,18,Wilder Müll,In der Nähe von Niebuhrweg 10/13,48.84092302383,9.1475390540017
