first_seen_at_timestamp,first_seen_date,first_seen_weekday,first_seen_hour,category,location,lat,lon
2025-01-07T00:32:09,2025-01-07,2,0,Straßenbeleuchtung,In der Nähe von Heidlochstraße 52,48.823164646655,9.1981871103226
2025-01-07T00:32:09,2025-01-07,2,0,Verkehrszeichen,Johannesstraße 74,48.780448142678,9.1596439984969
2025-01-07T00:32:09,2025-01-07,2,0,Sonstiges,Gänsheidestraße 29,48.774951319016,9.1949191919478
2025-01-07T00:32:09,2025-01-07,2,0,Wilder Müll,In der Nähe von Altkleider-Container (Haldenrainstraße / Kelterplatz Parkplatz),48.829995186868,9.1770453902204
2025-01-07T00:32:09,2025-01-07,2,0,Wilder Müll,In der Nähe von Hans-Vaut-Straße 27,48.826898540463,9.1754314752381
2025-01-07T00:32:09,2025-01-07,2,0,Wilder Müll,In der Nähe von Schrozberger Straße 15/1,48.826294995366,9.1745596691661
2025-01-07T00:32:09,2025-01-07,2,0,Wilder Müll,Künzelsauer Straße 12,48.826556514073,9.1774842082599
2025-01-07T00:32:09,2025-01-07,2,0,Gehweg - Verschmutzung,In der Nähe von Relenbergstraße 51,48.787506299547,9.1657625536015
2025-01-07T00:32:09,2025-01-07,2,0,Wilder Müll,In der Nähe von Schöpfbrunnen (Am Schnarrenberg),48.827188563435,9.2071221221844
2025-01-07T00:32:09,2025-01-07,2,0,Wilder Müll,In der Nähe von Elbestraße 157/1,48.825084730449,9.211897980851
2025-01-07T00:32:09,2025-01-07,2,0,Wilder Müll,In der Nähe von Altglas-Container (Freibergstraße / Moselstraße),48.823098271064,9.2184610293568
2025-01-07T00:32:09,2025-01-07,2,0,Gefahrenstelle,Kyffhäuserstraße 83,48.813639176489,9.134563761337
2025-01-07T00:32:09,2025-01-07,2,0,Sonstiges,Rappenberg 38,48.827594167136,9.1848227982364
2025-01-07T00:32:09,2025-01-07,2,0,Radweg - Verschmutzung,In der Nähe von Hohenloher Straße 111,48.8268118,9.1860162
2025-01-07T00:32:09,2025-01-07,2,0,Wilder Müll,Dr.-Gotthilf-Schenkel-Weg 1B,48.828360784884,9.18915842811
2025-01-07T00:32:09,2025-01-07,2,0,Radweg - Scherben,In der Nähe von Unterer Schloßgarten 4,48.790816488149,9.1915169214543
2025-01-07T00:32:09,2025-01-07,2,0,Wilder Müll,In der Nähe von Sportklinik Stuttgart GmbH (Taubenheimstraße 8),48.807257376074,9.2236438702783
2025-01-07T00:32:09,2025-01-07,2,0,Wilder Müll,Liebenzeller Straße 1,48.805471286944,9.2169095421736
2025-01-07T00:32:09,2025-01-07,2,0,Gefahrenstelle,In der Nähe von Viergiebelweg 26,48.798199184682,9.1728202220303
2025-01-07T00:32:09,2025-01-07,2,0,Wilder Müll,In der Nähe von Baumannweg 16,48.810171886764,9.239837941704
2025-01-07T00:32:09,2025-01-07,2,0,Wilder Müll,In der Nähe von Kappisweg 1,48.79616029813,9.1723136216658
2025-01-07T00:32:09,2025-01-07,2,0,Sonstiges,In der Nähe von Katzenbachstraße 207,48.73473598964,9.0880313927525
2025-01-07T00:32:09,2025-01-07,2,0,Wilder Müll,In der Nähe von Himmerreichstraße 54A,48.776747166188,9.1217600718201
2025-01-07T00:32:09,2025-01-07,2,0,Wilder Müll,In der Nähe von Altglas-Container (Rotenwaldstraße / Reinsburgstraße),48.770963693463,9.144465701558
2025-01-07T00:32:09,2025-01-07,2,0,Gehweg - Verschmutzung,In der Nähe von Kapellenweg 43,48.832749315062,9.2227467929438
2025-01-07T00:32:09,2025-01-07,2,0,Wilder Müll,In der Nähe von Rotenwaldstraße 140,48.767499634559,9.1452423142269
2025-01-07T00:32:09,2025-01-07,2,0,Wilder Müll,In der Nähe von Sophienbrunnen (Hasenbergsteige / Bürgerallee),48.765055484228,9.1350489360987
2025-01-07T00:32:09,2025-01-07,2,0,Wilder Müll,In der Nähe von Sporthalle Botnang (Kauffmannstraße 39),48.778000712048,9.1218277283002
2025-01-07T00:32:09,2025-01-07,2,0,Wilder Müll,In der Nähe von Hasenbergsteige 120,48.765066314731,9.1420831670576
2025-01-07T00:32:09,2025-01-07,2,0,Sonstiges,Hofgärten 8A,48.735490780268,9.1808537169704
2025-01-07T00:32:09,2025-01-07,2,0,Wilder Müll,In der Nähe von Altglas-Container (Lindenfelsstraße / Schlotterbeckstraße),48.785223026681,9.2500493080768
2025-01-07T00:32:09,2025-01-07,2,0,Ampel,Marconistraße 25,48.832240511135,9.1575874065459
2025-01-07T00:32:09,2025-01-07,2,0,Straße - Verschmutzung,Poststraße 62,48.79441448718,9.2125047524845
2025-01-07T00:32:09,2025-01-07,2,0,Wilder Müll,Weimarstraße 21,48.775746404832,9.1666197408787
2025-01-07T00:32:09,2025-01-07,2,0,Wilder Müll,In der Nähe von Wallensteinstraße 1A,48.841483769599,9.2077069863471
2025-01-07T00:32:09,2025-01-07,2,0,Begrünung,Rusenschloßstraße 51,48.803617802444,9.1491223437989
2025-01-07T00:32:09,2025-01-07,2,0,Straßenbeleuchtung,In der Nähe von Marbacher Straße 30,48.832193524583,9.1762212571617
2025-01-07T00:32:09,2025-01-07,2,0,Wilder Müll,Breitscheidstraße 20,48.778882452316,9.1662815876587
2025-01-07T00:32:09,2025-01-07,2,0,Sonstiges,Hagenwiesenstraße 11,48.703460856591,9.2097158876603
2025-01-07T00:32:09,2025-01-07,2,0,Wilder Müll,Gutenbergstraße 107,48.770326182912,9.1541272878646
2025-01-07T05:15:21,2025-01-07,2,5,Treppe,Am Mühlkanal 32,48.795414611036,9.21165115169
2025-01-07T06:16:37,2025-01-07,2,6,Sonstiges,Eberhardstraße 39,48.772891679034,9.1779665520541
2025-01-07T06:16:37,2025-01-07,2,6,Wilder Müll,In der Nähe von Brückenstraße 2,48.806484314297,9.2121114596277
2025-01-07T07:15:24,2025-01-07,2,7,Gehweg - Verschmutzung,In der Nähe von Altglas-Container (Schwarenbergstraße / Heubergstraße),48.783517150995,9.2015714452257
2025-01-07T07:15:24,2025-01-07,2,7,Straßenbeleuchtung,Glemsgaustraße 20A,48.815561740183,9.1116980458144
2025-01-07T07:15:24,2025-01-07,2,7,Wilder Müll,In der Nähe von Altglas-Container (Paul-Gerhardt-Platz),48.775727957164,9.1477244796938
2025-01-07T07:15:24,2025-01-07,2,7,Wilder Müll,Pariser Platz 5B,48.788454464512,9.1838485355312
2025-01-07T07:15:24,2025-01-07,2,7,Wilder Müll,In der Nähe von Schwilkenhofstraße 97,48.846622623169,9.173143792576
2025-01-07T07:15:24,2025-01-07,2,7,Wilder Müll,In der Nähe von Geräte- und Ballspielfläche (Krefelder Straße/ Mombachquelle),48.810769062964,9.2152144201073
2025-01-07T07:15:24,2025-01-07,2,7,Straßenbeleuchtung,Am Wolfersberg 11,48.819101216136,9.2014248652472
2025-01-07T08:16:19,2025-01-07,2,8,Wilder Müll,In der Nähe von Altglas-Container (Korntaler Straße / Mercatorweg),48.841896578923,9.1446464959559
2025-01-07T08:16:19,2025-01-07,2,8,Wilder Müll,Stammheimer Straße 107,48.838309210647,9.1601412290844
2025-01-07T08:16:19,2025-01-07,2,8,Wilder Müll,In der Nähe von Wallensteinstraße 1,48.841446215132,9.207867590907
2025-01-07T08:16:19,2025-01-07,2,8,Verkehrszeichen,Möhringer Landstraße 39A,48.729932093156,9.1176820086351
2025-01-07T09:15:55,2025-01-07,2,9,Straßeneinlauf - verstopft,In der Nähe von Walchenseestraße 57,48.833139966133,9.2243196375677
2025-01-07T09:15:55,2025-01-07,2,9,Gehweg - Verschmutzung,In der Nähe von Walchenseestraße 57,48.832709601319,9.2243486032295
2025-01-07T09:15:55,2025-01-07,2,9,Sonstiges,In der Nähe von Kapellenweg 34,48.832497599339,9.2220166625842
2025-01-07T09:15:55,2025-01-07,2,9,Wilder Müll,In der Nähe von Kapellenweg 71,48.832087616918,9.2214913238683
2025-01-07T09:15:55,2025-01-07,2,9,Gehweg - Verschmutzung,In der Nähe von Kapellenweg 91,48.8311523281,9.2205214334871
2025-01-07T09:15:55,2025-01-07,2,9,Ampel,In der Nähe von Pragstraße 4,48.805491097136,9.2100809028094
2025-01-07T09:15:55,2025-01-07,2,9,Gehweg - Schäden,Im Kaisemer 12,48.788128588578,9.1794226995503
2025-01-07T10:15:49,2025-01-07,2,10,Wilder Müll,Hofener Straße 26,48.809596753926,9.2188477715123
2025-01-07T11:14:49,2025-01-07,2,11,Straße - Verschmutzung,Lüglensheidestraße 41,48.8312106,9.2247093
2025-01-07T11:14:49,2025-01-07,2,11,Wilder Müll,Schlosserstraße 39,48.767879122245,9.1732401871869
2025-01-07T11:14:49,2025-01-07,2,11,Wilder Müll,Rechbergstraße 6,48.786262533722,9.2034307727786
2025-01-07T11:14:49,2025-01-07,2,11,Wilder Müll,Lindenfelsstraße 39,48.785109680592,9.2498753146727
2025-01-07T12:17:13,2025-01-07,2,12,Straßeneinlauf - verstopft,In der Nähe von Industriestraße 50,48.723798284915,9.1238732154651
2025-01-07T13:17:18,2025-01-07,2,13,Wilder Müll,In der Nähe von Altglas-Container (Normannstraße / Kaisersbacher Straße),48.807849523974,9.2496869341034
2025-01-07T13:17:18,2025-01-07,2,13,Gefahrenstelle,In der Nähe von Fasanenhofstraße 20,48.711886780218,9.1627320784502
2025-01-07T14:59:51,2025-01-07,2,14,Straßeneinlauf - verstopft,"In der Nähe von Innerer Hohlweg, Gew. 4",48.848245861697,9.2270067851301
2025-01-07T14:59:51,2025-01-07,2,14,Gefahrenstelle,"In der Nähe von Innerer Hohlweg, Gew. 4",48.848921965924,9.226526440953
2025-01-07T14:59:51,2025-01-07,2,14,Wilder Müll,Unterländer Straße 29,48.831850297345,9.1725204259436
2025-01-07T14:59:51,2025-01-07,2,14,Sonstiges,Gymnasiumstraße 1,48.775756261996,9.1754450410547
2025-01-07T14:59:51,2025-01-07,2,14,Wilder Müll,Kapellenweg 43,48.83265460154,9.2228453190237
2025-01-07T15:41:38,2025-01-07,2,15,Sonstiges,In der Nähe von Fasanenhofstraße 16,48.712222621507,9.1630436503079
2025-01-07T15:41:38,2025-01-07,2,15,Gehweg - Verschmutzung,In der Nähe von Gerätespielfläche (Fasanenhofstraße/Janusz-Korczak-Weg),48.70997978037,9.1530682511219
2025-01-07T15:41:38,2025-01-07,2,15,Radweg - Scherben,In der Nähe von Markus-Schleicher-Straße 21C,48.711762273829,9.1552936206139
2025-01-07T17:15:08,2025-01-07,2,17,Straßenbeleuchtung,Burgenlandstraße 79,48.810485837516,9.1594669297088
2025-01-07T17:15:08,2025-01-07,2,17,Gefahrenstelle,In der Nähe von St.-Helens-Steg,48.805818311501,9.1754145785988
2025-01-07T19:14:39,2025-01-07,2,19,Gehweg - Verschmutzung,Kniebisstraße 22,48.7836449,9.2048315
2025-01-07T19:14:39,2025-01-07,2,19,Straßenbeleuchtung,In der Nähe von Deckerstraße 43,48.8005606,9.2251513
2025-01-07T19:14:39,2025-01-07,2,19,Kanaldeckel,In der Nähe von Deckerstraße 35,48.800849420251,9.2239672600137
2025-01-07T19:14:39,2025-01-07,2,19,Sonstiges,In der Nähe von Deckerstraße 41,48.800471173834,9.2248192290671
