first_seen_at_timestamp,first_seen_date,first_seen_weekday,first_seen_hour,category,location,lat,lon
2025-12-15T00:41:35,2025-12-15,1,0,Wilder Müll,Johannesstraße,48.776459676625,9.1619724666353
2025-12-15T00:41:35,2025-12-15,1,0,Gehweg - Verschmutzung,Taläckerstraße,48.838103443149,9.1890860865885
2025-12-15T00:41:35,2025-12-15,1,0,Wilder Müll,In der Nähe von Rotenbergstraße 97,48.7875749,9.2094115
2025-12-15T00:41:35,2025-12-15,1,0,Wilder Müll,In der Nähe von Alosenweg 70,48.759608329381,9.2494816350845
2025-12-15T00:41:35,2025-12-15,1,0,Straßeneinlauf - verstopft,In der Nähe von Alexanderstraße 69,48.772057693137,9.1846012111041
2025-12-15T00:41:35,2025-12-15,1,0,Sonstiges,Sprollstraße,48.737827801178,9.1763058641175
2025-12-15T00:41:35,2025-12-15,1,0,Straße - Verschmutzung,Mittenfeldstraße,48.805651752127,9.0867123530375
2025-12-15T00:41:35,2025-12-15,1,0,Verkehrszeichen,In der Nähe von Untere Heckenstraße 38/1,48.75632643881,9.2505811470745
2025-12-15T00:41:35,2025-12-15,1,0,Gehweg - Verschmutzung,In der Nähe von Mühlhäuser Straße 203/1,48.830447689632,9.2136676062236
2025-12-15T00:41:35,2025-12-15,1,0,Gehweg - Verschmutzung,In der Nähe von Möwenweg,48.832153351584,9.2149252435693
2025-12-15T00:41:35,2025-12-15,1,0,Wilder Müll,Herderstraße,48.775212580452,9.1460029880086
2025-12-15T00:41:35,2025-12-15,1,0,Wilder Müll,In der Nähe von Bilfingerstraße 10,48.816076046668,9.2147155472218
2025-12-15T00:41:35,2025-12-15,1,0,Straße - Verschmutzung,Degerlocher Straße,48.743172134838,9.1571727348393
2025-12-15T00:41:35,2025-12-15,1,0,Gefahrenstelle,In der Nähe von Karlstraße / Dorotheenstraße,48.776064843372,9.1811843143789
2025-12-15T00:41:35,2025-12-15,1,0,Gefahrenstelle,In der Nähe von Freibergstraße 32,48.823254320521,9.2175406516045
2025-12-15T00:41:35,2025-12-15,1,0,Sonstiges,Schildkrötenweg,48.802377372631,9.0865296724398
2025-12-15T00:41:35,2025-12-15,1,0,Verkehrszeichen,Tiefenbachstraße,48.756104044614,9.2294862293263
2025-12-15T00:41:35,2025-12-15,1,0,Wilder Müll,In der Nähe von Alosenweg 70,48.759603153551,9.249528188249
2025-12-15T00:41:35,2025-12-15,1,0,Wilder Müll,Charlottenstraße,48.775986091901,9.1899810948213
2025-12-15T00:41:35,2025-12-15,1,0,Ampel,In der Nähe von Herderstraße 61/1,48.772141092338,9.1407825704829
2025-12-15T00:41:35,2025-12-15,1,0,Ampel,In der Nähe von Am Weißenhof 1/1,48.799500733114,9.1752051869359
2025-12-15T00:41:35,2025-12-15,1,0,Wilder Müll,Außerhalb Stuttgarts,48.685462105038,9.1860640540855
2025-12-15T00:41:35,2025-12-15,1,0,Kanaldeckel,Leinenweberstraße,48.729661761053,9.149148303956
2025-12-15T00:41:35,2025-12-15,1,0,Straßenbeleuchtung,Neuer Berg,48.783808596554,9.2760196881811
2025-12-15T00:41:35,2025-12-15,1,0,Wilder Müll,Ulmer Straße,48.774779275663,9.2385680014899
2025-12-15T00:41:35,2025-12-15,1,0,Wilder Müll,In der Nähe von Friedrich-E.-Vogt-Stäffele,48.765342305178,9.1647181176544
2025-12-15T00:41:35,2025-12-15,1,0,Wilder Müll,Augsburger Straße,48.781636802204,9.2500758756341
2025-12-15T00:41:35,2025-12-15,1,0,Wilder Müll,In der Nähe von Boschwerk 6/1,48.822759479145,9.1591084767824
2025-12-15T00:41:35,2025-12-15,1,0,Sonstiges,In der Nähe von Kleinstraße 2/1,48.79593425837,9.1911498483004
2025-12-15T00:41:35,2025-12-15,1,0,Verkehrszeichen,Steinbachstraße,48.715886532787,9.1113684545554
2025-12-15T00:41:35,2025-12-15,1,0,Gehweg - Schäden,In der Nähe von Neckartalstraße 41/3,48.8042655,9.2081898
2025-12-15T00:41:35,2025-12-15,1,0,Sonstiges,Stafflenbergstraße,48.770345111525,9.1896889288333
2025-12-15T00:41:35,2025-12-15,1,0,Sonstiges,Wiesbadener Straße,48.805821397909,9.2220182096067
2025-12-15T00:41:35,2025-12-15,1,0,Sonstiges,Charlottenplatz,48.775357780632,9.1829432253894
2025-12-15T00:41:35,2025-12-15,1,0,Gefahrenstelle,In der Nähe von Furtwänglerstraße 29,48.780126149684,9.1262901073549
2025-12-15T00:41:35,2025-12-15,1,0,Gehweg - Verschmutzung,In der Nähe von Bopserwaldstraße 59/1,48.766751462345,9.1870642968179
2025-12-15T00:41:35,2025-12-15,1,0,Wilder Müll,In der Nähe von Rosensteinstraße 11,48.793808902072,9.1914677596836
2025-12-15T00:41:35,2025-12-15,1,0,Gefahrenstelle,In der Nähe von Bellingweg 24,48.797303707451,9.2249480469008
2025-12-15T00:41:35,2025-12-15,1,0,Sonstiges,In der Nähe von Breitscheidstraße 4,48.779277791361,9.1684560153505
2025-12-15T00:41:35,2025-12-15,1,0,Wilder Müll,In der Nähe von Auf der Gans / Schmidener Straße,48.818604133438,9.2421074310457
2025-12-15T06:17:36,2025-12-15,1,6,Gehweg - Schäden,Rohrackerstraße,48.757271216828,9.2521182574034
2025-12-15T07:17:09,2025-12-15,1,7,Sonstiges,Reichenbachstraße,48.798517953449,9.2260030236167
2025-12-15T07:17:09,2025-12-15,1,7,Wilder Müll,Schwabstraße,48.776818778704,9.1559846793152
2025-12-15T07:17:09,2025-12-15,1,7,Radweg - Verschmutzung,Wagrainstraße,48.829555883991,9.2155555508935
2025-12-15T07:17:09,2025-12-15,1,7,Sonstiges,In der Nähe von Laubeweg 1/1,48.70991071091,9.1541944028059
2025-12-15T07:17:09,2025-12-15,1,7,Sonstiges,In der Nähe von Laubeweg 1,48.709880337367,9.1541178389194
2025-12-15T08:17:28,2025-12-15,1,8,Sonstiges,"In der Nähe von Steigeräcker, Gew. 2",48.839707961339,9.1739817809031
2025-12-15T08:17:28,2025-12-15,1,8,Ampel,Böheimstraße,48.760157141809,9.1567766987894
2025-12-15T08:17:28,2025-12-15,1,8,Gehweg - Verschmutzung,Amstetter Straße,48.75512523353,9.2584068111333
