first_seen_at_timestamp,first_seen_date,first_seen_weekday,first_seen_hour,category,location,lat,lon
2025-06-08T00:41:21,2025-06-08,7,0,Gefahrenstelle,Ameisenbergstraße,48.784652489471,9.1946066279352
2025-06-08T00:41:21,2025-06-08,7,0,Gefahrenstelle,Abstatter Straße,48.832804362513,9.2000490196894
2025-06-08T00:41:21,2025-06-08,7,0,Brunnen / Gewässer,In der Nähe von Bismarckplatz 2/1,48.773751245714,9.1559490299067
2025-06-08T00:41:21,2025-06-08,7,0,Begrünung,Hedelfinger Straße,48.76843461069,9.2482683624098
2025-06-08T00:41:21,2025-06-08,7,0,Sonstiges,Deidesheimer Straße,48.808350022158,9.1177155817755
2025-06-08T00:41:21,2025-06-08,7,0,Treppe,In der Nähe von Römersteinweg 1,48.781152727715,9.1988191973915
2025-06-08T00:41:21,2025-06-08,7,0,Wilder Müll,Immenhofer Straße,48.763699653675,9.1767502034634
2025-06-08T00:41:21,2025-06-08,7,0,Verkehrszeichen,Mainstraße,48.823375864949,9.2202292721728
2025-06-08T00:41:21,2025-06-08,7,0,Wilder Müll,In der Nähe von Mainstraße 43,48.822986633773,9.2209995434288
2025-06-08T00:41:21,2025-06-08,7,0,Begrünung,Margaretenstraße,48.785907374701,9.2553247555321
2025-06-08T00:41:21,2025-06-08,7,0,Radweg - Schäden,In der Nähe von Aulendorfer Straße 48,48.727692533532,9.2014787744597
2025-06-08T00:41:21,2025-06-08,7,0,Wilder Müll,In der Nähe von Türlenstraße 2,48.790800492325,9.180887304255
2025-06-08T00:41:21,2025-06-08,7,0,Straße - Verschmutzung,In der Nähe von Plastik Kanone (Geislinger Straße),48.776030060047,9.2397323483011
2025-06-08T00:41:21,2025-06-08,7,0,Gefahrenstelle,In der Nähe von Schachtelhalmweg 50,48.705641147894,9.2241122971715
2025-06-08T00:41:21,2025-06-08,7,0,Brunnen / Gewässer,In der Nähe von Aldinger Straße 160,48.844586972386,9.2397164401246
2025-06-08T00:41:21,2025-06-08,7,0,Straße - Verschmutzung,In der Nähe von Sedanstraße 11,48.791742590891,9.1999671379647
2025-06-08T00:41:21,2025-06-08,7,0,Sonstiges,In der Nähe von Heinrich-Baumann-Steg,48.791905084184,9.1969013960422
2025-06-08T00:41:21,2025-06-08,7,0,Wilder Müll,In der Nähe von Steinbuttstraße 49,48.8423654,9.2225766
2025-06-08T00:41:21,2025-06-08,7,0,Bäder,In der Nähe von Freibadstraße 60,48.727656890502,9.1005327413317
2025-06-08T00:41:21,2025-06-08,7,0,Wilder Müll,Wiener Straße,48.811225335031,9.1581344615198
2025-06-08T00:41:21,2025-06-08,7,0,Ampel,In der Nähe von Dornbirner Straße 1,48.81165191858,9.1676639344055
2025-06-08T00:41:21,2025-06-08,7,0,Poller,In der Nähe von Treffpunkt Wendeplatte Regenpfeiferweg (Regenpfeiferweg),48.830237388231,9.2349160243718
2025-06-08T00:41:21,2025-06-08,7,0,Sonstiges,Herweghstraße,48.772012478714,9.1510702142147
2025-06-08T00:41:21,2025-06-08,7,0,Begrünung,In der Nähe von Gustav-Mahler-Straße 30,48.77599348267,9.1183605817738
2025-06-08T00:41:21,2025-06-08,7,0,Gehweg - Verschmutzung,Kapellenweg,48.832151201383,9.2226523193711
2025-06-08T00:41:21,2025-06-08,7,0,Wilder Müll,In der Nähe von Eierstraße 148,48.754522998707,9.161359978179
2025-06-08T00:41:21,2025-06-08,7,0,Gefahrenstelle,In der Nähe von Skulptur Der Mönch von Münster (Jagststraße / Schussengasse),48.819932269334,9.2244617275951
2025-06-08T00:41:21,2025-06-08,7,0,Schlagloch,"In der Nähe von In der Körsch, Gew. 8",48.715701871848,9.1629966603731
2025-06-08T00:41:21,2025-06-08,7,0,Wilder Müll,In der Nähe von Wiener Straße 93,48.811233601536,9.1580086628308
2025-06-08T00:41:21,2025-06-08,7,0,Sonstiges,In der Nähe von Breitscheidstraße 90,48.776515286564,9.158162533963
2025-06-08T00:41:21,2025-06-08,7,0,Sonstiges,Rohrackerstraße,48.757136929435,9.2476684479196
2025-06-08T00:41:21,2025-06-08,7,0,Wilder Müll,In der Nähe von Eisenbahnstraße 23,48.802415844785,9.2139780832934
2025-06-08T00:41:21,2025-06-08,7,0,Straße - Verschmutzung,In der Nähe von Kreuznacher Straße 60,48.8019536592,9.2223747384781
2025-06-08T00:41:21,2025-06-08,7,0,Wilder Müll,Johannesstraße,48.780674203395,9.1588007543213
2025-06-08T00:41:21,2025-06-08,7,0,Straßeneinlauf - verstopft,In der Nähe von Garbenstraße 3,48.7107223,9.2039201
2025-06-08T00:41:21,2025-06-08,7,0,Wilder Müll,In der Nähe von Boschwerk 6C,48.822396950199,9.1595699594804
2025-06-08T00:41:21,2025-06-08,7,0,Gehweg - Verschmutzung,In der Nähe von Krehlstraße 65,48.723237095481,9.1020003213843
2025-06-08T00:41:21,2025-06-08,7,0,Gefahrenstelle,In der Nähe von Mühlhäuser Straße 303,48.835428689861,9.2184354526845
2025-06-08T00:41:21,2025-06-08,7,0,Ampel,In der Nähe von Rotenwaldstraße 132,48.768728351135,9.1461184686184
2025-06-08T00:41:21,2025-06-08,7,0,Begrünung,In der Nähe von Obere Waiblinger Straße 101,48.807018137669,9.2300819425798
2025-06-08T06:16:48,2025-06-08,7,6,Ampel,In der Nähe von Schmidener Straße 216B,48.816902352387,9.2388271200698
