first_seen_at_timestamp,first_seen_date,first_seen_weekday,first_seen_hour,category,location,lat,lon
2025-10-30T00:37:06,2025-10-30,4,0,Begrünung,In der Nähe von Zahn-Nopper-Straße 2/1,48.832195554876,9.1650994233371
2025-10-30T00:37:06,2025-10-30,4,0,Verkehrszeichen,In der Nähe von Rennstraße 9,48.813635295909,9.1101232444688
2025-10-30T00:37:06,2025-10-30,4,0,Wilder Müll,In der Nähe von Neue Straße 150,48.769684128389,9.2133149029574
2025-10-30T00:37:06,2025-10-30,4,0,Ampel,Hauptstraße,48.730933454433,9.0951646664771
2025-10-30T00:37:06,2025-10-30,4,0,Sonstiges,Fliegenweg,48.848122597636,9.1543522756626
2025-10-30T00:37:06,2025-10-30,4,0,Verkehrszeichen,In der Nähe von Wiener Straße 155,48.809564600314,9.1523037943463
2025-10-30T00:37:06,2025-10-30,4,0,Schlagloch,Mannspergerstraße,48.745343994831,9.2387415073567
2025-10-30T00:37:06,2025-10-30,4,0,Straßenbeleuchtung,Erlkönigstraße,48.725754820394,9.1021951158227
2025-10-30T00:37:06,2025-10-30,4,0,Radweg - Scherben,In der Nähe von Am Kochenhof 30/1,48.7994605,9.1715211
2025-10-30T00:37:06,2025-10-30,4,0,Sonstiges,In der Nähe von Höfinger Straße 3,48.81284364589,9.1060179693781
2025-10-30T00:37:06,2025-10-30,4,0,Wilder Müll,Pfaffenweg,48.757858474074,9.1726478763448
2025-10-30T00:37:06,2025-10-30,4,0,Sonstiges,In der Nähe von Eglosheimer Straße 19,48.845513008173,9.1634705321052
2025-10-30T00:37:06,2025-10-30,4,0,Sonstiges,In der Nähe von Laubeweg 1,48.709871025205,9.153538291778
2025-10-30T00:37:06,2025-10-30,4,0,Gehweg - Verschmutzung,In der Nähe von Fasanenhofstraße 145/1,48.709734946742,9.1528051762657
2025-10-30T00:37:06,2025-10-30,4,0,Wilder Müll,Rudolf-Gehring-Platz,48.808388126489,9.1589589556194
2025-10-30T00:37:06,2025-10-30,4,0,Sonstiges,In der Nähe von Liststraße / Alte Weinsteige,48.7629902,9.1701748
2025-10-30T00:37:06,2025-10-30,4,0,Sonstiges,In der Nähe von Marbacher Straße 8,48.830675407459,9.1760305400912
2025-10-30T00:37:06,2025-10-30,4,0,Sonstiges,In der Nähe von Warthäuser Straße 2,48.771428402236,9.2450626896206
2025-10-30T00:37:06,2025-10-30,4,0,Straße - Verschmutzung,In der Nähe von Weberstraße 10,48.7715955,9.1790926
2025-10-30T00:37:06,2025-10-30,4,0,Sonstiges,In der Nähe von Lenbachstraße 112,48.806505227248,9.1683285160924
2025-10-30T00:37:06,2025-10-30,4,0,Gefahrenstelle,In der Nähe von Marbacher Straße 2,48.830414133353,9.1754354947935
2025-10-30T00:37:06,2025-10-30,4,0,Verkehrszeichen,In der Nähe von Haldenrainstraße / Kelterplatz Parkplatz,48.82958630569,9.1770642217983
2025-10-30T00:37:06,2025-10-30,4,0,Gehweg - Verschmutzung,In der Nähe von Langenburger Straße 26/1,48.825046853583,9.1761464313446
2025-10-30T00:37:06,2025-10-30,4,0,Gefahrenstelle,In der Nähe von Böblinger Straße 165,48.759758322802,9.1513516710589
2025-10-30T00:37:06,2025-10-30,4,0,Straße - Verschmutzung,Schmidener Straße,48.815768439509,9.2363241369739
2025-10-30T00:37:06,2025-10-30,4,0,Gefahrenstelle,In der Nähe von Jagststraße / Schussengasse,48.819933886519,9.2244721118752
2025-10-30T00:37:06,2025-10-30,4,0,Wilder Müll,In der Nähe von Kniebisstraße / Strombergstraße,48.782630993104,9.2051636088464
2025-10-30T00:37:06,2025-10-30,4,0,Sonstiges,In der Nähe von Moosheimer Straße 11,48.72259684658,9.2067538279426
2025-10-30T00:37:06,2025-10-30,4,0,Radweg - Scherben,In der Nähe von In der Schranne 31,48.742313524323,9.1040512785016
2025-10-30T00:37:06,2025-10-30,4,0,Verkehrszeichen,Handwerkstraße,48.719271685271,9.1262632153513
2025-10-30T00:37:06,2025-10-30,4,0,Gefahrenstelle,In der Nähe von Landauer Straße 28,48.81208726452,9.1232989979656
2025-10-30T00:37:06,2025-10-30,4,0,Straße - Verschmutzung,In der Nähe von Kissinger Straße 78,48.8032218,9.2314025
2025-10-30T00:37:06,2025-10-30,4,0,Radweg - Schäden,In der Nähe von Hausenring 9,48.81428436739,9.085736565581
2025-10-30T00:37:06,2025-10-30,4,0,Wilder Müll,Teinacher Straße,48.809909591781,9.2217747308597
2025-10-30T00:37:06,2025-10-30,4,0,Wilder Müll,Rotebühlstraße,48.769694935668,9.1552685376919
2025-10-30T00:37:06,2025-10-30,4,0,Gefahrenstelle,In der Nähe von Löffelstraße 9/1,48.748416449912,9.1679543649829
2025-10-30T00:37:06,2025-10-30,4,0,Wilder Müll,Augustenstraße,48.769255741539,9.1540695749789
2025-10-30T00:37:06,2025-10-30,4,0,Verkehrszeichen,Archivstraße,48.775728038078,9.1876539562394
2025-10-30T00:37:06,2025-10-30,4,0,Gehweg - Verschmutzung,In der Nähe von Augsburger Straße 187,48.793960842797,9.2418450513798
2025-10-30T00:37:06,2025-10-30,4,0,Wilder Müll,In der Nähe von Elbestraße 157/1,48.824930549384,9.2118925375167
2025-10-30T06:17:03,2025-10-30,4,6,Wilder Müll,Reinsburgstraße,48.768194728579,9.1536852797913
2025-10-30T07:15:53,2025-10-30,4,7,Sonstiges,In der Nähe von Mühlhäuser Straße 215,48.832817176052,9.2118589837175
2025-10-30T07:15:53,2025-10-30,4,7,Gefahrenstelle,Ulmer Straße,48.785765050135,9.224284886024
2025-10-30T07:15:53,2025-10-30,4,7,Straße - Verschmutzung,In der Nähe von Fasanenhofstraße 145/1,48.709743587806,9.1527721750715
2025-10-30T07:15:53,2025-10-30,4,7,Radweg - Scherben,In der Nähe von Fasanenhofstraße 145/1,48.709780474793,9.1526919730476
2025-10-30T08:16:49,2025-10-30,4,8,Sonstiges,In der Nähe von Stuttgarter Straße 21,48.810455663073,9.1657398461125
2025-10-30T08:16:49,2025-10-30,4,8,Wilder Müll,In der Nähe von Langobardenstraße 46,48.82859742891,9.1692394335115
2025-10-30T08:16:49,2025-10-30,4,8,Gefahrenstelle,Sigmund-Lindauer-Weg,48.813487925372,9.2013342717855
2025-10-30T09:16:17,2025-10-30,4,9,Sonstiges,In der Nähe von Fasanenhofstraße 181/1,48.7099901487,9.153404347939
2025-10-30T09:16:17,2025-10-30,4,9,Gehweg - Verschmutzung,In der Nähe von Steckfeldstraße 73,48.71614267612,9.1987867064495
2025-10-30T09:16:17,2025-10-30,4,9,Gehweg - Verschmutzung,In der Nähe von Karlshofstraße 81,48.716280255164,9.1988922932088
2025-10-30T09:16:17,2025-10-30,4,9,Straße - Verschmutzung,Lehenstraße,48.760204946095,9.1736356036346
2025-10-30T09:16:17,2025-10-30,4,9,Sonstiges,In der Nähe von Widmaier-/ Rulfinger Straße,48.722998269002,9.1579110597431
2025-10-30T10:16:26,2025-10-30,4,10,Wilder Müll,Pfaffenweg,48.757858474074,9.1726478763448
2025-10-30T10:16:26,2025-10-30,4,10,Ampel,In der Nähe von Kirchheimer Straße 90,48.743044477922,9.2152270720391
2025-10-30T10:16:26,2025-10-30,4,10,Gehweg - Verschmutzung,In der Nähe von Bernsteinstraße 65,48.735957062924,9.2310891189049
2025-10-30T10:16:26,2025-10-30,4,10,Kanaldeckel,Leuschnerstraße,48.776580963139,9.165253148632
2025-10-30T11:15:47,2025-10-30,4,11,Straßenbeleuchtung,Sonnenbühl,48.74468746145,9.1473428137892
2025-10-30T11:15:47,2025-10-30,4,11,Sonstiges,In der Nähe von Silberburgstraße 167,48.7718912,9.1684864
2025-10-30T11:15:47,2025-10-30,4,11,Begrünung,Christophstraße,48.770319241668,9.1776988807165
2025-10-30T11:15:47,2025-10-30,4,11,Kanaldeckel,Wagenburgstraße,48.780905213337,9.2060907533134
2025-10-30T11:15:47,2025-10-30,4,11,Wilder Müll,Schwarenbergstraße,48.783512353991,9.2019630613881
2025-10-30T12:17:30,2025-10-30,4,12,Straße - Verschmutzung,In der Nähe von Knappenweg 97,48.748865693813,9.1245375427448
2025-10-30T13:21:00,2025-10-30,4,13,Straßenbeleuchtung,In der Nähe von Jägerstraße 19,48.785005618293,9.1777893400523
2025-10-30T13:21:00,2025-10-30,4,13,Wilder Müll,In der Nähe von Sophia-Linckh-Weg 11,48.797457230797,9.2220412168452
2025-10-30T13:21:00,2025-10-30,4,13,Verkehrszeichen,Baumreute,48.761511129626,9.1464531269668
2025-10-30T14:16:01,2025-10-30,4,14,Ampel,In der Nähe von Forststraße 101,48.777248574253,9.1556764982986
2025-10-30T14:16:01,2025-10-30,4,14,Wilder Müll,Wendelinstraße,48.78179057505,9.2538064886447
2025-10-30T14:16:01,2025-10-30,4,14,Sonstiges,Burgenlandstraße,48.80978013629,9.1558281111721
2025-10-30T15:16:17,2025-10-30,4,15,Wilder Müll,In der Nähe von Jagststraße 13,48.820174758784,9.22508713446
2025-10-30T15:16:17,2025-10-30,4,15,Verkehrszeichen,In der Nähe von Flamingoweg 70/1,48.829592388324,9.226380870093
2025-10-30T16:16:50,2025-10-30,4,16,Wilder Müll,In der Nähe von Schwilkenhofstraße 97,48.847195976883,9.1725885210563
2025-10-30T16:16:50,2025-10-30,4,16,Wilder Müll,In der Nähe von Schwilkenhofstraße 81/1,48.848046122443,9.1720916100681
2025-10-30T16:16:50,2025-10-30,4,16,Sonstiges,Krailenshaldenstraße,48.81776348945,9.1779346289777
2025-10-30T17:15:44,2025-10-30,4,17,Ampel,In der Nähe von Kirchheimer Straße 90,48.74303573667,9.2153300840789
2025-10-30T18:17:07,2025-10-30,4,18,Straßenbeleuchtung,Gundelsheimer Straße,48.832870665693,9.1928136577803
2025-10-30T18:17:07,2025-10-30,4,18,Ampel,Neckartalstraße,48.80570805034,9.2105096072969
