first_seen_at_timestamp,first_seen_date,first_seen_weekday,first_seen_hour,category,location,lat,lon
2025-06-09T00:39:49,2025-06-09,1,0,Wilder Müll,In der Nähe von Eisenbahnstraße 23,48.802415844785,9.2139780832934
2025-06-09T00:39:49,2025-06-09,1,0,Straße - Verschmutzung,In der Nähe von Kreuznacher Straße 60,48.8019536592,9.2223747384781
2025-06-09T00:39:49,2025-06-09,1,0,Wilder Müll,Johannesstraße,48.780674203395,9.1588007543213
2025-06-09T00:39:49,2025-06-09,1,0,Straßeneinlauf - verstopft,In der Nähe von Garbenstraße 3,48.7107223,9.2039201
2025-06-09T00:39:49,2025-06-09,1,0,Wilder Müll,In der Nähe von Boschwerk 6C,48.822396950199,9.1595699594804
2025-06-09T00:39:49,2025-06-09,1,0,Gehweg - Verschmutzung,In der Nähe von Krehlstraße 65,48.723237095481,9.1020003213843
2025-06-09T00:39:49,2025-06-09,1,0,Gefahrenstelle,In der Nähe von Mühlhäuser Straße 303,48.835428689861,9.2184354526845
2025-06-09T00:39:49,2025-06-09,1,0,Ampel,In der Nähe von Rotenwaldstraße 132,48.768728351135,9.1461184686184
2025-06-09T00:39:49,2025-06-09,1,0,Begrünung,In der Nähe von Obere Waiblinger Straße 101,48.807018137669,9.2300819425798
2025-06-09T00:39:49,2025-06-09,1,0,Ampel,In der Nähe von Schmidener Straße 216B,48.816902352387,9.2388271200698
2025-06-09T00:39:49,2025-06-09,1,0,Gefahrenstelle,Thomas-Münzer-Weg,48.842792591868,9.1984260461287
2025-06-09T00:39:49,2025-06-09,1,0,Begrünung,Nürnberger Straße,48.80646336028,9.234019612901
2025-06-09T00:39:49,2025-06-09,1,0,Radweg - Scherben,In der Nähe von Austraße 12,48.821113426239,9.226796384522
2025-06-09T00:39:49,2025-06-09,1,0,Wilder Müll,In der Nähe von Brigachstraße 3/1,48.823101568014,9.222821265386
2025-06-09T00:39:49,2025-06-09,1,0,Sonstiges,Kriegsbergstraße,48.782469981343,9.1736443300103
2025-06-09T00:39:49,2025-06-09,1,0,Verkehrszeichen,In der Nähe von Steinröhrenweg 2/1,48.814596082073,9.0868290898489
2025-06-09T00:39:49,2025-06-09,1,0,Gefahrenstelle,Am Stadtpark,48.828884967593,9.1562860435621
2025-06-09T00:39:49,2025-06-09,1,0,Gefahrenstelle,In der Nähe von Ameisenbergstraße 2/1,48.784475922139,9.1944599300793
2025-06-09T00:39:49,2025-06-09,1,0,Wilder Müll,Gutenbergstraße,48.7717738,9.1584206
2025-06-09T00:39:49,2025-06-09,1,0,Wilder Müll,In der Nähe von Mönchfeldstraße 120/5,48.8443617,9.2101569
2025-06-09T00:39:49,2025-06-09,1,0,Sonstiges,In der Nähe von Mühlhäuser Straße 309,48.836045604595,9.2180904195546
2025-06-09T00:39:49,2025-06-09,1,0,Ampel,In der Nähe von Hauptstätter Straße beim Wilhelmsplatz (Hauptstätterstraße),48.77163668842,9.1778552918551
2025-06-09T00:39:49,2025-06-09,1,0,Gehweg - Verschmutzung,In der Nähe von Mühlhäuser Straße 319/1,48.837816057424,9.2201556717325
2025-06-09T00:39:49,2025-06-09,1,0,Sonstiges,"In der Nähe von Allmandwiesen, Gew. 1",48.837735219358,9.2224198407108
2025-06-09T00:39:49,2025-06-09,1,0,Sonstiges,In der Nähe von Mühlhäuser Straße 303,48.835701345492,9.2190461575723
2025-06-09T00:39:49,2025-06-09,1,0,Straße - Verschmutzung,Parlerstraße,48.792336319392,9.1690899746481
2025-06-09T00:39:49,2025-06-09,1,0,Sonstiges,In der Nähe von Zaunkönigweg 3,48.807348903639,9.1146042789404
2025-06-09T00:39:49,2025-06-09,1,0,Sonstiges,Osterbronnstraße,48.718987561006,9.1140400415018
2025-06-09T00:39:49,2025-06-09,1,0,Wilder Müll,Bäckergasse,48.804794818023,9.2130388833017
2025-06-09T00:39:49,2025-06-09,1,0,Wilder Müll,Erbsenbrunnengasse,48.80416404926,9.2136081943903
2025-06-09T00:39:49,2025-06-09,1,0,Verkehrszeichen,In der Nähe von Fritz-Reuter-Straße 16,48.774884874771,9.1463900443779
2025-06-09T00:39:49,2025-06-09,1,0,Sonstiges,In der Nähe von Furtbachstraße 2A,48.770834979326,9.1727840005629
2025-06-09T00:39:49,2025-06-09,1,0,Sonstiges,In der Nähe von Vollmoellerstraße 31,48.7274783,9.1077112
2025-06-09T00:39:49,2025-06-09,1,0,Verkehrszeichen,In der Nähe von Mainstraße 55,48.823221957122,9.2201251208841
2025-06-09T00:39:49,2025-06-09,1,0,Gefahrenstelle,In der Nähe von Am Klingenbach 59,48.784122341912,9.2144013123174
2025-06-09T00:39:49,2025-06-09,1,0,Sonstiges,Zuckerbergstraße,48.781558536907,9.1736622856445
2025-06-09T00:39:49,2025-06-09,1,0,Gehweg - Verschmutzung,Rathenaustraße,48.802356094014,9.1796785614471
2025-06-09T00:39:49,2025-06-09,1,0,Wilder Müll,In der Nähe von Altglas-Container (Korntaler Straße / Mercatorweg),48.841917748541,9.1447764105034
2025-06-09T00:39:49,2025-06-09,1,0,Gefahrenstelle,Bockelstraße,48.742601683887,9.2291527114006
2025-06-09T00:39:49,2025-06-09,1,0,Begrünung,In der Nähe von Am Kochenhof 16,48.799502800979,9.1724276764006
2025-06-09T03:35:37,2025-06-09,1,3,Gefahrenstelle,Julius-Wengert-Straße,48.837449901062,9.1634908924869
2025-06-09T03:35:37,2025-06-09,1,3,Gefahrenstelle,Schützenbühlstraße,48.834276399634,9.1555088927577
2025-06-09T05:16:15,2025-06-09,1,5,Wilder Müll,In der Nähe von Bussenstraße 66,48.779015184252,9.2005210797277
2025-06-09T08:17:01,2025-06-09,1,8,Wilder Müll,In der Nähe von Bienenbrunnen (Rennweg),48.7680324,9.2335625
2025-06-09T08:17:01,2025-06-09,1,8,Wilder Müll,Johannesstraße,48.780934825811,9.1589921493299
2025-06-09T08:17:01,2025-06-09,1,8,Straßeneinlauf - verstopft,In der Nähe von Silberburgstraße 172,48.7710551,9.1686569
2025-06-09T09:16:24,2025-06-09,1,9,Begrünung,In der Nähe von Pfauenstraße 21,48.7293418,9.0958519
2025-06-09T09:16:24,2025-06-09,1,9,Wilder Müll,Birkenwaldstraße,48.788086916434,9.177285108663
2025-06-09T09:16:24,2025-06-09,1,9,Gefahrenstelle,In der Nähe von Heilbrunnenstraße,48.719366850232,9.1418799953285
2025-06-09T09:16:24,2025-06-09,1,9,Wilder Müll,Tapachstraße,48.829986160266,9.1962635002963
2025-06-09T10:16:22,2025-06-09,1,10,Wilder Müll,In der Nähe von Altglas-Container (Südheimer Platz / Burgstallstraße),48.756172091505,9.1450517318996
2025-06-09T10:16:22,2025-06-09,1,10,Gefahrenstelle,In der Nähe von Kaufwaldweg 6,48.7173543,9.0897781
2025-06-09T10:16:22,2025-06-09,1,10,Treppe,"In der Nähe von Lemberg, Gew. 1",48.816804951264,9.1298860655759
2025-06-09T10:16:22,2025-06-09,1,10,Wilder Müll,In der Nähe von Talstraße 180,48.790887538389,9.2249981593427
2025-06-09T11:15:49,2025-06-09,1,11,Ampel,Böblinger Straße,48.756887825097,9.145949876705
2025-06-09T11:15:49,2025-06-09,1,11,Wilder Müll,In der Nähe von Heumadener Straße 6,48.758291049306,9.2546151922689
2025-06-09T11:15:49,2025-06-09,1,11,Verkehrszeichen,Heidenburgstraße,48.847615256957,9.2271916479765
2025-06-09T12:17:27,2025-06-09,1,12,Straße - Schäden,Libanonstraße,48.778837103495,9.2055514272903
2025-06-09T13:21:40,2025-06-09,1,13,Wilder Müll,Korntaler Straße,48.843867255695,9.1417522945458
2025-06-09T13:21:40,2025-06-09,1,13,Straßeneinlauf - verstopft,Urbanstraße,48.779336241869,9.1871501529436
2025-06-09T13:21:40,2025-06-09,1,13,Gehweg - Verschmutzung,Zur Uhlandshöhe,48.78332506145,9.1958092355389
2025-06-09T14:16:35,2025-06-09,1,14,Sonstiges,Fred-Uhlman-Straße,48.73790183172,9.2172443106952
2025-06-09T15:16:21,2025-06-09,1,15,Begrünung,Reinbeckstraße,48.7173599,9.103659
2025-06-09T16:16:41,2025-06-09,1,16,Gefahrenstelle,Luisenstraße,48.784666826786,9.2127769022534
2025-06-09T16:16:41,2025-06-09,1,16,Wilder Müll,In der Nähe von Gerätespielfläche (Illerstraße),48.821064682255,9.2227056073101
2025-06-09T17:15:33,2025-06-09,1,17,Wilder Müll,In der Nähe von Stadtmauer Bad Cannstatt (Badstraße / Felgergasse),48.803525904521,9.2149412645722
2025-06-09T17:15:33,2025-06-09,1,17,SSB Haltestelle,In der Nähe von Teinacher Straße 32,48.809123092506,9.2223494070091
2025-06-09T17:15:33,2025-06-09,1,17,Wilder Müll,In der Nähe von Aachener Straße 8,48.806499993366,9.2104032976848
2025-06-09T17:15:33,2025-06-09,1,17,Wilder Müll,In der Nähe von Altglas-Container (Auf der Steig / Rostocker Straße),48.815741836765,9.2080651755739
2025-06-09T18:16:58,2025-06-09,1,18,Sonstiges,In der Nähe von Dortmunder Straße 9,48.81460155728,9.2081508635914
2025-06-09T18:16:58,2025-06-09,1,18,Gefahrenstelle,In der Nähe von Heinestraße 123,48.750698469428,9.1558130830349
