first_seen_at_timestamp,first_seen_date,first_seen_weekday,first_seen_hour,category,location,lat,lon
2025-12-11T00:39:15,2025-12-11,4,0,Straße - Verschmutzung,Richard-Schmid-Straße,48.738759630964,9.2203082232427
2025-12-11T00:39:15,2025-12-11,4,0,Gefahrenstelle,In der Nähe von Schickhardtstraße 31,48.765269179522,9.1595163854683
2025-12-11T00:39:15,2025-12-11,4,0,Straßenbeleuchtung,Liegnitzer Straße,48.824251736257,9.1206683706246
2025-12-11T00:39:15,2025-12-11,4,0,Schlagloch,Altenbergstraße,48.760647027392,9.1786852741893
2025-12-11T00:39:15,2025-12-11,4,0,Gehweg - Verschmutzung,In der Nähe von Weberstraße 10,48.7716201,9.179196
2025-12-11T00:39:15,2025-12-11,4,0,Wilder Müll,In der Nähe von Altenbergstraße 62/1,48.76003641003,9.1800502752817
2025-12-11T00:39:15,2025-12-11,4,0,Gehweg - Verschmutzung,Wollinstraße,48.776708578183,9.1807433174438
2025-12-11T00:39:15,2025-12-11,4,0,Wilder Müll,Hausenring,48.816305481523,9.0832298939611
2025-12-11T00:39:15,2025-12-11,4,0,Wilder Müll,Eybacher Straße,48.773323268319,9.2464822959421
2025-12-11T00:39:15,2025-12-11,4,0,Sonstiges,In der Nähe von Hofener Straße 40,48.810421322459,9.2193138762876
2025-12-11T00:39:15,2025-12-11,4,0,Radweg - Scherben,König-Karl-Straße,48.804416487806,9.2181170580919
2025-12-11T00:39:15,2025-12-11,4,0,Sonstiges,In der Nähe von Königstraße 58,48.77500498026,9.1746661889147
2025-12-11T00:39:15,2025-12-11,4,0,Wilder Müll,Ostendstraße,48.785652016563,9.2077982792205
2025-12-11T00:39:15,2025-12-11,4,0,Wilder Müll,Nobileweg,48.841937070699,9.1516211224744
2025-12-11T00:39:15,2025-12-11,4,0,Wilder Müll,Reinsburgstraße,48.76795010679,9.1549773726955
2025-12-11T00:39:15,2025-12-11,4,0,Verkehrszeichen,In der Nähe von Stresemannstraße 3,48.8003799,9.1731899
2025-12-11T00:39:15,2025-12-11,4,0,Verkehrszeichen,In der Nähe von Fellbacher Straße 98,48.789407274707,9.2588108772702
2025-12-11T00:39:15,2025-12-11,4,0,Wilder Müll,Sprollstraße,48.73581303041,9.1818748850062
2025-12-11T00:39:15,2025-12-11,4,0,Sonstiges,In der Nähe von Argonnenstraße 17,48.806815110801,9.2450554823615
2025-12-11T00:39:15,2025-12-11,4,0,Radweg - Verschmutzung,In der Nähe von Rangierbahnhof 25,48.784952632977,9.245860546811
2025-12-11T00:39:15,2025-12-11,4,0,Sonstiges,In der Nähe von Rathenaustraße 29,48.802026947332,9.1796629216185
2025-12-11T00:39:15,2025-12-11,4,0,Wilder Müll,In der Nähe von Charlottenstraße 42,48.773247067519,9.1869359333964
2025-12-11T00:39:15,2025-12-11,4,0,Wilder Müll,Mirabellenstraße,48.768790018998,9.2663701830701
2025-12-11T00:39:15,2025-12-11,4,0,Sonstiges,König-Karl-Straße,48.802844806773,9.2167347963721
2025-12-11T00:39:15,2025-12-11,4,0,Ampel,In der Nähe von In den Ringelgärten 4B,48.814077945551,9.2357490131777
2025-12-11T00:39:15,2025-12-11,4,0,Verkehrszeichen,In der Nähe von Wiener Straße 155,48.809591834706,9.1523096106693
2025-12-11T00:39:15,2025-12-11,4,0,Ampel,In der Nähe von Planckstraße 2,48.777434990941,9.2031141633116
2025-12-11T00:39:15,2025-12-11,4,0,Gehweg - Verschmutzung,In der Nähe von Eisenbahnstraße 58,48.802634497304,9.2113596313042
2025-12-11T00:39:15,2025-12-11,4,0,Sonstiges,In der Nähe von Friolzheimer Straße 3A,48.820830172031,9.0890117691348
2025-12-11T00:39:15,2025-12-11,4,0,Sonstiges,Am Feldrand,48.7374422516,9.1002771747745
2025-12-11T00:39:15,2025-12-11,4,0,Gehweg - Verschmutzung,Nagoldstraße,48.820051015778,9.2208725003655
2025-12-11T00:39:15,2025-12-11,4,0,Wilder Müll,Murgtalstraße,48.820019087945,9.2209093354237
2025-12-11T00:39:15,2025-12-11,4,0,Straße - Verschmutzung,In der Nähe von Hausenring 9,48.814445305933,9.0856878595144
2025-12-11T00:39:15,2025-12-11,4,0,Sonstiges,Posener Straße,48.802641170978,9.2334843372147
2025-12-11T00:39:15,2025-12-11,4,0,Wilder Müll,In der Nähe von Augsburger Straße 481/1,48.774514057734,9.2599856114559
2025-12-11T00:39:15,2025-12-11,4,0,Sonstiges,In der Nähe von Argonnenstraße 17,48.806810408958,9.245084014077
2025-12-11T00:39:15,2025-12-11,4,0,Straßenbeleuchtung,Taubenheimstraße,48.799045555237,9.2321195406055
2025-12-11T00:39:15,2025-12-11,4,0,Sonstiges,Vogelsangstraße,48.772731229452,9.1584626700258
2025-12-11T00:39:15,2025-12-11,4,0,Sonstiges,In der Nähe von Am Höhenpark 14,48.800655190393,9.1708344306762
2025-12-11T00:39:15,2025-12-11,4,0,Sonstiges,In der Nähe von Bebelstraße 75,48.774658163163,9.1484924362483
