first_seen_at_timestamp,first_seen_date,first_seen_weekday,first_seen_hour,category,location,lat,lon
2025-05-13T00:36:37,2025-05-13,2,0,Ampel,In der Nähe von Charlottenstraße 14,48.77440512695,9.1854555746311
2025-05-13T00:36:37,2025-05-13,2,0,Gehweg - Verschmutzung,Vogelsangstraße,48.773265807218,9.1556606362133
2025-05-13T00:36:37,2025-05-13,2,0,Radweg - Schäden,In der Nähe von Unterer Schloßgarten 12/1,48.791330265797,9.1940676765526
2025-05-13T00:36:37,2025-05-13,2,0,Gefahrenstelle,In der Nähe von Nähterstraße 219/1,48.780301905265,9.2248441980679
2025-05-13T00:36:37,2025-05-13,2,0,Straßenbeleuchtung,Farrenstraße,48.771723312216,9.1992754613369
2025-05-13T00:36:37,2025-05-13,2,0,Sonstiges,In der Nähe von Dachswaldweg 9,48.741671985741,9.1090740448693
2025-05-13T00:36:37,2025-05-13,2,0,Sonstiges,Bonhoefferweg,48.710998656952,9.153171177093
2025-05-13T00:36:37,2025-05-13,2,0,Wilder Müll,Wallensteinstraße,48.839225149437,9.2064389281074
2025-05-13T00:36:37,2025-05-13,2,0,Sonstiges,Beim Eulenhof,48.744722292741,9.1097619311046
2025-05-13T00:36:37,2025-05-13,2,0,Begrünung,In der Nähe von Fasanenhofstraße 135,48.709173815815,9.1524972014206
2025-05-13T00:36:37,2025-05-13,2,0,Brunnen / Gewässer,In der Nähe von Geräte-und Ballspielfläche (Sieben Morgen II),48.8509282,9.1598271
2025-05-13T00:36:37,2025-05-13,2,0,Schlagloch,In der Nähe von Kornwestheimer Straße 40,48.849167220679,9.1603682244505
2025-05-13T00:36:37,2025-05-13,2,0,Kanaldeckel,Aspergstraße,48.775980387985,9.2032939473122
2025-05-13T00:36:37,2025-05-13,2,0,Sonstiges,In der Nähe von Gerätespielfläche (Delpweg),48.712911030329,9.1582526079971
2025-05-13T00:36:37,2025-05-13,2,0,Gefahrenstelle,In der Nähe von Richard-Wagner-Straße 1,48.773101837058,9.1945880975318
2025-05-13T00:36:37,2025-05-13,2,0,Brunnen / Gewässer,In der Nähe von Osterbronnstraße 68B,48.718951152762,9.1156790414543
2025-05-13T00:36:37,2025-05-13,2,0,Gefahrenstelle,Kirchheimer Straße,48.743880320874,9.2145088012609
2025-05-13T00:36:37,2025-05-13,2,0,SSB Haltestelle,In der Nähe von Degerlocher Straße 55,48.74389374823,9.1593120480931
2025-05-13T00:36:37,2025-05-13,2,0,Sonstiges,In der Nähe von Weilstetter Weg 31B,48.730169324686,9.1403007221583
2025-05-13T00:36:37,2025-05-13,2,0,Ampel,Schickhardtstraße,48.763851459688,9.1589926491809
2025-05-13T00:36:37,2025-05-13,2,0,Gehweg - Schäden,Lange Straße,48.775632447815,9.1740426854784
2025-05-13T00:36:37,2025-05-13,2,0,Brunnen / Gewässer,In der Nähe von Gerätespielfläche (Bopseranlage),48.767018970175,9.1827403475897
2025-05-13T00:36:37,2025-05-13,2,0,Sonstiges,In der Nähe von Im Heidenschloß 4,48.836819936347,9.2235639499321
2025-05-13T00:36:37,2025-05-13,2,0,Gehweg - Schäden,Rötestraße,48.771925874484,9.1553162463374
2025-05-13T00:36:37,2025-05-13,2,0,Verkehrszeichen,In der Nähe von Am Leuzebad 6,48.799259,9.210529
2025-05-13T00:36:37,2025-05-13,2,0,Sonstiges,In der Nähe von Dürrheimer Straße 15,48.803142436992,9.2212415950479
2025-05-13T00:36:37,2025-05-13,2,0,Wilder Müll,In der Nähe von Augustenstraße 22,48.771871428625,9.1674476787007
2025-05-13T00:36:37,2025-05-13,2,0,Brunnen / Gewässer,In der Nähe von Leuzebrunnen (DAS LEUZE / Rosensteig),48.798112473016,9.2093708475871
2025-05-13T00:36:37,2025-05-13,2,0,Gehweg - Verschmutzung,In der Nähe von Rankestraße 52,48.7492466,9.2154367
2025-05-13T00:36:37,2025-05-13,2,0,Wilder Müll,In der Nähe von Löwensteiner Straße 13,48.835252856956,9.1839685948959
2025-05-13T00:36:37,2025-05-13,2,0,Wilder Müll,In der Nähe von Zazenhäuser Straße 60/1,48.83634670197,9.1842219477238
2025-05-13T00:36:37,2025-05-13,2,0,Straße - Schäden,In der Nähe von Wehinger Weg 4,48.751997268888,9.2207164166182
2025-05-13T00:36:37,2025-05-13,2,0,Sonstiges,In der Nähe von Luise-Duttenhofer-Straße 11,48.819969619773,9.231498980212
2025-05-13T00:36:37,2025-05-13,2,0,Wilder Müll,Triebweg,48.807786909217,9.1387157027537
2025-05-13T00:36:37,2025-05-13,2,0,Wilder Müll,"In der Nähe von Sauhalde, Gew. 3",48.841622316896,9.1718056754575
2025-05-13T00:36:37,2025-05-13,2,0,Sonstiges,"In der Nähe von Vorderberg, Gew. 2",48.822730870812,9.1761369251781
2025-05-13T00:36:37,2025-05-13,2,0,Wilder Müll,In der Nähe von Schurwaldstraße 43A,48.781932356718,9.2157856956791
2025-05-13T00:36:37,2025-05-13,2,0,Wilder Müll,Rotenwaldstraße,48.769028982618,9.1501328784791
2025-05-13T00:36:37,2025-05-13,2,0,Wilder Müll,Rotenwaldstraße,48.770493362429,9.143076867238
2025-05-13T00:36:37,2025-05-13,2,0,Straßenbeleuchtung,Unkenweg,48.8013113865,9.0922881912504
2025-05-13T04:16:38,2025-05-13,2,4,Wilder Müll,In der Nähe von Barbarossastraße 51,48.790401453356,9.25747232108
2025-05-13T05:15:54,2025-05-13,2,5,Gehweg - Verschmutzung,In der Nähe von Lauftreff U14-Haltestelle May-Eyth-See (Seeblickweg),48.832912202432,9.2167129245965
2025-05-13T05:15:54,2025-05-13,2,5,Wilder Müll,Ostendstraße,48.781944945769,9.2082049668792
2025-05-13T05:15:54,2025-05-13,2,5,Gefahrenstelle,Oswald-Hesse-Straße,48.808314336466,9.1619660789779
2025-05-13T05:15:54,2025-05-13,2,5,Gehweg - Verschmutzung,In der Nähe von Adestraße 52,48.838037060377,9.1556029036913
2025-05-13T06:16:54,2025-05-13,2,6,Gefahrenstelle,In der Nähe von Probststraße 41,48.731522699744,9.1489650227971
2025-05-13T06:16:54,2025-05-13,2,6,Wilder Müll,In der Nähe von Altglas-Container (Dieterlestraße / Mühlstraße),48.807368776029,9.1595111119463
2025-05-13T06:16:54,2025-05-13,2,6,Gefahrenstelle,Rotwiesenstraße,48.729246996793,9.2078377316863
2025-05-13T07:15:59,2025-05-13,2,7,Gehweg - Verschmutzung,Bernsteinstraße,48.736338667483,9.2254929620521
2025-05-13T07:15:59,2025-05-13,2,7,Ampel,Emilienstraße,48.729096620725,9.1165377980397
2025-05-13T07:15:59,2025-05-13,2,7,Wilder Müll,In der Nähe von Wilhelmsplatz (M) 7,48.771244410399,9.1791754668945
2025-05-13T07:15:59,2025-05-13,2,7,SSB Haltestelle,In der Nähe von Bahnhof (Obertürkheim) 4,48.761983442475,9.2689857248903
2025-05-13T07:15:59,2025-05-13,2,7,Verkehrszeichen,Außerhalb Stuttgarts,48.704591197093,9.1136329002402
2025-05-13T07:15:59,2025-05-13,2,7,Radweg - Scherben,Fritz-Elsas-Straße,48.775531013517,9.1711678312604
2025-05-13T08:16:50,2025-05-13,2,8,Ampel,Motorstraße,48.825480164874,9.0962427654519
2025-05-13T08:16:50,2025-05-13,2,8,Wilder Müll,In der Nähe von Hans-Kächele-Straße 9,48.7177385,9.1967865
2025-05-13T08:16:50,2025-05-13,2,8,Radweg - Scherben,In der Nähe von Nordbahnhofstraße 11,48.790846491198,9.1883306303936
2025-05-13T10:16:12,2025-05-13,2,10,Sonstiges,Rankestraße,48.748880925212,9.2151422514417
2025-05-13T10:16:12,2025-05-13,2,10,Gefahrenstelle,In der Nähe von Skulptur Der Mönch von Münster (Jagststraße / Schussengasse),48.819931032069,9.2244666588839
2025-05-13T10:16:12,2025-05-13,2,10,Verkehrszeichen,In der Nähe von Chemnitzer Straße 13,48.738630307931,9.1660618218446
2025-05-13T10:16:12,2025-05-13,2,10,Sonstiges,In der Nähe von Menzelstraße 44B,48.80116785702,9.1669040920441
2025-05-13T10:16:12,2025-05-13,2,10,SSB Haltestelle,In der Nähe von Imweg 8,48.764835849181,9.2665880160488
2025-05-13T10:16:12,2025-05-13,2,10,SSB Haltestelle,In der Nähe von Karl-Benz-Platz 5,48.779155155139,9.2493405241223
2025-05-13T10:16:12,2025-05-13,2,10,Sonstiges,In der Nähe von Laubeweg 7,48.710208923732,9.1541951719932
2025-05-13T11:15:25,2025-05-13,2,11,Sonstiges,In der Nähe von Laubeweg 9,48.71040499854,9.1541415825939
2025-05-13T12:17:34,2025-05-13,2,12,Sonstiges,Laubeweg,48.710331065434,9.1545828530225
2025-05-13T12:17:34,2025-05-13,2,12,Sonstiges,In der Nähe von Heusteigschule (Heusteigstraße 97),48.765952572691,9.1723916168345
2025-05-13T12:17:34,2025-05-13,2,12,Straße - Schäden,In der Nähe von Neue Weinsteige 56,48.76570093254,9.180712764847
2025-05-13T12:17:34,2025-05-13,2,12,Sonstiges,Marktplatz (Ca),48.805314635063,9.2140897441498
2025-05-13T12:17:34,2025-05-13,2,12,Wilder Müll,Senefelderstraße,48.774651516612,9.1619530392117
2025-05-13T13:21:29,2025-05-13,2,13,Straßenbeleuchtung,Herbertstraße,48.845128745557,9.1596586716186
2025-05-13T13:21:29,2025-05-13,2,13,Sonstiges,In der Nähe von Wangener Straße 74,48.781586441234,9.227507676694
2025-05-13T14:16:01,2025-05-13,2,14,Gefahrenstelle,In der Nähe von Weilstetter Weg 23A,48.73036166265,9.1408160716549
2025-05-13T14:16:01,2025-05-13,2,14,Wilder Müll,"In der Nähe von Lemberg, Gew. 1",48.8192076,9.1300646
2025-05-13T14:16:01,2025-05-13,2,14,Sonstiges,Wildgansweg,48.835326026387,9.2365660140565
2025-05-13T14:16:01,2025-05-13,2,14,Sonstiges,Sieben Morgen,48.851562039708,9.1587521850553
2025-05-13T15:16:16,2025-05-13,2,15,Wilder Müll,In der Nähe von Gundelsheimer Straße 18,48.833217721478,9.1945215135688
2025-05-13T16:16:44,2025-05-13,2,16,Gehweg - Verschmutzung,Hasenbergstraße,48.773818043926,9.1596910283062
2025-05-13T16:16:44,2025-05-13,2,16,Gefahrenstelle,Spitalhofstraße,48.840678435604,9.1984994660074
2025-05-13T17:15:39,2025-05-13,2,17,Gefahrenstelle,In der Nähe von Hasenbergsteige 120,48.763823852577,9.1388611270975
2025-05-13T17:15:39,2025-05-13,2,17,Begrünung,In der Nähe von Stöfflerweg 3,48.718466858755,9.1639972502111
2025-05-13T17:15:39,2025-05-13,2,17,Gehweg - Verschmutzung,Zeppelinstraße,48.779551305605,9.1509158805633
2025-05-13T18:16:52,2025-05-13,2,18,Gehweg - Verschmutzung,In der Nähe von Rotenwaldstraße 132,48.768624981794,9.1461503622711
2025-05-13T18:16:52,2025-05-13,2,18,Sonstiges,Bebelstraße,48.774625676614,9.1477026160461
2025-05-13T18:16:52,2025-05-13,2,18,Straße - Schäden,In der Nähe von Eierstraße 154,48.753915305317,9.1617662735723
2025-05-13T19:15:19,2025-05-13,2,19,Gefahrenstelle,In der Nähe von Geräte- und Ballspielfläche (Elisabethen-Anlage),48.774143416738,9.1585314142829
2025-05-13T19:15:19,2025-05-13,2,19,Sonstiges,Robert-Koch-Straße,48.727816657288,9.1099534084214
