first_seen_at_timestamp,first_seen_date,first_seen_weekday,first_seen_hour,category,location,lat,lon
2025-09-17T00:34:01,2025-09-17,3,0,Gefahrenstelle,Vaihinger Straße,48.728565531557,9.1481523930306
2025-09-17T00:34:01,2025-09-17,3,0,Begrünung,Schützenstraße,48.781077869518,9.1893482222928
2025-09-17T00:34:01,2025-09-17,3,0,Sonstiges,Fürfelder Straße,48.831056479639,9.1910217007518
2025-09-17T00:34:01,2025-09-17,3,0,Straßenbeleuchtung,Grüninger Straße,48.721906564992,9.2076443292278
2025-09-17T00:34:01,2025-09-17,3,0,Begrünung,Wörthstraße,48.729215214619,9.1235956299808
2025-09-17T00:34:01,2025-09-17,3,0,Sonstiges,Eberhardstraße,48.773667098343,9.1806221718907
2025-09-17T00:34:01,2025-09-17,3,0,SSB Haltestelle,Kirchheimer Straße,48.744467657376,9.2131102433101
2025-09-17T00:34:01,2025-09-17,3,0,Gefahrenstelle,In der Nähe von Silberburgstraße 187,48.769476563506,9.1695313262756
2025-09-17T00:34:01,2025-09-17,3,0,Wilder Müll,Charlottenstraße,48.77556362632,9.1836109072445
2025-09-17T00:34:01,2025-09-17,3,0,Wilder Müll,Reinsburgstraße,48.768949375108,9.1475770943928
2025-09-17T00:34:01,2025-09-17,3,0,Straße - Verschmutzung,In der Nähe von Möwenweg 60,48.833007020729,9.2177160865182
2025-09-17T00:34:01,2025-09-17,3,0,Gefahrenstelle,In der Nähe von Mühlhäuser Straße 275/1,48.832519068153,9.21616629436
2025-09-17T00:34:01,2025-09-17,3,0,Gefahrenstelle,In der Nähe von Mühlhäuser Straße 275/1,48.83252096002,9.2162598791954
2025-09-17T00:34:01,2025-09-17,3,0,Ampel,Augustenstraße,48.769105321835,9.1588459257637
2025-09-17T00:34:01,2025-09-17,3,0,Begrünung,Rohrackerstraße,48.758051444919,9.2448972846961
2025-09-17T00:34:01,2025-09-17,3,0,Gefahrenstelle,In der Nähe von Jagststraße / Schussengasse,48.819932846043,9.224460167249
2025-09-17T00:34:01,2025-09-17,3,0,Brunnen / Gewässer,Rohrackerstraße,48.757374202333,9.233111207333
2025-09-17T00:34:01,2025-09-17,3,0,Wilder Müll,Fleiner Straße,48.832910115643,9.1852102645663
2025-09-17T00:34:01,2025-09-17,3,0,Gefahrenstelle,In der Nähe von Schwarzbachstraße 54,48.718136545859,9.1080841316581
2025-09-17T00:34:01,2025-09-17,3,0,Sonstiges,In der Nähe von Fasanenhofstraße 159,48.709758431346,9.1534903190794
2025-09-17T00:34:01,2025-09-17,3,0,Radweg - Verschmutzung,In der Nähe von Fasanenhofstraße 161,48.709842724683,9.1531130419658
2025-09-17T00:34:01,2025-09-17,3,0,Radweg - Scherben,In der Nähe von Fasanenhofstraße 15,48.713770246563,9.1624931013274
2025-09-17T00:34:01,2025-09-17,3,0,Gefahrenstelle,In der Nähe von Holzstraße 21/2,48.775350302251,9.1819114913586
2025-09-17T00:34:01,2025-09-17,3,0,Sonstiges,In der Nähe von Mahatma-Gandhi-Straße 7,48.81805735313,9.1910540376174
2025-09-17T00:34:01,2025-09-17,3,0,Sonstiges,Luisenplatz,48.785294291707,9.211581363695
2025-09-17T00:34:01,2025-09-17,3,0,Wilder Müll,In der Nähe von Kleinstraße 2,48.795509715344,9.1911349482972
2025-09-17T00:34:01,2025-09-17,3,0,Wilder Müll,Alexanderstraße,48.772959982133,9.1859831966582
2025-09-17T00:34:01,2025-09-17,3,0,Wilder Müll,Im Geiger,48.80673411604,9.2423014291229
2025-09-17T00:34:01,2025-09-17,3,0,Gefahrenstelle,Spreuergasse,48.8042691,9.216045
2025-09-17T00:34:01,2025-09-17,3,0,Sonstiges,Spechtweg,48.803783988085,9.1043315035676
2025-09-17T00:34:01,2025-09-17,3,0,Gehweg - Verschmutzung,Tiefenbachstraße,48.756034872817,9.2234858338958
2025-09-17T00:34:01,2025-09-17,3,0,Wilder Müll,In der Nähe von Vogteiweg 9/1,48.844035878402,9.1889499056132
2025-09-17T00:34:01,2025-09-17,3,0,Gehweg - Schäden,In der Nähe von Feuerbacher Weg 197,48.805228980842,9.1596159248164
2025-09-17T00:34:01,2025-09-17,3,0,Wilder Müll,In der Nähe von Stresemannstraße 4/1,48.801020636904,9.1739890785384
2025-09-17T00:34:01,2025-09-17,3,0,Sonstiges,In der Nähe von Luisenplatz,48.785469103271,9.2118624004575
2025-09-17T00:34:01,2025-09-17,3,0,Sonstiges,Schwabstraße,48.777259616249,9.1559588224427
2025-09-17T00:34:01,2025-09-17,3,0,Gefahrenstelle,In der Nähe von Untere Hagstraße 19,48.719728939732,9.1041246682721
2025-09-17T00:34:01,2025-09-17,3,0,Wilder Müll,Friedenstraße,48.785596869655,9.1929456019596
2025-09-17T00:34:01,2025-09-17,3,0,Gehweg - Schäden,Walter-Flex-Straße,48.741527407127,9.2123225155058
2025-09-17T00:34:01,2025-09-17,3,0,Gefahrenstelle,Wagenburgstraße,48.780840646505,9.2043509563359
2025-09-17T04:16:19,2025-09-17,3,4,Straßenbeleuchtung,In der Nähe von Köstlinstraße 21,48.812377436593,9.1139025510795
2025-09-17T05:15:41,2025-09-17,3,5,Wilder Müll,Sonntagweg,48.751659665725,9.0844290922329
2025-09-17T05:15:41,2025-09-17,3,5,Sonstiges,In der Nähe von Nordbahnhofstraße 33,48.794269936147,9.188461706944
2025-09-17T05:15:41,2025-09-17,3,5,Sonstiges,Schwabstraße,48.770598129113,9.1581090356269
2025-09-17T07:15:45,2025-09-17,3,7,Gefahrenstelle,Sillenbucher Straße,48.756836972039,9.2318569841748
2025-09-17T07:15:45,2025-09-17,3,7,Kanaldeckel,Welzheimer Straße,48.782164969646,9.2157473039286
2025-09-17T07:15:45,2025-09-17,3,7,Sonstiges,In der Nähe von Stettener Straße,48.7854923,9.2852992
2025-09-17T08:16:37,2025-09-17,3,8,Gehweg - Schäden,Lehenstraße,48.758909364928,9.1737399893511
2025-09-17T08:16:37,2025-09-17,3,8,Sonstiges,In der Nähe von Klett-Passage 21,48.783519656587,9.1803181670857
2025-09-17T08:16:37,2025-09-17,3,8,Straße - Verschmutzung,Renettenweg,48.760087763446,9.2347021433736
2025-09-17T09:16:05,2025-09-17,3,9,Sonstiges,In der Nähe von Luisenplatz,48.7855436,9.2118384
2025-09-17T09:16:05,2025-09-17,3,9,Wilder Müll,Wagenburgstraße,48.780033218522,9.2006423407474
2025-09-17T09:16:05,2025-09-17,3,9,Wilder Müll,In der Nähe von James-F.-Byrnes-Straße 44,48.8161546,9.1913586
2025-09-17T10:16:25,2025-09-17,3,10,Gehweg - Verschmutzung,Landsknechtstraße,48.840755498832,9.1955151174398
2025-09-17T10:16:25,2025-09-17,3,10,Poller,Hornbergstraße,48.785554428173,9.2168236936616
2025-09-17T10:16:25,2025-09-17,3,10,Wilder Müll,Nordbahnhofstraße,48.798025355961,9.1898885937535
2025-09-17T11:15:29,2025-09-17,3,11,Sonstiges,Kienbachstraße,48.801194664789,9.236991024745
2025-09-17T11:15:29,2025-09-17,3,11,Straße - Verschmutzung,In der Nähe von Büsnauer Straße 91,48.73861809668,9.0924225407163
2025-09-17T12:17:44,2025-09-17,3,12,Sonstiges,In der Nähe von In den Entenäckern 3 Wertstoffhof,48.697016739293,9.2202068560383
2025-09-17T12:17:44,2025-09-17,3,12,SSB Haltestelle,Rotebühlstraße,48.770483940428,9.1572171318745
2025-09-17T12:17:44,2025-09-17,3,12,Gehweg - Verschmutzung,Rosenaustraße,48.809736602433,9.2113981600221
2025-09-17T12:17:44,2025-09-17,3,12,Verkehrszeichen,In der Nähe von Weidenbrunnen 91A,48.846301471346,9.2314512248423
2025-09-17T12:17:44,2025-09-17,3,12,Gehweg - Verschmutzung,In der Nähe von Schönbühlstraße 7,48.783019221663,9.2021857290807
2025-09-17T13:18:31,2025-09-17,3,13,Wilder Müll,Gaußstraße,48.779369789613,9.1451574934009
2025-09-17T13:18:31,2025-09-17,3,13,Sonstiges,Böblinger Straße,48.763449416678,9.1634410719659
2025-09-17T13:18:31,2025-09-17,3,13,Treppe,In der Nähe von Neckartalstraße 247/1,48.816583861254,9.221321845836
2025-09-17T14:15:42,2025-09-17,3,14,Gefahrenstelle,Fasanenhofstraße,48.710736134548,9.1609729918374
2025-09-17T14:15:42,2025-09-17,3,14,Gefahrenstelle,In der Nähe von Jagststraße 15,48.82005477541,9.2249243614093
2025-09-17T14:15:42,2025-09-17,3,14,Gefahrenstelle,In der Nähe von Brenzstraße 6,48.807480997481,9.2294393118721
2025-09-17T14:15:42,2025-09-17,3,14,Gefahrenstelle,In der Nähe von Kreuznacher Straße 2,48.8074631805,9.220077570429
2025-09-17T14:15:42,2025-09-17,3,14,Gefahrenstelle,In der Nähe von Hasenbergstraße 81,48.776143098181,9.1581563902469
2025-09-17T14:15:42,2025-09-17,3,14,Brunnen / Gewässer,Holzhauser Straße,48.735484263361,9.106787712765
2025-09-17T14:15:42,2025-09-17,3,14,Begrünung,Thekla-Kauffmann-Weg,48.819668457729,9.23884907352
2025-09-17T15:16:02,2025-09-17,3,15,Sonstiges,Eberhardstraße,48.772891675741,9.1779665520424
2025-09-17T15:16:02,2025-09-17,3,15,Wilder Müll,In der Nähe von Hirsauer Staße/ Kuckucksruf,48.7418656,9.1360312
2025-09-17T15:16:02,2025-09-17,3,15,Begrünung,In der Nähe von Bernsteinstraße 174,48.73650438376,9.2251304471992
2025-09-17T16:16:29,2025-09-17,3,16,Gefahrenstelle,Dreibrunnenweg,48.716471264816,9.1016493620596
2025-09-17T16:16:29,2025-09-17,3,16,Kanaldeckel,In der Nähe von Mercedesstraße 10,48.799709517389,9.213518915263
2025-09-17T16:16:29,2025-09-17,3,16,Sonstiges,In der Nähe von Röntgenstraße 2,48.79189801396,9.2138881364949
