first_seen_at_timestamp,first_seen_date,first_seen_weekday,first_seen_hour,category,location,lat,lon
2025-03-24T00:35:34,2025-03-24,1,0,Wilder Müll,In der Nähe von Chinagarten (Birkenwaldstraße / Panoramastraße),48.786859039423,9.175686078657
2025-03-24T00:35:34,2025-03-24,1,0,Sonstiges,"In der Nähe von Walpenreute, Gew.",48.802558855266,9.1502573697883
2025-03-24T00:35:34,2025-03-24,1,0,Wilder Müll,In der Nähe von Vogelsangstraße 35,48.77354615824,9.155610020374
2025-03-24T00:35:34,2025-03-24,1,0,Begrünung,In der Nähe von Urbanstraße 20,48.777408528274,9.1860648201295
2025-03-24T00:35:34,2025-03-24,1,0,Wilder Müll,Schickstraße,48.769023109821,9.1838864604682
2025-03-24T00:35:34,2025-03-24,1,0,Wilder Müll,Landsknechtstraße,48.841116741505,9.1946851757827
2025-03-24T00:35:34,2025-03-24,1,0,Wilder Müll,Mörikestraße,48.764800079342,9.1625473277239
2025-03-24T00:35:34,2025-03-24,1,0,Wilder Müll,In der Nähe von Gerätespielfläche (Im Wolfer/ Walbrunnenstraße),48.707326078052,9.201143357593
2025-03-24T00:35:34,2025-03-24,1,0,Wilder Müll,Gutenbergstraße,48.771007000682,9.1562660885548
2025-03-24T00:35:34,2025-03-24,1,0,Wilder Müll,In der Nähe von Heinestraße 145,48.750865882248,9.1529039206386
2025-03-24T00:35:34,2025-03-24,1,0,Straßenbeleuchtung,Walchenseestraße,48.834534652607,9.2250685540298
2025-03-24T00:35:34,2025-03-24,1,0,Wilder Müll,In der Nähe von Otto-Hirsch-Brücken 6,48.759317955481,9.2557918936852
2025-03-24T00:35:34,2025-03-24,1,0,Sonstiges,Talstraße,48.784481118663,9.2134974221604
2025-03-24T00:35:34,2025-03-24,1,0,Begrünung,In der Nähe von Gerätespielfläche (Kausler-/ Lammackerweg),48.7253539,9.139463
2025-03-24T00:35:34,2025-03-24,1,0,Gehweg - Verschmutzung,In der Nähe von Lammackerweg 7,48.7248641,9.140547
2025-03-24T00:35:34,2025-03-24,1,0,Sonstiges,In der Nähe von Charlottenplatz 1,48.776439119852,9.182242962902
2025-03-24T00:35:34,2025-03-24,1,0,Wilder Müll,In der Nähe von Freibergstraße 20,48.823592678489,9.2194966825085
2025-03-24T00:35:34,2025-03-24,1,0,Wilder Müll,In der Nähe von Lindental 38,48.810901228946,9.1286076898075
2025-03-24T00:35:34,2025-03-24,1,0,Straße - Verschmutzung,In der Nähe von Gottfried-Keller-Straße 20,48.834710890207,9.1595582365326
2025-03-24T00:35:34,2025-03-24,1,0,Gehweg - Verschmutzung,Schwabstraße,48.775595169116,9.1561033865415
2025-03-24T00:35:34,2025-03-24,1,0,Wilder Müll,In der Nähe von Muggensturmer Straße 17,48.809852361271,9.1100709527432
2025-03-24T00:35:34,2025-03-24,1,0,Wilder Müll,Roßwager Straße,48.833170473731,9.1910433639145
2025-03-24T00:35:34,2025-03-24,1,0,Wilder Müll,Werastraße,48.7886041,9.1956249
2025-03-24T00:35:34,2025-03-24,1,0,Wilder Müll,In der Nähe von Gerätespielfläche (Brunnenrain),48.8413735,9.2005448
2025-03-24T00:35:34,2025-03-24,1,0,Radweg - Scherben,In der Nähe von Gerätespielplatz (Im Götzen/ Pragsattel),48.809120955985,9.1822146490113
2025-03-24T00:35:34,2025-03-24,1,0,Sonstiges,In der Nähe von Tiefenbachstraße 51,48.754507158748,9.224521487481
2025-03-24T00:35:34,2025-03-24,1,0,Wilder Müll,In der Nähe von Waldspielplatz mit Grillstelle Dürrlewang (Lunaweg),48.711476826904,9.1225803639729
2025-03-24T00:35:34,2025-03-24,1,0,Wilder Müll,In der Nähe von Suttnerstraße 30,48.8410485,9.2025329
2025-03-24T00:35:34,2025-03-24,1,0,Radweg - Schäden,In der Nähe von Abstellbahnhof 44,48.797341382455,9.2016546321598
2025-03-24T00:35:34,2025-03-24,1,0,Wilder Müll,"In der Nähe von Dürrlewangwald, Gew. 2",48.711808738627,9.1283652359917
2025-03-24T00:35:34,2025-03-24,1,0,Sonstiges,In der Nähe von Markus-Schleicher-Straße 15A,48.711979921779,9.1556054066199
2025-03-24T00:35:34,2025-03-24,1,0,Verkehrszeichen,In der Nähe von Altkleider-Container (Bonhoefferweg),48.711299247839,9.1525761935655
2025-03-24T00:35:34,2025-03-24,1,0,Verkehrszeichen,In der Nähe von Altkleider-Container (Bonhoefferweg),48.711302370251,9.1525992470547
2025-03-24T00:35:34,2025-03-24,1,0,Verkehrszeichen,In der Nähe von Altkleider-Container (Bonhoefferweg),48.711315985812,9.1525932279786
2025-03-24T00:35:34,2025-03-24,1,0,Gehweg - Verschmutzung,Sigmaringer Straße,48.732729172614,9.1561202322574
2025-03-24T00:35:34,2025-03-24,1,0,Straße - Verschmutzung,In der Nähe von Charlottenstraße 42,48.773385289892,9.1871024008112
2025-03-24T00:35:34,2025-03-24,1,0,Wilder Müll,In der Nähe von Schurwaldstraße 43A,48.781922570319,9.2157930502168
2025-03-24T00:35:34,2025-03-24,1,0,Gehweg - Verschmutzung,Germersheimer Straße,48.813228441278,9.1151117543038
2025-03-24T00:35:34,2025-03-24,1,0,Sonstiges,Fridinger Straße,48.751432410234,9.2169489228011
2025-03-24T00:35:34,2025-03-24,1,0,SSB Haltestelle,In der Nähe von Ludwigsburger Straße 108,48.830714573247,9.1745680950267
2025-03-24T05:15:43,2025-03-24,1,5,Gefahrenstelle,In der Nähe von Anlegestelle Mühlhausen (Aldinger Straße),48.840902511844,9.2316094120299
2025-03-24T06:16:50,2025-03-24,1,6,Wilder Müll,Gasteiner Straße,48.79960128331,9.2294640218848
2025-03-24T06:16:50,2025-03-24,1,6,Schlagloch,Moserstraße,48.779038180835,9.1878840840259
2025-03-24T07:15:49,2025-03-24,1,7,Ampel,Ostendstraße,48.787190338673,9.2077910166647
2025-03-24T08:16:37,2025-03-24,1,8,Wilder Müll,Böheimstraße,48.759674596073,9.1543804354443
2025-03-24T08:16:37,2025-03-24,1,8,Wilder Müll,In der Nähe von Gutenbergstraße 83,48.771080849533,9.1562518809354
2025-03-24T09:16:07,2025-03-24,1,9,Gehweg - Verschmutzung,Stuifenstraße,48.785088983841,9.2057267065887
2025-03-24T09:16:07,2025-03-24,1,9,Sonstiges,In der Nähe von Fuchsrainschule (Gablenberger Weg 25),48.769815098779,9.2024099029183
2025-03-24T09:16:07,2025-03-24,1,9,Sonstiges,Pfaffenweg,48.759731269822,9.1654019679182
2025-03-24T09:16:07,2025-03-24,1,9,Wilder Müll,Bernsteinstraße,48.737138881865,9.225714149429
2025-03-24T10:16:09,2025-03-24,1,10,Straßenbeleuchtung,Federseestraße,48.772289890695,9.2416865111534
2025-03-24T10:16:09,2025-03-24,1,10,Wilder Müll,Beilsteiner Straße,48.832959281158,9.1787307487698
2025-03-24T10:16:09,2025-03-24,1,10,Sonstiges,Eberhardstraße,48.772891675741,9.1779665520424
2025-03-24T10:16:09,2025-03-24,1,10,Wilder Müll,Obere Waiblinger Straße,48.808411532922,9.2403074016914
2025-03-24T10:16:09,2025-03-24,1,10,Gehweg - Verschmutzung,Seilerstraße,48.803466360886,9.2114398981939
2025-03-24T11:15:09,2025-03-24,1,11,Sonstiges,In der Nähe von Skulptur Der Mönch von Münster (Jagststraße / Schussengasse),48.819932106829,9.22447228897
2025-03-24T11:15:09,2025-03-24,1,11,Wilder Müll,Filderbahnplatz,48.730167568542,9.1475723581008
2025-03-24T11:15:09,2025-03-24,1,11,Ampel,In der Nähe von Bienenweg 13,48.744275202687,9.1061394697342
2025-03-24T11:15:09,2025-03-24,1,11,Verkehrszeichen,Seelbergstraße,48.802291550461,9.2191155853899
2025-03-24T11:15:09,2025-03-24,1,11,Wilder Müll,In der Nähe von Stresemannstraße 6,48.802174993723,9.1746651155361
2025-03-24T12:17:23,2025-03-24,1,12,Ampel,In der Nähe von Möhringer Landstraße 39A,48.729844415372,9.1178883003876
2025-03-24T12:17:23,2025-03-24,1,12,Poller,In der Nähe von Hutteneichenweg 68,48.716342570374,9.0860515429162
2025-03-24T13:17:59,2025-03-24,1,13,Wilder Müll,Markelsheimer Straße,48.829808693587,9.1838635265555
2025-03-24T13:17:59,2025-03-24,1,13,Sonstiges,Außerhalb Stuttgarts,48.713542972232,9.4297558670807
2025-03-24T13:17:59,2025-03-24,1,13,Wilder Müll,In der Nähe von Altglas-Container (Ulmer Straße 289),48.7750092,9.2386667
2025-03-24T14:15:42,2025-03-24,1,14,Gehweg - Verschmutzung,In der Nähe von Werderstraße 10,48.793608907246,9.2020403157015
2025-03-24T14:15:42,2025-03-24,1,14,Straßenbeleuchtung,Sindbadweg,48.718531138989,9.1510731470722
2025-03-24T14:15:42,2025-03-24,1,14,Sonstiges,Hohe Straße,48.7771138,9.169432
2025-03-24T14:15:42,2025-03-24,1,14,Wilder Müll,In der Nähe von Kleinkinderspielfläche (Staibhöhe/ Jägerhalde),48.777551710212,9.2258424956401
2025-03-24T14:15:42,2025-03-24,1,14,Begrünung,In der Nähe von Ruiter Straße 26,48.755654988182,9.254677242399
2025-03-24T15:16:05,2025-03-24,1,15,Sonstiges,In der Nähe von Zazenhäuser Straße 35,48.8357806,9.1809768
2025-03-24T16:16:35,2025-03-24,1,16,Wilder Müll,Schönbühlstraße,48.783210231397,9.2099390472782
2025-03-24T16:16:35,2025-03-24,1,16,Schlagloch,Reinsburgstraße,48.769557567512,9.163528941372
2025-03-24T16:16:35,2025-03-24,1,16,Wilder Müll,"In der Nähe von Im Oberen Freienstein, Gew. 2",48.831606990009,9.2034678122764
2025-03-24T16:16:35,2025-03-24,1,16,Wilder Müll,In der Nähe von Grillplatz am Max-Eyth-See (Am Max-Eyth-See),48.831181744,9.2086935262036
2025-03-24T16:16:35,2025-03-24,1,16,Wilder Müll,Unterländer Straße,48.83215042539,9.1703276355767
2025-03-24T17:15:34,2025-03-24,1,17,Wilder Müll,Wagenburgstraße,48.780650701748,9.2024960710743
2025-03-24T17:15:34,2025-03-24,1,17,Sonstiges,In der Nähe von Spielfläche (Haußmann-/ Friedenaustraße),48.786692468423,9.2146903453906
2025-03-24T18:16:45,2025-03-24,1,18,Sonstiges,Elbestraße,48.820921425396,9.2212345799587
2025-03-24T18:16:45,2025-03-24,1,18,Wilder Müll,In der Nähe von Darmstädter Straße 92,48.812713630559,9.1961610239145
2025-03-24T18:16:45,2025-03-24,1,18,Gefahrenstelle,Vaihinger Straße,48.72823486864,9.1315209276638
2025-03-24T19:14:55,2025-03-24,1,19,Wilder Müll,In der Nähe von Waiblinger Straße 21,48.804066065582,9.2195260857932
2025-03-24T19:14:55,2025-03-24,1,19,Straße - Verschmutzung,In der Nähe von Wasserspiele Stadtgarten (Stadtgarten (Mitte)),48.781838327193,9.1725561392087
2025-03-24T19:14:55,2025-03-24,1,19,Wilder Müll,Alexanderstraße,48.773049655738,9.1861604606935
2025-03-24T19:14:55,2025-03-24,1,19,Wilder Müll,Markelsheimer Straße,48.829114373623,9.1791874760803
2025-03-24T20:15:46,2025-03-24,1,20,Sonstiges,Eberhardstraße,48.772891679034,9.1779665520541
2025-03-24T20:15:46,2025-03-24,1,20,Sonstiges,In der Nähe von Reiherstraße 21/1,48.729168185913,9.1407148661235
