first_seen_at_timestamp,first_seen_date,first_seen_weekday,first_seen_hour,category,location,lat,lon
2025-04-12T00:33:52,2025-04-12,6,0,Ampel,In der Nähe von Normannstraße 2,48.809273156016,9.2492888190182
2025-04-12T00:33:52,2025-04-12,6,0,Wilder Müll,In der Nähe von Altglas-Container (Korntaler Straße / Mercatorweg),48.841872346136,9.1451970286007
2025-04-12T00:33:52,2025-04-12,6,0,Wilder Müll,In der Nähe von Altglas-Container (Mittnachtstraße / Rümelinstraße),48.797232335813,9.1930880285577
2025-04-12T00:33:52,2025-04-12,6,0,Straßeneinlauf - verstopft,Kalckreuthweg,48.79899487678,9.1680229753524
2025-04-12T00:33:52,2025-04-12,6,0,Sonstiges,Büchsenstraße,48.777540671108,9.1733278763223
2025-04-12T00:33:52,2025-04-12,6,0,Gefahrenstelle,Hauptmannsreute,48.780111959982,9.1499473276977
2025-04-12T00:33:52,2025-04-12,6,0,Gehweg - Schäden,Kirchtalstraße,48.832995803139,9.1698762891233
2025-04-12T00:33:52,2025-04-12,6,0,Gefahrenstelle,Koppentalstraße,48.788697724189,9.1658102816779
2025-04-12T00:33:52,2025-04-12,6,0,Sonstiges,Wiederholdstraße,48.786464676234,9.167232378196
2025-04-12T00:33:52,2025-04-12,6,0,Straße - Verschmutzung,Uhlbergstraße,48.781763935273,9.2037801313276
2025-04-12T00:33:52,2025-04-12,6,0,Wilder Müll,Vaihinger Landstraße,48.775325316123,9.1267576046144
2025-04-12T00:33:52,2025-04-12,6,0,Sonstiges,Lindpaintnerstraße,48.771160427206,9.1265293651872
2025-04-12T00:33:52,2025-04-12,6,0,Sonstiges,Königstraße,48.782339970735,9.1821109982164
2025-04-12T00:33:52,2025-04-12,6,0,Ampel,In der Nähe von Kronenstraße 34,48.783941971135,9.1758547401568
2025-04-12T00:33:52,2025-04-12,6,0,Wilder Müll,Römerstraße,48.762217649815,9.1752209868888
2025-04-12T00:33:52,2025-04-12,6,0,Gehweg - Verschmutzung,Hofener Straße,48.816655633031,9.2295990281521
2025-04-12T00:33:52,2025-04-12,6,0,Wilder Müll,In der Nähe von Rembrandtstraße 72,48.732868651555,9.1506818083498
2025-04-12T00:33:52,2025-04-12,6,0,Wilder Müll,Nordbahnhofstraße,48.797602616695,9.1898461475798
2025-04-12T00:33:52,2025-04-12,6,0,Wilder Müll,Happoldstraße,48.806168021191,9.1593034279215
2025-04-12T00:33:52,2025-04-12,6,0,Brunnen / Gewässer,In der Nähe von Auquellbrunnen (Neckartalstraße / Mühlsteg),48.810068288104,9.2165259474887
2025-04-12T00:33:52,2025-04-12,6,0,Sonstiges,Kupferstraße,48.727373343148,9.121415455238
2025-04-12T00:33:52,2025-04-12,6,0,Verkehrszeichen,In der Nähe von Altkleider-Container (Bonhoefferweg),48.711327279104,9.1525846085153
2025-04-12T00:33:52,2025-04-12,6,0,Verkehrszeichen,In der Nähe von Altkleider-Container (Bonhoefferweg),48.71129816921,9.152554701937
2025-04-12T00:33:52,2025-04-12,6,0,Sonstiges,In der Nähe von Markus-Schleicher-Straße 15A,48.712142365486,9.1558371592214
2025-04-12T00:33:52,2025-04-12,6,0,Sonstiges,In der Nähe von Markus-Schleicher-Straße 15A,48.712166412915,9.1557628303758
2025-04-12T00:33:52,2025-04-12,6,0,Verkehrszeichen,In der Nähe von Taxistand Zuffenhausen Kelter (Haldenrainstraße),48.830247351006,9.1773924280644
2025-04-12T00:33:52,2025-04-12,6,0,Kanaldeckel,Kupferstraße,48.727373339868,9.1214154552301
2025-04-12T00:33:52,2025-04-12,6,0,Sonstiges,In der Nähe von Steinheimer Straße 24,48.831268927396,9.1792472889822
2025-04-12T00:33:52,2025-04-12,6,0,Radweg - Schäden,König-Karl-Straße,48.801015093097,9.2138127068737
2025-04-12T00:33:52,2025-04-12,6,0,Wilder Müll,Burgstallstraße,48.756615427442,9.1479219247267
2025-04-12T00:33:52,2025-04-12,6,0,Sonstiges,In der Nähe von Zur Uhlandshöhe 18,48.783329010745,9.1959323794579
2025-04-12T00:33:52,2025-04-12,6,0,Sonstiges,In der Nähe von Senefelderstraße 72A,48.776698751231,9.1598974482112
2025-04-12T00:33:52,2025-04-12,6,0,Gefahrenstelle,Hermann-Löns-Weg,48.743138485611,9.2044853293846
2025-04-12T00:33:52,2025-04-12,6,0,Wilder Müll,In der Nähe von Altglas-Container (Amstetter Straße / Manzeller Weg),48.755193580946,9.2587904793197
2025-04-12T00:33:52,2025-04-12,6,0,Wilder Müll,In der Nähe von Am Westkai 63,48.752000043876,9.2624327799058
2025-04-12T00:33:52,2025-04-12,6,0,Straßenbeleuchtung,In der Nähe von Heßbrühlstraße 47,48.723117206318,9.116344269213
2025-04-12T00:33:52,2025-04-12,6,0,Wilder Müll,Alexanderstraße,48.764921423935,9.1778431324225
2025-04-12T00:33:52,2025-04-12,6,0,Wilder Müll,"In der Nähe von Eschbach, Gew. 1",48.846057652259,9.2093764445601
2025-04-12T00:33:52,2025-04-12,6,0,Gehweg - Verschmutzung,Wagenburgstraße,48.779358486982,9.1954262847753
2025-04-12T00:33:52,2025-04-12,6,0,Sonstiges,Fürfelder Straße,48.82928872879,9.190130008631
2025-04-12T01:44:29,2025-04-12,6,1,SSB Haltestelle,In der Nähe von Hackstraße 110A,48.7889729,9.2123115
2025-04-12T05:15:30,2025-04-12,6,5,Wilder Müll,In der Nähe von Wattstraße 7,48.829231441887,9.1646435825995
2025-04-12T07:15:24,2025-04-12,6,7,Gehweg - Verschmutzung,In der Nähe von Manfredstraße 37,48.79275930451,9.2629246455721
2025-04-12T07:15:24,2025-04-12,6,7,Kanaldeckel,In der Nähe von Heilbronner Straße 397,48.821873326924,9.1735943258114
2025-04-12T08:16:27,2025-04-12,6,8,Wilder Müll,Heilbronner Straße,48.797138291986,9.1821237082591
2025-04-12T09:15:56,2025-04-12,6,9,Straßenbeleuchtung,Marc-Chagall-Weg,48.735444752095,9.0898283589801
2025-04-12T09:15:56,2025-04-12,6,9,Wilder Müll,Duisburger Straße,48.809040736653,9.2131249694397
2025-04-12T09:15:56,2025-04-12,6,9,Wilder Müll,Wiener Straße,48.81004431318,9.1578262833541
2025-04-12T09:15:56,2025-04-12,6,9,Begrünung,Wiener Straße,48.811020741689,9.1572627107255
2025-04-12T09:15:56,2025-04-12,6,9,Kanaldeckel,In der Nähe von Haldenäckerstraße 30,48.721347729506,9.1056116974609
2025-04-12T10:15:33,2025-04-12,6,10,Begrünung,Margaretenstraße,48.785907374701,9.2553247555321
2025-04-12T10:15:33,2025-04-12,6,10,Sonstiges,In der Nähe von Gerätespielfläche (Kausler-/ Rudolf-Weisser-Weg),48.725244253618,9.136684233624
2025-04-12T11:14:59,2025-04-12,6,11,Sonstiges,Olgastraße,48.773134075647,9.1840103549548
2025-04-12T11:14:59,2025-04-12,6,11,Sonstiges,Wurmlinger Straße,48.742137580227,9.1636439973457
2025-04-12T12:17:03,2025-04-12,6,12,Wilder Müll,In der Nähe von Heumadener Straße 6,48.758308627484,9.2546166716803
2025-04-12T12:17:03,2025-04-12,6,12,Wilder Müll,Höfinger Straße,48.813550865024,9.1072666983147
2025-04-12T15:15:27,2025-04-12,6,15,Wilder Müll,In der Nähe von Suttnerstraße 38,48.8413296,9.201648
2025-04-12T17:15:10,2025-04-12,6,17,Gehweg - Schäden,Möhringer Straße,48.757971870055,9.1494361888756
2025-04-12T17:15:10,2025-04-12,6,17,Ampel,In der Nähe von Schillerstraße 5,48.781381730482,9.1862517146811
2025-04-12T18:16:24,2025-04-12,6,18,Wilder Müll,Happoldstraße,48.806168021191,9.1593034279215
2025-04-12T18:16:24,2025-04-12,6,18,Poller,In der Nähe von Toilettenanlage (Lautenschlagerstraße 20/1),48.78142990877,9.1784475969168
2025-04-12T22:15:33,2025-04-12,6,22,Straßenbeleuchtung,In der Nähe von Am Neckartor 2,48.786815857701,9.1891893438791
2025-04-12T22:15:33,2025-04-12,6,22,Sonstiges,Lindpaintnerstraße,48.770882568206,9.1256032124525
