first_seen_at_timestamp,first_seen_date,first_seen_weekday,first_seen_hour,category,location,lat,lon
2025-06-27T00:38:27,2025-06-27,5,0,Sonstiges,In der Nähe von Rotenbergstraße 97,48.787638750417,9.2092370991757
2025-06-27T00:38:27,2025-06-27,5,0,Ampel,In der Nähe von Rotenwaldstraße 140,48.768078330577,9.1468646659656
2025-06-27T00:38:27,2025-06-27,5,0,Sonstiges,In der Nähe von Thomastraße 109,48.806593111248,9.1702089472128
2025-06-27T00:38:27,2025-06-27,5,0,Gefahrenstelle,In der Nähe von Höhenpark Killesberg (Aussichtsturm),48.805112290514,9.1713662639396
2025-06-27T00:38:27,2025-06-27,5,0,Straßenbeleuchtung,In der Nähe von Pflugfelder Straße 32,48.853001066472,9.1526941527756
2025-06-27T00:38:27,2025-06-27,5,0,Gefahrenstelle,In der Nähe von Skulptur Der Mönch von Münster (Jagststraße / Schussengasse),48.819928400058,9.2244613727922
2025-06-27T00:38:27,2025-06-27,5,0,Gehweg - Verschmutzung,Heusteigstraße,48.770872181553,9.1807902173851
2025-06-27T00:38:27,2025-06-27,5,0,Sonstiges,Lehenstraße,48.762303528912,9.1719555307809
2025-06-27T00:38:27,2025-06-27,5,0,Sonstiges,In der Nähe von Sigrid Zaiß (Luise-Benger-Straße 54),48.777107093224,9.2828084266602
2025-06-27T00:38:27,2025-06-27,5,0,Wilder Müll,Pfefferstraße,48.745855178905,9.2351391661885
2025-06-27T00:38:27,2025-06-27,5,0,Straßenbeleuchtung,In der Nähe von Württembergische Landesbibliothek (Konrad-Adenauer-Straße 8),48.777415598427,9.1850491567642
2025-06-27T00:38:27,2025-06-27,5,0,Gefahrenstelle,Schützenstraße,48.782370559474,9.1910002261046
2025-06-27T00:38:27,2025-06-27,5,0,Wilder Müll,In der Nähe von Unterländer Straße 49,48.832162320052,9.1704716523544
2025-06-27T00:38:27,2025-06-27,5,0,Kanaldeckel,Welzheimer Straße,48.782164969646,9.2157473039286
2025-06-27T00:38:27,2025-06-27,5,0,Radweg - Verschmutzung,In der Nähe von Gerlinger Straße 153,48.81109623864,9.0843469254297
2025-06-27T00:38:27,2025-06-27,5,0,Gefahrenstelle,In der Nähe von Baubüro Rosensteintunnel (Neckartalstraße 42/1),48.803466133647,9.2084093047565
2025-06-27T00:38:27,2025-06-27,5,0,Begrünung,Bolzstraße,48.779954234824,9.1775014835042
2025-06-27T00:38:27,2025-06-27,5,0,Gefahrenstelle,In der Nähe von Skulptur Der Mönch von Münster (Jagststraße / Schussengasse),48.819926372742,9.2244617642459
2025-06-27T00:38:27,2025-06-27,5,0,Gehweg - Schäden,Krefelder Straße,48.810945577121,9.2150425218974
2025-06-27T00:38:27,2025-06-27,5,0,Wilder Müll,Freytagweg,48.710756691282,9.1591243542312
2025-06-27T00:38:27,2025-06-27,5,0,Sonstiges,Römerstraße,48.765390798071,9.1708502027359
2025-06-27T00:38:27,2025-06-27,5,0,Wilder Müll,In der Nähe von Urbanstraße 11,48.776920685302,9.1847988174744
2025-06-27T00:38:27,2025-06-27,5,0,Straße - Schäden,"In der Nähe von Hinterer Haarwald, Gew. 2",48.739269288642,9.1144399334417
2025-06-27T00:38:27,2025-06-27,5,0,Sonstiges,Trollingerstraße,48.777191082831,9.2782697652596
2025-06-27T00:38:27,2025-06-27,5,0,Sonstiges,Alexanderstraße,48.765128036455,9.1780343750105
2025-06-27T00:38:27,2025-06-27,5,0,Straße - Schäden,In der Nähe von Fasanenhofstraße 17,48.71274769333,9.1624659043438
2025-06-27T00:38:27,2025-06-27,5,0,Wilder Müll,Adlerstraße,48.763152723903,9.1633176414031
2025-06-27T00:38:27,2025-06-27,5,0,Wilder Müll,Fritz-Reuter-Straße,48.775113297232,9.1462613047582
2025-06-27T00:38:27,2025-06-27,5,0,Begrünung,Alosenweg,48.758986719964,9.2533650272606
2025-06-27T00:38:27,2025-06-27,5,0,Sonstiges,In der Nähe von Schädleweg 16,48.733258100072,9.1216039510716
2025-06-27T00:38:27,2025-06-27,5,0,Straßenbeleuchtung,In der Nähe von Schädleweg 16,48.733168426965,9.1218498140198
2025-06-27T00:38:27,2025-06-27,5,0,Gehweg - Schäden,In der Nähe von Festplatz Hofen (Mühlhäuser Straße),48.836773671144,9.2225027829001
2025-06-27T00:38:27,2025-06-27,5,0,Gefahrenstelle,Weilimdorfer Straße,48.813464004328,9.1381592757506
2025-06-27T00:38:27,2025-06-27,5,0,Wilder Müll,In der Nähe von Eberhardstraße 37,48.772883787222,9.1786599403458
2025-06-27T00:38:27,2025-06-27,5,0,Poller,In der Nähe von Treffpunkt Wendeplatte Regenpfeiferweg (Regenpfeiferweg),48.830227591899,9.2349138620433
2025-06-27T00:38:27,2025-06-27,5,0,Ampel,Jägerhalde,48.778090975981,9.2330557770181
2025-06-27T00:38:27,2025-06-27,5,0,Sonstiges,Wilhelmstraße (Ca),48.805696977028,9.2164883248854
2025-06-27T00:38:27,2025-06-27,5,0,Straßenbeleuchtung,Forststraße,48.777860865082,9.1570496061773
2025-06-27T00:38:27,2025-06-27,5,0,Sonstiges,Römerstraße,48.764288569575,9.1740034846867
2025-06-27T00:38:27,2025-06-27,5,0,Sonstiges,Zeppelinstraße,48.783469187431,9.1473337869146
2025-06-27T05:16:08,2025-06-27,5,5,Wilder Müll,In der Nähe von Marienplatz 1,48.764764548431,9.1679429903902
2025-06-27T05:16:08,2025-06-27,5,5,Straßeneinlauf - verstopft,Hornbergstraße,48.780396455747,9.2137659544227
2025-06-27T06:17:03,2025-06-27,5,6,Sonstiges,In der Nähe von Planckstraße 2,48.777484663329,9.202993345498
2025-06-27T07:15:59,2025-06-27,5,7,Verkehrszeichen,Alte Weinsteige,48.759061015346,9.1685428538893
2025-06-27T07:15:59,2025-06-27,5,7,Sonstiges,Rathausplatz,48.731325249318,9.1098114700393
