first_seen_at_timestamp,first_seen_date,first_seen_weekday,first_seen_hour,category,location,lat,lon
2025-12-28T00:44:53,2025-12-28,7,0,Gehweg - Verschmutzung,Reinsburgstraße,48.768277638652,9.1588841419193
2025-12-28T00:44:53,2025-12-28,7,0,Poller,Ottmarsheimer Straße,48.846401905004,9.1642076178205
2025-12-28T00:44:53,2025-12-28,7,0,Sonstiges,Strombergstraße,48.7828349,9.206521
2025-12-28T00:44:53,2025-12-28,7,0,Gefahrenstelle,Pliensäckerstraße,48.834309336023,9.1821630184612
2025-12-28T00:44:53,2025-12-28,7,0,Gefahrenstelle,In der Nähe von Kelterstraße 24,48.759558,9.1555273
2025-12-28T00:44:53,2025-12-28,7,0,Wilder Müll,Gutenbergstraße,48.773864993806,9.1646862068437
2025-12-28T00:44:53,2025-12-28,7,0,Straße - Schäden,Musberger Straße,48.716185284415,9.0884481731011
2025-12-28T00:44:53,2025-12-28,7,0,Wilder Müll,In der Nähe von Bergheimer Straße 33,48.813175612567,9.1073617472844
2025-12-28T00:44:53,2025-12-28,7,0,Sonstiges,Musberger Straße,48.716275276223,9.0884075461965
2025-12-28T00:44:53,2025-12-28,7,0,Sonstiges,In der Nähe von Asperger Straße 49,48.854049321475,9.1560052088325
2025-12-28T00:44:53,2025-12-28,7,0,Sonstiges,Uhlandstraße,48.77514345504,9.1875565019853
2025-12-28T00:44:53,2025-12-28,7,0,Radweg - Schäden,In der Nähe von Neue Weinsteige 5/1,48.766055661095,9.1787312172367
2025-12-28T00:44:53,2025-12-28,7,0,Wilder Müll,In der Nähe von Heumadener Straße 6,48.758300402636,9.2546322148482
2025-12-28T00:44:53,2025-12-28,7,0,Wilder Müll,In der Nähe von Moselstraße 34,48.822268700105,9.2210683713272
2025-12-28T00:44:53,2025-12-28,7,0,Ampel,In der Nähe von Filderstraße 59A,48.763642290743,9.1688112354791
2025-12-28T00:44:53,2025-12-28,7,0,Sonstiges,Taubenheimstraße,48.807311156715,9.223863417399
2025-12-28T00:44:53,2025-12-28,7,0,Wilder Müll,In der Nähe von Musberger Straße 90A,48.716136520284,9.088530585027
2025-12-28T00:44:53,2025-12-28,7,0,Wilder Müll,Albert-Schäffle-Straße,48.77003776497,9.2011741078936
2025-12-28T00:44:53,2025-12-28,7,0,Straßenbeleuchtung,In der Nähe von Ackermannstraße 42,48.726308084887,9.1064568565671
2025-12-28T00:44:53,2025-12-28,7,0,Straßenbeleuchtung,In der Nähe von Schönbuchstraße 14,48.717428479584,9.1060639627872
2025-12-28T00:44:53,2025-12-28,7,0,Wilder Müll,Schützenbühlstraße,48.834231373029,9.1620768610943
2025-12-28T00:44:53,2025-12-28,7,0,Wilder Müll,Schützenbühlstraße,48.834103739224,9.163275602954
2025-12-28T00:44:53,2025-12-28,7,0,Begrünung,Marconistraße,48.831961919119,9.157382140375
2025-12-28T00:44:53,2025-12-28,7,0,Wilder Müll,Pforzheimer Straße,48.814007828896,9.1183281641239
2025-12-28T00:44:53,2025-12-28,7,0,Wilder Müll,In der Nähe von Gaisburgstraße 27,48.775982299887,9.1881941952638
2025-12-28T00:44:53,2025-12-28,7,0,Wilder Müll,In der Nähe von Moselstraße Festwiese,48.822490783012,9.2205709281406
2025-12-28T00:44:53,2025-12-28,7,0,Gefahrenstelle,Musberger Straße,48.716185281138,9.0884481730953
2025-12-28T00:44:53,2025-12-28,7,0,Ampel,Schwabstraße,48.7822052698,9.1575259915928
2025-12-28T00:44:53,2025-12-28,7,0,Sonstiges,Sulzauer Straße,48.735400185997,9.1100923455665
2025-12-28T00:44:53,2025-12-28,7,0,Wilder Müll,In der Nähe von Urbacher Straße 28,48.8067649,9.2532563
2025-12-28T00:44:53,2025-12-28,7,0,Sonstiges,Wildensteinstraße,48.805157605864,9.1548059904263
2025-12-28T00:44:53,2025-12-28,7,0,Wilder Müll,In der Nähe von Robert-Koch-Straße 102,48.721533438356,9.1069197360253
2025-12-28T00:44:53,2025-12-28,7,0,Wilder Müll,In der Nähe von Normannstraße / Kaisersbacher Straße,48.807959449236,9.2496918416259
2025-12-28T00:44:53,2025-12-28,7,0,Wilder Müll,Hedelfinger Straße,48.770958192459,9.2460760392227
2025-12-28T00:44:53,2025-12-28,7,0,Wilder Müll,Hedelfinger Straße,48.76896767941,9.2471958698054
2025-12-28T00:44:53,2025-12-28,7,0,Wilder Müll,In der Nähe von Hartwaldstraße / Kelterplatz,48.835968756815,9.2247508401317
2025-12-28T00:44:53,2025-12-28,7,0,Straßenbeleuchtung,Heslacher Wand,48.756982022137,9.142562287452
2025-12-28T00:44:53,2025-12-28,7,0,Treppe,"In der Nähe von Hohewart, Gew.",48.799813929635,9.1276981501407
2025-12-28T00:44:53,2025-12-28,7,0,Gehweg - Schäden,In der Nähe von Ehrlichweg 2,48.71162608879,9.1496670970405
2025-12-28T00:44:53,2025-12-28,7,0,Verkehrszeichen,In der Nähe von Burgstallstraße 122,48.755200396989,9.1422719577978
2025-12-28T01:45:40,2025-12-28,7,1,Wilder Müll,Mahatma-Gandhi-Straße,48.818173504732,9.1915312640625
2025-12-28T07:16:15,2025-12-28,7,7,Straßenbeleuchtung,Parlerstraße,48.792183691754,9.1688852309175
2025-12-28T09:16:06,2025-12-28,7,9,Begrünung,Pfahlbronner Straße,48.783182930046,9.2149893413587
2025-12-28T11:16:01,2025-12-28,7,11,Sonstiges,Bebelstraße,48.774625679908,9.1477026160558
2025-12-28T12:17:41,2025-12-28,7,12,Wilder Müll,Hasenbergsteige,48.766953555249,9.1600911272179
2025-12-28T14:15:55,2025-12-28,7,14,Gefahrenstelle,In der Nähe von Hofener Straße 90,48.8129572,9.2228716
2025-12-28T15:15:57,2025-12-28,7,15,Wilder Müll,Olgastraße,48.768597976793,9.1796525050186
2025-12-28T15:15:57,2025-12-28,7,15,Gehweg - Verschmutzung,In der Nähe von Wiesenäckerstraße 30,48.7364761,9.2197702
2025-12-28T15:15:57,2025-12-28,7,15,Sonstiges,In der Nähe von Falchstraße 3,48.826239062297,9.2336757581395
2025-12-28T15:15:57,2025-12-28,7,15,Sonstiges,In der Nähe von Steinhaldenstraße 173/1,48.827584313707,9.2319065183639
2025-12-28T15:15:57,2025-12-28,7,15,Sonstiges,In der Nähe von Kormoranstraße / Sturmvogelweg,48.832295322804,9.2370873755604
2025-12-28T15:15:57,2025-12-28,7,15,Sonstiges,In der Nähe von Schmollerstraße 99,48.82945372543,9.231409780545
2025-12-28T15:15:57,2025-12-28,7,15,Gehweg - Verschmutzung,In der Nähe von Austraße 91,48.823691699825,9.2212902711733
2025-12-28T16:16:36,2025-12-28,7,16,Ampel,Roter Stich,48.825266618369,9.1889015443642
2025-12-28T17:15:41,2025-12-28,7,17,SSB Haltestelle,In der Nähe von Am Schwanenplatz 8/1,48.797045830624,9.2057693744067
2025-12-28T17:15:41,2025-12-28,7,17,Brunnen / Gewässer,In der Nähe von Lindenbachstraße 75,48.815647617514,9.1242760238513
2025-12-28T17:15:41,2025-12-28,7,17,Sonstiges,In der Nähe von Marienplatz,48.763899127348,9.1681418461673
2025-12-28T17:15:41,2025-12-28,7,17,Gehweg - Verschmutzung,In der Nähe von Neckartalstraße 327,48.820748194082,9.2264592705262
