first_seen_at_timestamp,first_seen_date,first_seen_weekday,first_seen_hour,category,location,lat,lon
2025-11-26T00:37:34,2025-11-26,3,0,Gehweg - Schäden,In der Nähe von Bofistweg 2A,48.733919115453,9.1996865103431
2025-11-26T00:37:34,2025-11-26,3,0,Sonstiges,In der Nähe von Kriegsbergstraße 60,48.782464348316,9.1717618366447
2025-11-26T00:37:34,2025-11-26,3,0,Sonstiges,Schwarzwaldstraße,48.741458068175,9.124292126937
2025-11-26T00:37:34,2025-11-26,3,0,Gefahrenstelle,Taläckerstraße,48.838136484679,9.1908714582097
2025-11-26T00:37:34,2025-11-26,3,0,Wilder Müll,Fleiner Straße,48.832933472545,9.1874587116213
2025-11-26T00:37:34,2025-11-26,3,0,Wilder Müll,"Steinröhre, Gew.",48.817575761288,9.0806165231347
2025-11-26T00:37:34,2025-11-26,3,0,Wilder Müll,In der Nähe von Nordbahnhofstraße 60,48.795683190292,9.1900857364712
2025-11-26T00:37:34,2025-11-26,3,0,Wilder Müll,In der Nähe von Gaisburgstraße 27,48.776068711588,9.1882925380956
2025-11-26T00:37:34,2025-11-26,3,0,Ampel,In der Nähe von Vaihinger Straße 92/2,48.727828201613,9.1393813268727
2025-11-26T00:37:34,2025-11-26,3,0,Wilder Müll,Wagrainstraße,48.829358205165,9.2154320737922
2025-11-26T00:37:34,2025-11-26,3,0,Gehweg - Verschmutzung,In der Nähe von Hausenring 9,48.814327566914,9.0857132364997
2025-11-26T00:37:34,2025-11-26,3,0,Gehweg - Verschmutzung,In der Nähe von Weberstraße 8,48.7716838,9.1789978
2025-11-26T00:37:34,2025-11-26,3,0,Wilder Müll,Eybacher Straße,48.773323268319,9.2464822959421
2025-11-26T00:37:34,2025-11-26,3,0,Ampel,In der Nähe von Vaihinger Straße 111,48.727899444234,9.139002006628
2025-11-26T00:37:34,2025-11-26,3,0,Sonstiges,Spreuergasse,48.804186260685,9.2161685936682
2025-11-26T00:37:34,2025-11-26,3,0,Treppe,Nachtigallenweg,48.756174924444,9.140491944321
2025-11-26T00:37:34,2025-11-26,3,0,Wilder Müll,In der Nähe von Eckartstraße 20,48.795346826542,9.1918179536642
2025-11-26T00:37:34,2025-11-26,3,0,Wilder Müll,In der Nähe von Nordbahnhofstraße 92,48.79836450951,9.1902593878103
2025-11-26T00:37:34,2025-11-26,3,0,SSB Haltestelle,Haußmannstraße,48.785736574119,9.2023159442411
2025-11-26T00:37:34,2025-11-26,3,0,Wilder Müll,Marco-Polo-Weg,48.843400138825,9.1540788068387
2025-11-26T00:37:34,2025-11-26,3,0,SSB Haltestelle,In der Nähe von Florentiner Straße 20/4,48.73950325957,9.2146118937034
2025-11-26T00:37:34,2025-11-26,3,0,Verkehrszeichen,Scheffelstraße,48.774256392319,9.1480554067914
2025-11-26T00:37:34,2025-11-26,3,0,Sonstiges,In der Nähe von Wiederholdstraße 4,48.785771832599,9.1672265370812
2025-11-26T00:37:34,2025-11-26,3,0,Wilder Müll,Ludwigsburger Straße,48.829274595893,9.1744327698845
2025-11-26T00:37:34,2025-11-26,3,0,Wilder Müll,Ludwigsburger Straße,48.829274595893,9.1744327698845
2025-11-26T00:37:34,2025-11-26,3,0,Gefahrenstelle,Mittenfeldstraße,48.80475623797,9.0930163076742
2025-11-26T00:37:34,2025-11-26,3,0,Straßenbeleuchtung,Stuttgarter Straße,48.808816024694,9.1569691945928
2025-11-26T00:37:34,2025-11-26,3,0,Schlagloch,In der Nähe von Schwabstraße 78,48.776954117295,9.1558581700354
2025-11-26T00:37:34,2025-11-26,3,0,Gefahrenstelle,In der Nähe von Burgholzstraße 111,48.821973237682,9.1995699828856
2025-11-26T00:37:34,2025-11-26,3,0,Straße - Verschmutzung,In der Nähe von Bessemerstraße 2,48.829034055305,9.1656306091601
2025-11-26T00:37:34,2025-11-26,3,0,Straße - Verschmutzung,In der Nähe von Johannesstraße 74,48.780448142678,9.1596439984969
2025-11-26T00:37:34,2025-11-26,3,0,Straßenbeleuchtung,In der Nähe von Herschelstraße 46A,48.717030528933,9.123924710577
2025-11-26T00:37:34,2025-11-26,3,0,Wilder Müll,In der Nähe von Korntaler Straße 77/1,48.843335748769,9.1532739118825
2025-11-26T00:37:34,2025-11-26,3,0,Sonstiges,Harmstraße,48.745714277514,9.1598876254989
2025-11-26T00:37:34,2025-11-26,3,0,Sonstiges,Im Buchwald,48.773477823528,9.2092587801135
2025-11-26T00:37:34,2025-11-26,3,0,Ampel,In der Nähe von Steinhaldenstraße 32/1,48.818383034309,9.2366729916887
2025-11-26T00:37:34,2025-11-26,3,0,Sonstiges,Lindenschulstraße,48.777406283715,9.2511846073867
2025-11-26T00:37:34,2025-11-26,3,0,Straßenbeleuchtung,Luisenstraße,48.785660138064,9.2132029235494
2025-11-26T00:37:34,2025-11-26,3,0,Bäder,Am Schwanenplatz,48.796441087068,9.2061680018191
2025-11-26T00:37:34,2025-11-26,3,0,Sonstiges,Burgstallstraße,48.758633777079,9.1523362981154
2025-11-26T08:16:56,2025-11-26,3,8,Gefahrenstelle,Tiefenbachstraße,48.755864471489,9.2278116519453
2025-11-26T08:16:56,2025-11-26,3,8,Wilder Müll,In der Nähe von Hausenring 61/2,48.816859607567,9.0808142120961
2025-11-26T08:16:56,2025-11-26,3,8,Sonstiges,Am Bergwald,48.756557113469,9.2453662228671
2025-11-26T09:16:25,2025-11-26,3,9,Sonstiges,In der Nähe von Nansenweg 18,48.847021519087,9.1544641473675
2025-11-26T09:16:25,2025-11-26,3,9,Wilder Müll,Katharinenstraße,48.771997124088,9.1805084476815
2025-11-26T09:16:25,2025-11-26,3,9,Sonstiges,In der Nähe von Bebelstraße 22,48.7753551,9.1553547
2025-11-26T10:16:30,2025-11-26,3,10,Ampel,Mühlhäuser Straße,48.834713553353,9.2187254952222
2025-11-26T11:15:44,2025-11-26,3,11,Sonstiges,In der Nähe von Marbacher Straße 83,48.835729289594,9.1759184522828
2025-11-26T12:17:44,2025-11-26,3,12,Sonstiges,Künzelsauer Straße,48.826140434032,9.1767925700593
2025-11-26T12:17:44,2025-11-26,3,12,Sonstiges,Am Schwanenplatz,48.796034713916,9.2070377884757
2025-11-26T12:17:44,2025-11-26,3,12,Wilder Müll,Seyfferstraße,48.77434950849,9.1525335564628
2025-11-26T12:17:44,2025-11-26,3,12,Sonstiges,In der Nähe von Hauptstätter Straße 34,48.7734607,9.179153
2025-11-26T13:23:06,2025-11-26,3,13,Wilder Müll,In der Nähe von Elbestraße 70,48.822413056935,9.2164951527112
2025-11-26T13:23:06,2025-11-26,3,13,Wilder Müll,In der Nähe von Rosensteinstraße 29/1,48.794971235576,9.1929647083437
2025-11-26T14:16:18,2025-11-26,3,14,Sonstiges,Klara-Neuburger-Straße,48.73870271001,9.221844881346
2025-11-26T14:16:18,2025-11-26,3,14,Sonstiges,In der Nähe von Calwer Straße 45,48.774899210029,9.1729337546466
2025-11-26T16:16:42,2025-11-26,3,16,Wilder Müll,Im Degen,48.778559805488,9.2285949198035
2025-11-26T16:16:42,2025-11-26,3,16,Sonstiges,Fliegenweg,48.848122597636,9.1543522756626
2025-11-26T16:16:42,2025-11-26,3,16,Sonstiges,In der Nähe von Bebelstraße 83,48.77456440836,9.1477040134113
2025-11-26T17:15:43,2025-11-26,3,17,Wilder Müll,In der Nähe von Trollingerstraße 46,48.780064344114,9.2791875628632
