first_seen_at_timestamp,first_seen_date,first_seen_weekday,first_seen_hour,category,location,lat,lon
2025-01-06T00:33:42,2025-01-06,1,0,Wilder Müll,In der Nähe von Altglas-Container (Kniebisstraße / Strombergstraße),48.782659117128,9.2051887914467
2025-01-06T00:33:42,2025-01-06,1,0,Wilder Müll,In der Nähe von Strombergstraße 11,48.782717171896,9.2071659450918
2025-01-06T00:33:42,2025-01-06,1,0,Straße - Verschmutzung,Landsknechtstraße 7,48.842242615668,9.1938581731598
2025-01-06T00:33:42,2025-01-06,1,0,Gehweg - Verschmutzung,In der Nähe von Im Lerchenrain 6,48.758386226185,9.1537530804711
2025-01-06T00:33:42,2025-01-06,1,0,Wilder Müll,Fritz-Reuter-Straße 13,48.774285687978,9.1462452901252
2025-01-06T00:33:42,2025-01-06,1,0,Sonstiges,In der Nähe von Feuerseeanlage Vaihingen (Vollmoellerstraße / Freibadstraße),48.727794194757,9.1033756194043
2025-01-06T00:33:42,2025-01-06,1,0,Wilder Müll,Reinsburgstraße 162,48.768926908487,9.1510337397702
2025-01-06T00:33:42,2025-01-06,1,0,Straßeneinlauf - verstopft,Herdweg 37,48.785567647167,9.1654561556546
2025-01-06T00:33:42,2025-01-06,1,0,Wilder Müll,In der Nähe von Wildparkstraße 35,48.765328156324,9.116520163273
2025-01-06T00:33:42,2025-01-06,1,0,Wilder Müll,Augustenstraße 10,48.772419538521,9.1689005932026
2025-01-06T00:33:42,2025-01-06,1,0,Straßeneinlauf - verstopft,Fred-Uhlman-Straße 24,48.737413245443,9.218724670477
2025-01-06T00:33:42,2025-01-06,1,0,Verkehrszeichen,In der Nähe von Altkleider-Container (Lindenschulstraße / Zum Ölhafen),48.776344081248,9.2488068496149
2025-01-06T00:33:42,2025-01-06,1,0,Wilder Müll,Lindenschulstraße 37,48.776673173902,9.249084824394
2025-01-06T00:33:42,2025-01-06,1,0,Sonstiges,Heerstraße 21,48.732216154434,9.0995868224345
2025-01-06T00:33:42,2025-01-06,1,0,Gehweg - Verschmutzung,In der Nähe von Landhausstraße 226,48.783874846043,9.2158414366672
2025-01-06T00:33:42,2025-01-06,1,0,Gehweg - Schäden,Büsnauer Straße 14,48.734771126801,9.0994694697714
2025-01-06T00:33:42,2025-01-06,1,0,Sonstiges,Gutenbergstraße 11,48.773478499006,9.1644535671187
2025-01-06T00:33:42,2025-01-06,1,0,Wilder Müll,In der Nähe von Altglas-Container (Mönchsbergstraße / Markelsheimer Straße),48.828899358929,9.1838248885421
2025-01-06T00:33:42,2025-01-06,1,0,Verkehrszeichen,"In der Nähe von Bandtäle, Gew. 3/1",48.7487652,9.0895183
2025-01-06T00:33:42,2025-01-06,1,0,Wilder Müll,"In der Nähe von Sauhalde, Gew. 3",48.8418700783,9.1709970206316
2025-01-06T00:33:42,2025-01-06,1,0,Sonstiges,In der Nähe von Eulerstraße 15E,48.7170401,9.1202193
2025-01-06T00:33:42,2025-01-06,1,0,Wilder Müll,Lindenschulstraße 37,48.776673170607,9.2490848243777
2025-01-06T00:33:42,2025-01-06,1,0,Gefahrenstelle,In der Nähe von Steinheimer Straße 24,48.8316289,9.1789412
2025-01-06T00:33:42,2025-01-06,1,0,Gefahrenstelle,In der Nähe von Steinheimer Straße 24,48.8313073,9.1789201
2025-01-06T00:33:42,2025-01-06,1,0,Gefahrenstelle,In der Nähe von Bottwarstraße 24,48.8309484,9.1774139
2025-01-06T00:33:42,2025-01-06,1,0,Wilder Müll,In der Nähe von Bergstraße 58,48.776275626313,9.2095222252345
2025-01-06T00:33:42,2025-01-06,1,0,Wilder Müll,Kniebisstraße 38,48.782715646091,9.2048321722892
2025-01-06T00:33:42,2025-01-06,1,0,Gefahrenstelle,In der Nähe von Kocherstraße 22,48.820554456564,9.2236029125672
2025-01-06T00:33:42,2025-01-06,1,0,Gehweg - Verschmutzung,Pfennigäcker 14,48.740462910701,9.2280004696458
2025-01-06T00:33:42,2025-01-06,1,0,Wilder Müll,In der Nähe von Altglas-Container (Jobstweg / Rotebühlbau),48.775895325006,9.169680377059
2025-01-06T00:33:42,2025-01-06,1,0,Wilder Müll,In der Nähe von Jobstweg 7,48.775539651433,9.1691032007641
2025-01-06T00:33:42,2025-01-06,1,0,Sonstiges,Schwarzwaldstraße 91,48.741072742635,9.1228902145387
2025-01-06T00:33:42,2025-01-06,1,0,Straßenbeleuchtung,Fleiner Straße 14,48.832818007616,9.1865453121284
2025-01-06T00:33:42,2025-01-06,1,0,Wilder Müll,Schrozberger Straße 11,48.82625215688,9.1743132826935
2025-01-06T00:33:42,2025-01-06,1,0,Gehweg - Schäden,Rotweg 188,48.835623840942,9.1978662728915
2025-01-06T00:33:42,2025-01-06,1,0,Gefahrenstelle,Fleiner Straße 39A,48.833559009108,9.190009219587
2025-01-06T00:33:42,2025-01-06,1,0,Ampel,In der Nähe von Schildkrötenweg 2,48.802596573466,9.0870975852103
2025-01-06T00:33:42,2025-01-06,1,0,Straßenbeleuchtung,In der Nähe von Heidlochstraße 52,48.823164646655,9.1981871103226
2025-01-06T00:33:42,2025-01-06,1,0,Verkehrszeichen,Johannesstraße 74,48.780448142678,9.1596439984969
2025-01-06T00:33:42,2025-01-06,1,0,Sonstiges,Gänsheidestraße 29,48.774951319016,9.1949191919478
2025-01-06T09:15:50,2025-01-06,1,9,Wilder Müll,In der Nähe von Altkleider-Container (Haldenrainstraße / Kelterplatz Parkplatz),48.829995186868,9.1770453902204
2025-01-06T09:15:50,2025-01-06,1,9,Wilder Müll,In der Nähe von Hans-Vaut-Straße 27,48.826898540463,9.1754314752381
2025-01-06T09:15:50,2025-01-06,1,9,Wilder Müll,In der Nähe von Schrozberger Straße 15/1,48.826294995366,9.1745596691661
2025-01-06T09:15:50,2025-01-06,1,9,Wilder Müll,Künzelsauer Straße 12,48.826556514073,9.1774842082599
