first_seen_at_timestamp,first_seen_date,first_seen_weekday,first_seen_hour,category,location,lat,lon
2025-05-08T00:36:10,2025-05-08,4,0,Wilder Müll,In der Nähe von Steinheimer Straße 24,48.831735,9.1791879
2025-05-08T00:36:10,2025-05-08,4,0,Wilder Müll,Duisburger Straße,48.809040736653,9.2131249694397
2025-05-08T00:36:10,2025-05-08,4,0,Poller,In der Nähe von Reuchlinstraße 26,48.771295408376,9.1594588231329
2025-05-08T00:36:10,2025-05-08,4,0,Wilder Müll,In der Nähe von Altglas-Container (Moselstraße Festwiese),48.8224214,9.2206953
2025-05-08T00:36:10,2025-05-08,4,0,Sonstiges,Gablenberger Hauptstraße,48.780874900584,9.207941906724
2025-05-08T00:36:10,2025-05-08,4,0,Wilder Müll,Johannesstraße,48.779539324442,9.1598044600439
2025-05-08T00:36:10,2025-05-08,4,0,Sonstiges,In der Nähe von In den Weinbergen 5,48.843181172463,9.1506003827636
2025-05-08T00:36:10,2025-05-08,4,0,Sonstiges,Haußmannstraße,48.785933819567,9.2061657983587
2025-05-08T00:36:10,2025-05-08,4,0,Wilder Müll,Oswald-Hesse-Straße,48.808815794496,9.1636020810015
2025-05-08T00:36:10,2025-05-08,4,0,Wilder Müll,Linzer Straße,48.815307689465,9.1527939926759
2025-05-08T00:36:10,2025-05-08,4,0,Gehweg - Verschmutzung,In der Nähe von Möhringer Straße 142,48.758716858334,9.1509232796614
2025-05-08T00:36:10,2025-05-08,4,0,Ampel,In der Nähe von Augustenstraße 88,48.769313685106,9.1589622395123
2025-05-08T00:36:10,2025-05-08,4,0,Sonstiges,In der Nähe von Landhausstraße 186,48.785243532329,9.2103119896241
2025-05-08T00:36:10,2025-05-08,4,0,Verkehrszeichen,In der Nähe von Wernerstraße 18,48.8157212,9.1663623
2025-05-08T00:36:10,2025-05-08,4,0,Wilder Müll,Am Wammesknopf,48.853898697073,9.1468860000643
2025-05-08T00:36:10,2025-05-08,4,0,Sonstiges,Züttlinger Straße,48.835909689884,9.1990393411669
2025-05-08T00:36:10,2025-05-08,4,0,Rolltreppe,In der Nähe von Büchsenstraße 20,48.777459345781,9.1736995417857
2025-05-08T00:36:10,2025-05-08,4,0,Gefahrenstelle,In der Nähe von Skulptur Der Mönch von Münster (Jagststraße / Schussengasse),48.819934869828,9.2244655252445
2025-05-08T00:36:10,2025-05-08,4,0,Sonstiges,Büsnauer Straße,48.735239539704,9.0987495938045
2025-05-08T00:36:10,2025-05-08,4,0,Radweg - Scherben,In der Nähe von Poststraße 39/1,48.797474238897,9.2129366562031
2025-05-08T00:36:10,2025-05-08,4,0,Sonstiges,In der Nähe von Inselstraße 140,48.777676844198,9.2465730323277
2025-05-08T00:36:10,2025-05-08,4,0,Gefahrenstelle,Kissinger Straße,48.802925966297,9.2305441054826
2025-05-08T00:36:10,2025-05-08,4,0,Sonstiges,Kolumbusstraße,48.846079942674,9.1547957876281
2025-05-08T00:36:10,2025-05-08,4,0,Wilder Müll,In der Nähe von In den Entenäckern 14C,48.697121288903,9.2178081583688
2025-05-08T00:36:10,2025-05-08,4,0,Wilder Müll,In der Nähe von Herzkirschenweg 40,48.8404763,9.1934362
2025-05-08T00:36:10,2025-05-08,4,0,Wilder Müll,In der Nähe von Böblinger Straße 276/2,48.753104624944,9.1386234029412
2025-05-08T00:36:10,2025-05-08,4,0,Sonstiges,Böcklerstraße,48.760898969883,9.1544707170535
2025-05-08T00:36:10,2025-05-08,4,0,Sonstiges,Bebelstraße,48.774625679908,9.1477026160558
2025-05-08T00:36:10,2025-05-08,4,0,Gefahrenstelle,In der Nähe von Pariser Platz 5/1,48.788545385414,9.1830219787381
2025-05-08T00:36:10,2025-05-08,4,0,Gefahrenstelle,In der Nähe von Möwenweg 28,48.835315999616,9.2199794952695
2025-05-08T00:36:10,2025-05-08,4,0,Wilder Müll,In der Nähe von Taläckerstraße 30,48.837914163482,9.1913962464095
2025-05-08T00:36:10,2025-05-08,4,0,Wilder Müll,In der Nähe von Altglas-Container (Korntaler Straße / Mercatorweg),48.841871036071,9.145106377968
2025-05-08T00:36:10,2025-05-08,4,0,Brunnen / Gewässer,Oberer Kirchhaldenweg,48.780250706042,9.1137295587794
2025-05-08T00:36:10,2025-05-08,4,0,Sonstiges,In der Nähe von Ostendstraße 21,48.7884565,9.207236
2025-05-08T00:36:10,2025-05-08,4,0,Wilder Müll,In der Nähe von Daimlerstraße 52,48.803165337446,9.2195691080693
2025-05-08T00:36:10,2025-05-08,4,0,Gefahrenstelle,In der Nähe von Lenzhaldebrunnen (Doggenburg / Lenzhalde),48.787139189544,9.1506970686181
2025-05-08T00:36:10,2025-05-08,4,0,Wilder Müll,Lehenstraße,48.761448934021,9.1719390064403
2025-05-08T00:36:10,2025-05-08,4,0,Gefahrenstelle,In der Nähe von Skulptur Der Mönch von Münster (Jagststraße / Schussengasse),48.819932189594,9.2244599145685
2025-05-08T00:36:10,2025-05-08,4,0,Verkehrszeichen,In der Nähe von Bergheimer Steige 7,48.794793238693,9.0922957388492
2025-05-08T00:36:10,2025-05-08,4,0,Straßeneinlauf - verstopft,Seelbergstraße,48.802895746025,9.2183419745823
2025-05-08T05:16:05,2025-05-08,4,5,Gehweg - Verschmutzung,Am Weinberg,48.7700037,9.2631066
2025-05-08T05:16:05,2025-05-08,4,5,Sonstiges,In der Nähe von Gerätespielfläche (Uhlandshöhe),48.78099267214,9.1951599957667
2025-05-08T05:16:05,2025-05-08,4,5,Wilder Müll,Wiener Straße,48.810956706913,9.157221045197
2025-05-08T05:16:05,2025-05-08,4,5,Wilder Müll,Wiener Straße,48.810956706913,9.157221045197
2025-05-08T06:16:53,2025-05-08,4,6,Ampel,In der Nähe von Kormoranstraße 13/1,48.832116588113,9.2363763856986
2025-05-08T07:15:49,2025-05-08,4,7,Sonstiges,Ditzinger Straße,48.815799173246,9.1079798275318
2025-05-08T07:15:49,2025-05-08,4,7,Gefahrenstelle,In der Nähe von Kleinkinderspielfläche (Sillenbucher Straße/ Rommel-Eiche),48.753337264022,9.224397516132
2025-05-08T07:15:49,2025-05-08,4,7,Verkehrszeichen,In der Nähe von Berghaustraße 4,48.714546580777,9.1063940603227
2025-05-08T07:15:49,2025-05-08,4,7,Radweg - Scherben,In der Nähe von Altglas-Container (Heigelinstraße / Schelmenwasenstraße),48.713898690855,9.1661804984848
2025-05-08T07:15:49,2025-05-08,4,7,Radweg - Scherben,In der Nähe von Fasanenhofstraße 161,48.710010886963,9.1533345061909
2025-05-08T07:15:49,2025-05-08,4,7,Gefahrenstelle,In der Nähe von Jagststraße 15,48.820129142987,9.2247517406748
2025-05-08T07:15:49,2025-05-08,4,7,Sonstiges,In der Nähe von Laubeweg 7,48.710305759042,9.1540768344439
2025-05-08T07:15:49,2025-05-08,4,7,Gehweg - Verschmutzung,In der Nähe von Altglas-Container (Europaplatz),48.713824475552,9.1625255731041
2025-05-08T07:15:49,2025-05-08,4,7,Sonstiges,Gablenberger Hauptstraße,48.780874897289,9.2079419067104
2025-05-08T08:16:46,2025-05-08,4,8,Sonstiges,In der Nähe von Jagststraße 24,48.820098361692,9.2246281483845
2025-05-08T08:16:46,2025-05-08,4,8,Straßeneinlauf - verstopft,Fuchswaldstraße,48.744290861728,9.1331951110361
2025-05-08T08:16:46,2025-05-08,4,8,Gefahrenstelle,In der Nähe von Toilettenanlage (Schreiberstraße 11/1),48.761868039159,9.1601735071645
2025-05-08T08:16:46,2025-05-08,4,8,Sonstiges,Mahdentalstraße,48.756746579571,9.0701876960823
2025-05-08T08:16:46,2025-05-08,4,8,Sonstiges,Schönbühlstraße,48.783921919108,9.2093838761541
2025-05-08T08:16:46,2025-05-08,4,8,Gefahrenstelle,Lohäckerstraße,48.715217291394,9.1466585721509
2025-05-08T08:16:46,2025-05-08,4,8,Radweg - Schäden,Burgenlandstraße,48.812482550747,9.166106632871
2025-05-08T08:16:46,2025-05-08,4,8,Verkehrszeichen,In der Nähe von Schihütte Rosental (Rosental),48.728552081574,9.0882757150414
2025-05-08T09:16:08,2025-05-08,4,9,Brunnen / Gewässer,Aixheimer Straße,48.74122080218,9.2175442478018
2025-05-08T09:16:08,2025-05-08,4,9,Gehweg - Verschmutzung,In der Nähe von Mühlsteg,48.809444993616,9.2161271864801
2025-05-08T09:16:08,2025-05-08,4,9,Sonstiges,In der Nähe von Teinacher Straße 2,48.81086180328,9.2208081650255
2025-05-08T09:16:08,2025-05-08,4,9,Sonstiges,Goldammerweg,48.806329334032,9.1143469061423
