first_seen_at_timestamp,first_seen_date,first_seen_weekday,first_seen_hour,category,location,lat,lon
2025-05-30T00:36:41,2025-05-30,5,0,Begrünung,Waldburgstraße,48.725408726214,9.1067527817479
2025-05-30T00:36:41,2025-05-30,5,0,Gefahrenstelle,Friedrichshafener Straße,48.758729692762,9.2556904214502
2025-05-30T00:36:41,2025-05-30,5,0,Sonstiges,Möhringer Straße,48.709661582707,9.1693555409472
2025-05-30T00:36:41,2025-05-30,5,0,Verkehrszeichen,In der Nähe von Fasanenhofstraße 101,48.708075781817,9.1549411339441
2025-05-30T00:36:41,2025-05-30,5,0,Wilder Müll,In der Nähe von P+R Platz Wagrainäcker (Max-Eyth-See) (Mühlhäuser Straße),48.83072562245,9.2147541348055
2025-05-30T00:36:41,2025-05-30,5,0,Sonstiges,Mainstraße,48.82296098849,9.2207860273525
2025-05-30T00:36:41,2025-05-30,5,0,Schlagloch,In der Nähe von Geräte-und Ballspielfläche (Karl-Kloß-Straße/ Eiernest),48.756522089123,9.1597222113309
2025-05-30T00:36:41,2025-05-30,5,0,Begrünung,In der Nähe von Fraunhoferstraße 8,48.795515953179,9.1774551548182
2025-05-30T00:36:41,2025-05-30,5,0,Sonstiges,Vollmoellerstraße,48.727234342405,9.1073821466437
2025-05-30T00:36:41,2025-05-30,5,0,Schlagloch,In der Nähe von Altglas-Container (Rosenbergstraße Eingang Hoppenlaufriedhof),48.782216488098,9.1675884810777
2025-05-30T00:36:41,2025-05-30,5,0,Schlagloch,In der Nähe von Robert-Mayer-Straße 81,48.796503878539,9.1786817283571
2025-05-30T00:36:41,2025-05-30,5,0,Straßenbeleuchtung,Linzer Straße,48.816906022897,9.152866589029
2025-05-30T00:36:41,2025-05-30,5,0,Wilder Müll,In der Nähe von Bergstraße 125,48.779859396484,9.2104728358008
2025-05-30T00:36:41,2025-05-30,5,0,Gehweg - Verschmutzung,Königsseestraße,48.833303586204,9.2267998924031
2025-05-30T00:36:41,2025-05-30,5,0,SSB Haltestelle,In der Nähe von Kirchheimer Straße 113/1,48.741810015557,9.2182324667673
2025-05-30T00:36:41,2025-05-30,5,0,Verkehrszeichen,In der Nähe von Remstalstraße 32,48.802244228082,9.2408275152683
2025-05-30T00:36:41,2025-05-30,5,0,Wilder Müll,In der Nähe von Mönchfeldstraße 120/5,48.8445668,9.2115901
2025-05-30T00:36:41,2025-05-30,5,0,Gefahrenstelle,In der Nähe von Dobelstraße 2,48.769874084263,9.1866584287308
2025-05-30T00:36:41,2025-05-30,5,0,Begrünung,Mainzer Straße,48.809930915528,9.1200347147101
2025-05-30T00:36:41,2025-05-30,5,0,Sonstiges,Schreiberstraße,48.759331971012,9.1615091955551
2025-05-30T00:36:41,2025-05-30,5,0,Wilder Müll,In der Nähe von Otto-Umfrid-Straße 1,48.7959284,9.1889838
2025-05-30T00:36:41,2025-05-30,5,0,Wilder Müll,In der Nähe von Otto-Umfrid-Straße 6,48.7963174,9.1890525
2025-05-30T00:36:41,2025-05-30,5,0,Gefahrenstelle,In der Nähe von Eduard-Pfeiffer-Straße 36,48.788512460229,9.1689041359407
2025-05-30T00:36:41,2025-05-30,5,0,Wilder Müll,In der Nähe von Wilhelma (Neckartalstraße),48.804117603573,9.2081441661272
2025-05-30T00:36:41,2025-05-30,5,0,Wilder Müll,Ebitzweg,48.803561328578,9.2366344766094
2025-05-30T00:36:41,2025-05-30,5,0,Brunnen / Gewässer,Geißstraße,48.773666123053,9.1774520947302
2025-05-30T00:36:41,2025-05-30,5,0,Begrünung,Obere Bismarckstraße,48.769615252769,9.1474429528767
2025-05-30T00:36:41,2025-05-30,5,0,Gehweg - Verschmutzung,Freibadstraße,48.727248902127,9.101235951104
2025-05-30T00:36:41,2025-05-30,5,0,Schlagloch,In der Nähe von Haußmannstraße 142/1,48.785208817996,9.2028514324748
2025-05-30T00:36:41,2025-05-30,5,0,Straße - Verschmutzung,In der Nähe von Witikoweg 144,48.836301338174,9.205389618664
2025-05-30T00:36:41,2025-05-30,5,0,Wilder Müll,In der Nähe von Nauheimer Straße 71,48.804517702187,9.2226094020138
2025-05-30T00:36:41,2025-05-30,5,0,Sonstiges,In der Nähe von Nobelstraße 13A,48.740202467847,9.1017909781673
2025-05-30T00:36:41,2025-05-30,5,0,Sonstiges,In der Nähe von Käte-Hamburger-Weg 2,48.740067434751,9.1032094883557
2025-05-30T00:36:41,2025-05-30,5,0,Brunnen / Gewässer,In der Nähe von Waldstücklesbrunnen (Rennweg),48.76412803287,9.2407147160167
2025-05-30T00:36:41,2025-05-30,5,0,Sonstiges,In der Nähe von Osterbronnstraße 12C,48.717477355436,9.1084377447848
2025-05-30T00:36:41,2025-05-30,5,0,Ampel,In der Nähe von Aixheimer Straße 14,48.740741353934,9.2156520753626
2025-05-30T00:36:41,2025-05-30,5,0,Begrünung,Königsseestraße,48.833499078144,9.2280271677497
2025-05-30T00:36:41,2025-05-30,5,0,Sonstiges,Filderstraße,48.77744387903,9.179713349182
2025-05-30T00:36:41,2025-05-30,5,0,Sonstiges,In der Nähe von Hofsträßle 12/1,48.852393448199,9.2260266202334
2025-05-30T00:36:41,2025-05-30,5,0,Gefahrenstelle,Neckartalstraße,48.806111871215,9.2110560640797
2025-05-30T02:44:00,2025-05-30,5,2,Gefahrenstelle,In der Nähe von Rosensteinstraße 17,48.794472034198,9.1911384062627
2025-05-30T02:44:00,2025-05-30,5,2,Gefahrenstelle,In der Nähe von Rosensteinstraße 17,48.794472034198,9.1911384062627
2025-05-30T05:15:57,2025-05-30,5,5,Wilder Müll,Schönbühlstraße,48.784019283297,9.20958000965
2025-05-30T05:15:57,2025-05-30,5,5,Gefahrenstelle,In der Nähe von Skulptur Der Mönch von Münster (Jagststraße / Schussengasse),48.819929358305,9.2244624446916
