first_seen_at_timestamp,first_seen_date,first_seen_weekday,first_seen_hour,category,location,lat,lon
2025-12-02T00:38:19,2025-12-02,2,0,Sonstiges,In der Nähe von Mühlsteg,48.809274153065,9.2164053275982
2025-12-02T00:38:19,2025-12-02,2,0,Wilder Müll,Rohrackerstraße,48.757040725028,9.2243610730205
2025-12-02T00:38:19,2025-12-02,2,0,Kanaldeckel,Eberhardstraße,48.772891675741,9.1779665520424
2025-12-02T00:38:19,2025-12-02,2,0,Wilder Müll,Klingenstraße,48.779325857844,9.2089019542098
2025-12-02T00:38:19,2025-12-02,2,0,Gefahrenstelle,Ruhesteinstraße,48.753105315867,9.1383788903139
2025-12-02T00:38:19,2025-12-02,2,0,Gefahrenstelle,In der Nähe von Mühlsteg,48.809298145953,9.216387374359
2025-12-02T00:38:19,2025-12-02,2,0,Sonstiges,Waldburgstraße,48.720771919429,9.0901965153737
2025-12-02T00:38:19,2025-12-02,2,0,Wilder Müll,Regenpfeiferweg,48.830060597826,9.2335435809083
2025-12-02T00:38:19,2025-12-02,2,0,Gefahrenstelle,In der Nähe von Mühlsteg,48.809204042858,9.2165450741489
2025-12-02T00:38:19,2025-12-02,2,0,Straßenbeleuchtung,Kurt-Schumacher-Straße,48.70982029042,9.1461535337714
2025-12-02T00:38:19,2025-12-02,2,0,Gefahrenstelle,In der Nähe von Glemsgaustraße 16A,48.815404736576,9.1123766081604
2025-12-02T00:38:19,2025-12-02,2,0,Gehweg - Verschmutzung,In der Nähe von Paradiesstraße 112/3,48.73669608394,9.1132431873039
2025-12-02T00:38:19,2025-12-02,2,0,Gehweg - Verschmutzung,In der Nähe von Seeblickweg,48.833261183561,9.2165310967695
2025-12-02T00:38:19,2025-12-02,2,0,Sonstiges,In der Nähe von Neckarstraße 140A,48.78821482733,9.1936543664203
2025-12-02T00:38:19,2025-12-02,2,0,Wilder Müll,Landhausstraße,48.785111318747,9.1928076058108
2025-12-02T00:38:19,2025-12-02,2,0,Gefahrenstelle,Kolpingstraße,48.830039622153,9.2232680898416
2025-12-02T00:38:19,2025-12-02,2,0,Wilder Müll,In der Nähe von Paul-Hahn-Weg 10,48.815778416007,9.1828389903666
2025-12-02T00:38:19,2025-12-02,2,0,Verkehrszeichen,In der Nähe von Eisenbahnstraße 58,48.802754622482,9.2113297142582
2025-12-02T00:38:19,2025-12-02,2,0,Bäder,Sulzerrainstraße,48.809706186268,9.2227708477443
2025-12-02T00:38:19,2025-12-02,2,0,Verkehrszeichen,Hasenstraße,48.760823290206,9.1496759648428
2025-12-02T00:38:19,2025-12-02,2,0,Sonstiges,In der Nähe von Schützenbühlstraße 63A,48.834539652966,9.1580257260806
2025-12-02T00:38:19,2025-12-02,2,0,Sonstiges,Eberhardstraße,48.772939207326,9.1763062773319
2025-12-02T00:38:19,2025-12-02,2,0,Gehweg - Verschmutzung,Kirchheimer Straße,48.744223279676,9.2139117536971
2025-12-02T00:38:19,2025-12-02,2,0,Gehweg - Verschmutzung,Bohnapfelweg,48.8358873487,9.192374463793
2025-12-02T00:38:19,2025-12-02,2,0,Ampel,In der Nähe von Silberburgstraße 177,48.77031253702,9.1692825690132
2025-12-02T00:38:19,2025-12-02,2,0,Sonstiges,Heslacher Wand,48.758683103034,9.1418867845649
2025-12-02T00:38:19,2025-12-02,2,0,Radweg - Scherben,In der Nähe von Vaihinger Straße 161,48.728481511835,9.13322664203
2025-12-02T00:38:19,2025-12-02,2,0,Kanaldeckel,Theodor-Heuss-Straße,48.779237376576,9.1756613509396
2025-12-02T00:38:19,2025-12-02,2,0,Poller,Höhbergstraße,48.770604681717,9.2430938175003
2025-12-02T00:38:19,2025-12-02,2,0,Wilder Müll,Schwarenbergstraße,48.777941328171,9.2033971463923
2025-12-02T00:38:19,2025-12-02,2,0,Straßenbeleuchtung,Greutterstraße,48.822909469309,9.1224498538654
2025-12-02T00:38:19,2025-12-02,2,0,Sonstiges,Martin-Luther-Straße,48.801866062379,9.2251737490785
2025-12-02T00:38:19,2025-12-02,2,0,Straßenbeleuchtung,Geisinger Weg,48.852428712871,9.156505691809
2025-12-02T00:38:19,2025-12-02,2,0,Gehweg - Verschmutzung,Bebelstraße,48.774625679908,9.1477026160558
2025-12-02T00:38:19,2025-12-02,2,0,Wilder Müll,Charlottenstraße,48.773129495825,9.1868548780322
2025-12-02T00:38:19,2025-12-02,2,0,Straßenbeleuchtung,Talstraße,48.788763320237,9.2275384921518
2025-12-02T00:38:19,2025-12-02,2,0,Sonstiges,Stammheimer Straße,48.835543089443,9.1632666533374
2025-12-02T00:38:19,2025-12-02,2,0,Begrünung,Bernsteinstraße,48.736653602634,9.2254535694131
2025-12-02T00:38:19,2025-12-02,2,0,Straßenbeleuchtung,Goslarer Straße,48.816176240568,9.1264246656127
2025-12-02T00:38:19,2025-12-02,2,0,Wilder Müll,Böblinger Straße,48.741270686427,9.1310244716193
2025-12-02T05:16:18,2025-12-02,2,5,Wilder Müll,Biklenstraße,48.787859014409,9.2481430597753
2025-12-02T07:16:31,2025-12-02,2,7,Gefahrenstelle,Leitzstraße,48.81223870037,9.1789646042351
2025-12-02T07:16:31,2025-12-02,2,7,Wilder Müll,Rilkeweg,48.841516590267,9.2112190893285
2025-12-02T07:16:31,2025-12-02,2,7,Gefahrenstelle,Uhlbacher Straße,48.775993708059,9.278671824965
2025-12-02T07:16:31,2025-12-02,2,7,Ampel,In der Nähe von Hauptstraße 177A,48.730593714019,9.0932405231993
2025-12-02T08:17:08,2025-12-02,2,8,Ampel,Botnanger Straße,48.773762787382,9.1399149326873
2025-12-02T08:17:08,2025-12-02,2,8,Wilder Müll,Rotweg,48.835285925892,9.195561967412
2025-12-02T09:17:02,2025-12-02,2,9,Wilder Müll,In der Nähe von Hans-Sachs-Straße 20,48.836399769459,9.1747525049038
2025-12-02T09:17:02,2025-12-02,2,9,Wilder Müll,Adolf-Fremd-Weg,48.800894201321,9.167212254513
2025-12-02T10:16:34,2025-12-02,2,10,Gehweg - Schäden,Millöckerstraße,48.781507639601,9.1328851836522
2025-12-02T10:16:34,2025-12-02,2,10,Verkehrszeichen,Grazer Straße,48.808117226076,9.1613934166654
2025-12-02T10:16:34,2025-12-02,2,10,Gefahrenstelle,Topasweg,48.778963447063,9.1669900388996
2025-12-02T11:16:09,2025-12-02,2,11,Kanaldeckel,Falkertstraße,48.783171499905,9.1613814805663
2025-12-02T11:16:09,2025-12-02,2,11,Sonstiges,In der Nähe von Ludwigsburger Straße 182,48.83485864738,9.1753647889105
2025-12-02T11:16:09,2025-12-02,2,11,Verkehrszeichen,Falkertstraße,48.783171499905,9.1613814805663
2025-12-02T11:16:09,2025-12-02,2,11,Begrünung,In der Nähe von Sandbuckel 43/6,48.807448679394,9.0899790582143
2025-12-02T11:16:09,2025-12-02,2,11,Treppe,Eberhardstraße,48.773269231414,9.1781448200512
2025-12-02T13:23:31,2025-12-02,2,13,Sonstiges,Wilhelmstraße (M),48.77004496445,9.1805286689201
2025-12-02T13:23:31,2025-12-02,2,13,Gehweg - Schäden,Orionweg,48.718066467806,9.1175183746505
2025-12-02T13:23:31,2025-12-02,2,13,Gefahrenstelle,Orionweg,48.718363862861,9.1170024402127
2025-12-02T14:16:21,2025-12-02,2,14,Gehweg - Verschmutzung,Landhausstraße,48.785111322044,9.1928076058234
2025-12-02T14:16:21,2025-12-02,2,14,Wilder Müll,Pfarrstraße,48.773497665994,9.1816434849342
2025-12-02T14:16:21,2025-12-02,2,14,Gehweg - Verschmutzung,In der Nähe von Rosensteinstraße 20/1,48.793534203278,9.1917709503531
2025-12-02T15:16:31,2025-12-02,2,15,Gefahrenstelle,"In der Nähe von Ziegler, Gew. 4",48.765139866585,9.2305475901098
2025-12-02T15:16:31,2025-12-02,2,15,Wilder Müll,In der Nähe von Rohrackerstraße 252/1,48.758212828805,9.2296412099014
2025-12-02T15:16:31,2025-12-02,2,15,Gehweg - Verschmutzung,Wilhelmsplatz (M),48.776698035718,9.1861784471119
2025-12-02T15:16:31,2025-12-02,2,15,Gehweg - Verschmutzung,In der Nähe von Möwenweg,48.831117646371,9.214471799116
2025-12-02T15:16:31,2025-12-02,2,15,Wilder Müll,In der Nähe von Hildebrandstraße 5,48.808085984669,9.18041628454
2025-12-02T16:16:54,2025-12-02,2,16,Gefahrenstelle,In der Nähe von Jagststraße 24,48.820057494701,9.2245733712774
2025-12-02T17:16:39,2025-12-02,2,17,Gehweg - Verschmutzung,Silberburgstraße,48.781444397172,9.1612942685907
2025-12-02T17:16:39,2025-12-02,2,17,Wilder Müll,In der Nähe von Beim Fasanengarten 61,48.816381709737,9.09103810517
2025-12-02T17:16:39,2025-12-02,2,17,Gehweg - Schäden,Filderhauptstraße,48.700773961496,9.213020861561
2025-12-02T17:16:39,2025-12-02,2,17,Sonstiges,In der Nähe von Haldenrainstraße 184,48.833874814294,9.1957666372369
2025-12-02T17:16:39,2025-12-02,2,17,Straßenbeleuchtung,Triebweg,48.80778691252,9.1387157027628
2025-12-02T19:16:06,2025-12-02,2,19,Gefahrenstelle,In der Nähe von Lüglensheidestraße 21,48.831914595451,9.2272256309134
2025-12-02T19:16:06,2025-12-02,2,19,Sonstiges,In der Nähe von Königstraße 68,48.77433919452,9.1743809889815
2025-12-02T19:16:06,2025-12-02,2,19,Wilder Müll,In der Nähe von Burgholzstraße 130,48.824548995279,9.1985795586796
2025-12-02T20:16:53,2025-12-02,2,20,Gehweg - Verschmutzung,In der Nähe von Schellingstraße 24,48.780557351067,9.1735955891911
2025-12-02T20:16:53,2025-12-02,2,20,Wilder Müll,In der Nähe von Augsburger Straße 500,48.77378208751,9.2606705208167
2025-12-02T21:16:11,2025-12-02,2,21,Sonstiges,Friedrich-Ebert-Straße,48.799543847984,9.1758971213824
