first_seen_at_timestamp,first_seen_date,first_seen_weekday,first_seen_hour,category,location,lat,lon
2025-02-12T00:31:45,2025-02-12,3,0,Gehweg - Verschmutzung,In der Nähe von P+R Platz Wagrainäcker (Max-Eyth-See) (Mühlhäuser Straße),48.831359488691,9.2133638377466
2025-02-12T00:31:45,2025-02-12,3,0,Wilder Müll,Burgenlandstraße 74,48.811041822705,9.1607353988284
2025-02-12T00:31:45,2025-02-12,3,0,Gefahrenstelle,Wrangellstraße 11,48.713179919903,9.2028504941322
2025-02-12T00:31:45,2025-02-12,3,0,Wilder Müll,Ulmer Straße 289,48.7749081,9.2386292
2025-02-12T00:31:45,2025-02-12,3,0,Straßenbeleuchtung,In der Nähe von Schelmenwasenstraße 15A,48.712348283405,9.1671942688639
2025-02-12T00:31:45,2025-02-12,3,0,Sonstiges,In der Nähe von Speidelweg 128/1,48.76106405782,9.2258348110947
2025-02-12T00:31:45,2025-02-12,3,0,Gefahrenstelle,In der Nähe von Losäckerstraße 20,48.815758260512,9.0853969902588
2025-02-12T00:31:45,2025-02-12,3,0,Verkehrszeichen,In der Nähe von Zuckerbergstraße 9,48.829501103332,9.223079530476
2025-02-12T00:31:45,2025-02-12,3,0,Wilder Müll,In der Nähe von Steinkopfstraße 6,48.762603416413,9.1853011793233
2025-02-12T00:31:45,2025-02-12,3,0,Straßenbeleuchtung,Bernhauser Straße 11,48.699356677681,9.2156514073964
2025-02-12T00:31:45,2025-02-12,3,0,Sonstiges,Wiener Straße 20,48.813679664795,9.1656474664705
2025-02-12T00:31:45,2025-02-12,3,0,Verkehrszeichen,Reichenhaller Straße 58,48.802185766437,9.2318071965668
2025-02-12T00:31:45,2025-02-12,3,0,Sonstiges,Steigstraße 80B,48.716934059697,9.097014377015
2025-02-12T00:31:45,2025-02-12,3,0,Wilder Müll,Am Mühlkanal 17,48.796079827178,9.2119126626074
2025-02-12T00:31:45,2025-02-12,3,0,Wilder Müll,Frauenstraße 7,48.761747137341,9.1584553279681
2025-02-12T00:31:45,2025-02-12,3,0,Straße - Verschmutzung,In der Nähe von Furtbachstraße 2B,48.771059150843,9.1721391866365
2025-02-12T00:31:45,2025-02-12,3,0,Sonstiges,In der Nähe von Fasanenhofstraße 101,48.709136153966,9.1537778132095
2025-02-12T00:31:45,2025-02-12,3,0,Straße - Schäden,In der Nähe von Gerätespielfläche (Urbansplatz),48.780944629789,9.1880677180641
2025-02-12T00:31:45,2025-02-12,3,0,Gefahrenstelle,In der Nähe von Allmersbacher Straße 40,48.805090196005,9.2470016823752
2025-02-12T00:31:45,2025-02-12,3,0,Wilder Müll,Ostendstraße 110,48.781882904424,9.207687431185
2025-02-12T00:31:45,2025-02-12,3,0,Gehweg - Verschmutzung,In der Nähe von Echazstraße 20,48.820932322275,9.2229665604341
2025-02-12T00:31:45,2025-02-12,3,0,Wilder Müll,In der Nähe von Sigmaringer Straße 121,48.73272433882,9.15663866555
2025-02-12T00:31:45,2025-02-12,3,0,Ampel,Stuttgarter Straße 99,48.808456374761,9.1568318740873
2025-02-12T00:31:45,2025-02-12,3,0,Gehweg - Verschmutzung,Falbenhennenstraße 9,48.7667672248,9.1767881856902
2025-02-12T00:31:45,2025-02-12,3,0,Ampel,Bebelstraße 26,48.775228809754,9.1542647922634
2025-02-12T00:31:45,2025-02-12,3,0,Straßenbeleuchtung,Wildensteinstraße 19,48.804427105149,9.1561656123234
2025-02-12T00:31:45,2025-02-12,3,0,Wilder Müll,Körschwiesen 25,48.717442993352,9.1639581448926
2025-02-12T00:31:45,2025-02-12,3,0,Poller,In der Nähe von Bernsteinstraße 116,48.736462406912,9.2273049995977
2025-02-12T00:31:45,2025-02-12,3,0,Sonstiges,Eierstraße 13,48.762615647311,9.1614108647395
2025-02-12T00:31:45,2025-02-12,3,0,Verkehrszeichen,In der Nähe von Schwieberdinger Straße 3,48.82594579832,9.168819381971
2025-02-12T00:31:45,2025-02-12,3,0,Sonstiges,Liliencronstraße 4,48.743774968802,9.2131073146428
2025-02-12T00:31:45,2025-02-12,3,0,Wilder Müll,In der Nähe von Altglas-Container (Sparrhärmlingweg / Am Römerkastell),48.812313017849,9.2061529596635
2025-02-12T00:31:45,2025-02-12,3,0,Sonstiges,In der Nähe von Wernerstraße 87,48.822221766933,9.1705938385314
2025-02-12T00:31:45,2025-02-12,3,0,Ampel,In der Nähe von Schmalzmarkt,48.775004732494,9.2036910361305
2025-02-12T00:31:45,2025-02-12,3,0,Gefahrenstelle,Hauptstraße 62,48.729988968762,9.1053890200146
2025-02-12T00:31:45,2025-02-12,3,0,Sonstiges,In der Nähe von Leobener Straße 71,48.814272451875,9.1603768369691
2025-02-12T00:31:45,2025-02-12,3,0,Straßenbeleuchtung,Strebelstraße 9,48.713510948747,9.2038849804404
2025-02-12T00:31:45,2025-02-12,3,0,Sonstiges,In der Nähe von Villacher Straße 12,48.81193683325,9.1575373866377
2025-02-12T00:31:45,2025-02-12,3,0,Sonstiges,In der Nähe von Beim Fasanengarten 5,48.81690715552,9.0852002924194
2025-02-12T00:31:45,2025-02-12,3,0,Kanaldeckel,Scillawaldstraße 70B,48.83685124855,9.2251260977604
2025-02-12T07:15:22,2025-02-12,3,7,SSB Haltestelle,In der Nähe von Fellbacher Straße 100,48.7895777,9.2592497
2025-02-12T07:15:22,2025-02-12,3,7,Sonstiges,In der Nähe von Schadstoff-/Wertstoffmobil-Standplatz (Barbarossastraße / Bertramstraße),48.79133653972,9.2575730789082
2025-02-12T08:16:26,2025-02-12,3,8,Gefahrenstelle,In der Nähe von Sankt-Pöltener-Straße 13C,48.8093287,9.1613864
2025-02-12T08:16:26,2025-02-12,3,8,Radweg - Schäden,In der Nähe von Gymnasiumstraße 21,48.776564314598,9.1735399149902
2025-02-12T08:16:26,2025-02-12,3,8,Wilder Müll,Friedenaustraße 2,48.786844104977,9.2150866641417
2025-02-12T09:15:44,2025-02-12,3,9,Sonstiges,Lange Morgen 7,48.742006577833,9.2343051027699
2025-02-12T09:15:44,2025-02-12,3,9,Sonstiges,In der Nähe von Fasanenhofstraße 137,48.709413289357,9.15322095141
2025-02-12T09:15:44,2025-02-12,3,9,Gehweg - Verschmutzung,Neue Straße 51,48.772686319863,9.204165305597
2025-02-12T10:15:49,2025-02-12,3,10,Wilder Müll,In der Nähe von Ballspielfläche (Im Lauchhau),48.738877195613,9.0918855546949
2025-02-12T10:15:49,2025-02-12,3,10,Gehweg - Schäden,Jakobstraße 20,48.771320160936,9.1819486543858
2025-02-12T10:15:49,2025-02-12,3,10,Gehweg - Schäden,Kirchheimer Straße 97,48.742616761084,9.2167069482611
2025-02-12T11:15:08,2025-02-12,3,11,Wilder Müll,Birkheckenstraße 70,48.726507921699,9.2052020967666
2025-02-12T11:15:08,2025-02-12,3,11,Wilder Müll,In der Nähe von Unter der Mauer,48.776178836421,9.1770962480478
2025-02-12T12:17:14,2025-02-12,3,12,Ampel,In der Nähe von Gablenberger Hauptstraße 126,48.775020547347,9.2036853114286
2025-02-12T12:17:14,2025-02-12,3,12,Straße - Verschmutzung,Uhlbacher Straße 174,48.772825983333,9.2754014631952
2025-02-12T12:17:14,2025-02-12,3,12,Gefahrenstelle,In der Nähe von Karl-Benz-Platz 1/1,48.778694723051,9.2498070207154
2025-02-12T13:17:01,2025-02-12,3,13,Wilder Müll,In der Nähe von Kesselstraße 32,48.764986612139,9.251725210126
2025-02-12T13:17:01,2025-02-12,3,13,Verkehrszeichen,In der Nähe von Hedelfinger Straße 117,48.763103420008,9.2521004846771
2025-02-12T13:17:01,2025-02-12,3,13,Wilder Müll,In der Nähe von Mezgerstraße 41,48.725999778683,9.1082826281724
2025-02-12T15:16:07,2025-02-12,3,15,Sonstiges,In der Nähe von Gerätespielfläche (Ludwigstraße 100A),48.772047443644,9.1537773159033
2025-02-12T15:16:07,2025-02-12,3,15,Wilder Müll,Johannesstraße 6,48.774495734342,9.1639669077556
2025-02-12T15:16:07,2025-02-12,3,15,Gefahrenstelle,Fraubronnstraße 22,48.702958736515,9.2088031837375
2025-02-12T16:16:27,2025-02-12,3,16,Gehweg - Verschmutzung,Falbenhennenstraße,48.7667672248,9.1767881856902
2025-02-12T16:16:27,2025-02-12,3,16,Ampel,Bebelstraße,48.775228809754,9.1542647922634
2025-02-12T16:16:27,2025-02-12,3,16,Straßenbeleuchtung,Wildensteinstraße,48.804427105149,9.1561656123234
2025-02-12T16:16:27,2025-02-12,3,16,Wilder Müll,Körschwiesen,48.717442993352,9.1639581448926
2025-02-12T16:16:27,2025-02-12,3,16,Sonstiges,Eierstraße,48.762615647311,9.1614108647395
2025-02-12T16:16:27,2025-02-12,3,16,Sonstiges,Liliencronstraße,48.743774968802,9.2131073146428
2025-02-12T16:16:27,2025-02-12,3,16,Gefahrenstelle,Hauptstraße,48.729988968762,9.1053890200146
2025-02-12T16:16:27,2025-02-12,3,16,Straßenbeleuchtung,Strebelstraße,48.713510948747,9.2038849804404
2025-02-12T16:16:27,2025-02-12,3,16,Kanaldeckel,Scillawaldstraße,48.83685124855,9.2251260977604
2025-02-12T16:16:27,2025-02-12,3,16,Wilder Müll,Friedenaustraße,48.786844104977,9.2150866641417
2025-02-12T16:16:27,2025-02-12,3,16,Sonstiges,Lange Morgen,48.742006577833,9.2343051027699
2025-02-12T16:16:27,2025-02-12,3,16,Gehweg - Verschmutzung,Neue Straße,48.772686319863,9.204165305597
2025-02-12T16:16:27,2025-02-12,3,16,Gehweg - Schäden,Jakobstraße,48.771320160936,9.1819486543858
2025-02-12T16:16:27,2025-02-12,3,16,Gehweg - Schäden,Kirchheimer Straße,48.742616761084,9.2167069482611
2025-02-12T16:16:27,2025-02-12,3,16,Wilder Müll,Birkheckenstraße,48.726507921699,9.2052020967666
2025-02-12T16:16:27,2025-02-12,3,16,Straße - Verschmutzung,Uhlbacher Straße,48.772825983333,9.2754014631952
2025-02-12T16:16:27,2025-02-12,3,16,Wilder Müll,Johannesstraße,48.774495734342,9.1639669077556
2025-02-12T16:16:27,2025-02-12,3,16,Gefahrenstelle,Fraubronnstraße,48.702958736515,9.2088031837375
2025-02-12T16:16:27,2025-02-12,3,16,Wilder Müll,Binderstraße,48.757850962779,9.2584343976575
2025-02-12T17:15:18,2025-02-12,3,17,Poller,In der Nähe von Bernsteinstraße 116,48.736462406912,9.2273049995977
2025-02-12T17:15:18,2025-02-12,3,17,Verkehrszeichen,In der Nähe von Schwieberdinger Straße 3,48.82594579832,9.168819381971
2025-02-12T17:15:18,2025-02-12,3,17,Wilder Müll,In der Nähe von Altglas-Container (Sparrhärmlingweg / Am Römerkastell),48.812313017849,9.2061529596635
2025-02-12T17:15:18,2025-02-12,3,17,Sonstiges,In der Nähe von Wernerstraße 87,48.822221766933,9.1705938385314
2025-02-12T17:15:18,2025-02-12,3,17,Ampel,In der Nähe von Schmalzmarkt,48.775004732494,9.2036910361305
2025-02-12T17:15:18,2025-02-12,3,17,Sonstiges,In der Nähe von Leobener Straße 71,48.814272451875,9.1603768369691
2025-02-12T17:15:18,2025-02-12,3,17,Sonstiges,In der Nähe von Villacher Straße 12,48.81193683325,9.1575373866377
2025-02-12T17:15:18,2025-02-12,3,17,Sonstiges,In der Nähe von Beim Fasanengarten 5,48.81690715552,9.0852002924194
2025-02-12T17:15:18,2025-02-12,3,17,SSB Haltestelle,In der Nähe von Fellbacher Straße 100,48.7895777,9.2592497
2025-02-12T17:15:18,2025-02-12,3,17,Wilder Müll,Klotzstraße,48.796570331688,9.2093275782004
2025-02-12T17:15:18,2025-02-12,3,17,Ampel,In der Nähe von Südwestrundfunk (SWR) (Neckarstraße 230),48.793952797969,9.2036590139265
2025-02-12T17:15:18,2025-02-12,3,17,Gefahrenstelle,In der Nähe von Marienstraße 3B,48.773101152453,9.1730010698652
2025-02-12T17:15:18,2025-02-12,3,17,Wilder Müll,In der Nähe von Fellbacher Straße 93,48.789760885264,9.2589731814556
2025-02-12T18:16:32,2025-02-12,3,18,Sonstiges,In der Nähe von Schadstoff-/Wertstoffmobil-Standplatz (Barbarossastraße / Bertramstraße),48.79133653972,9.2575730789082
2025-02-12T18:16:32,2025-02-12,3,18,Gefahrenstelle,In der Nähe von Sankt-Pöltener-Straße 13C,48.8093287,9.1613864
2025-02-12T18:16:32,2025-02-12,3,18,Radweg - Schäden,In der Nähe von Gymnasiumstraße 21,48.776564314598,9.1735399149902
2025-02-12T18:16:32,2025-02-12,3,18,Sonstiges,In der Nähe von Fasanenhofstraße 137,48.709413289357,9.15322095141
2025-02-12T18:16:32,2025-02-12,3,18,Wilder Müll,In der Nähe von Ballspielfläche (Im Lauchhau),48.738877195613,9.0918855546949
2025-02-12T18:16:32,2025-02-12,3,18,Wilder Müll,In der Nähe von Unter der Mauer,48.776178836421,9.1770962480478
2025-02-12T18:16:32,2025-02-12,3,18,Ampel,In der Nähe von Gablenberger Hauptstraße 126,48.775020547347,9.2036853114286
2025-02-12T19:14:53,2025-02-12,3,19,Gefahrenstelle,In der Nähe von Karl-Benz-Platz 1/1,48.778694723051,9.2498070207154
2025-02-12T19:14:53,2025-02-12,3,19,Wilder Müll,In der Nähe von Kesselstraße 32,48.764986612139,9.251725210126
2025-02-12T19:14:53,2025-02-12,3,19,Verkehrszeichen,In der Nähe von Hedelfinger Straße 117,48.763103420008,9.2521004846771
2025-02-12T19:14:53,2025-02-12,3,19,Wilder Müll,In der Nähe von Mezgerstraße 41,48.725999778683,9.1082826281724
2025-02-12T19:14:53,2025-02-12,3,19,Sonstiges,In der Nähe von Gerätespielfläche (Ludwigstraße 100A),48.772047443644,9.1537773159033
2025-02-12T19:14:53,2025-02-12,3,19,Straße - Schäden,Rosenaustraße,48.809502635297,9.2114380367332
2025-02-12T19:14:53,2025-02-12,3,19,Gefahrenstelle,In der Nähe von Echazstraße 20,48.820940398183,9.2229518258992
2025-02-12T19:14:53,2025-02-12,3,19,Verkehrszeichen,In der Nähe von Haldenstraße 20,48.80874138,9.20742062
2025-02-12T19:14:53,2025-02-12,3,19,Wilder Müll,In der Nähe von Waiblinger Straße 68,48.804974764508,9.226418153155
2025-02-12T19:14:53,2025-02-12,3,19,Gehweg - Verschmutzung,In der Nähe von Moselstraße 25,48.821830199044,9.2215379108976
2025-02-12T20:15:48,2025-02-12,3,20,Gefahrenstelle,Hauptstraße,48.729988968762,9.1053890200146
2025-02-12T20:15:48,2025-02-12,3,20,Straßenbeleuchtung,Strebelstraße,48.713510948747,9.2038849804404
2025-02-12T20:15:48,2025-02-12,3,20,Kanaldeckel,Scillawaldstraße,48.83685124855,9.2251260977604
2025-02-12T21:15:21,2025-02-12,3,21,Wilder Müll,Friedenaustraße,48.786844104977,9.2150866641417
2025-02-12T21:15:21,2025-02-12,3,21,Sonstiges,Lange Morgen,48.742006577833,9.2343051027699
2025-02-12T21:15:21,2025-02-12,3,21,Gehweg - Verschmutzung,Neue Straße,48.772686319863,9.204165305597
2025-02-12T22:15:22,2025-02-12,3,22,Gehweg - Schäden,Jakobstraße,48.771320160936,9.1819486543858
2025-02-12T22:15:22,2025-02-12,3,22,Gehweg - Schäden,Kirchheimer Straße,48.742616761084,9.2167069482611
2025-02-12T22:15:22,2025-02-12,3,22,Wilder Müll,Birkheckenstraße,48.726507921699,9.2052020967666
2025-02-12T23:15:23,2025-02-12,3,23,Straße - Verschmutzung,Uhlbacher Straße,48.772825983333,9.2754014631952
2025-02-12T23:15:23,2025-02-12,3,23,Wilder Müll,Johannesstraße,48.774495734342,9.1639669077556
2025-02-12T23:15:23,2025-02-12,3,23,Gefahrenstelle,Fraubronnstraße,48.702958736515,9.2088031837375
