first_seen_at_timestamp,first_seen_date,first_seen_weekday,first_seen_hour,category,location,lat,lon
2025-07-04T00:37:23,2025-07-04,5,0,Gefahrenstelle,Magirusstraße,48.815625173406,9.1761698570902
2025-07-04T00:37:23,2025-07-04,5,0,Sonstiges,Waldburgstraße,48.720771919429,9.0901965153737
2025-07-04T00:37:23,2025-07-04,5,0,Gefahrenstelle,In der Nähe von Ludwigstraße 114,48.771007332271,9.1529779183766
2025-07-04T00:37:23,2025-07-04,5,0,Gehweg - Verschmutzung,Am Mühlkanal,48.79622426481,9.2116409412232
2025-07-04T00:37:23,2025-07-04,5,0,Sonstiges,In der Nähe von Gablenberger Hauptstraße 5,48.780672481383,9.2078383395043
2025-07-04T00:37:23,2025-07-04,5,0,Sonstiges,In der Nähe von Erwin-Schoettle-Platz,48.761915323277,9.1602227069314
2025-07-04T00:37:23,2025-07-04,5,0,Gefahrenstelle,Mühlstraße,48.806854488926,9.1602834902902
2025-07-04T00:37:23,2025-07-04,5,0,Sonstiges,Fred-Uhlman-Straße,48.737901828437,9.217244310681
2025-07-04T00:37:23,2025-07-04,5,0,Wilder Müll,Großglocknerstraße,48.782318991669,9.2548709460409
2025-07-04T00:37:23,2025-07-04,5,0,Sonstiges,Giescheweg,48.710554962113,9.1485073111048
2025-07-04T00:37:23,2025-07-04,5,0,Wilder Müll,Wernerstraße,48.815144364716,9.1667828853523
2025-07-04T00:37:23,2025-07-04,5,0,Gehweg - Verschmutzung,In der Nähe von Heilbronner Straße 126,48.797427537925,9.182815268051
2025-07-04T00:37:23,2025-07-04,5,0,Wilder Müll,In der Nähe von Hallschlag 20,48.814146217094,9.2076590396116
2025-07-04T00:37:23,2025-07-04,5,0,Wilder Müll,In der Nähe von Aachener Straße 8,48.806492676141,9.2104895089278
2025-07-04T00:37:23,2025-07-04,5,0,Wilder Müll,Schickhardtstraße,48.763599595083,9.1589782465083
2025-07-04T00:37:23,2025-07-04,5,0,Sonstiges,In der Nähe von Großglocknerstraße 60,48.782117456376,9.2547719754014
2025-07-04T00:37:23,2025-07-04,5,0,Gefahrenstelle,In der Nähe von Rudolf-Keller-Brunnen (Gablenberger Weg),48.767085042624,9.2003878162671
2025-07-04T00:37:23,2025-07-04,5,0,Gehweg - Verschmutzung,In der Nähe von Sieben Morgen 23,48.851813270822,9.1600485262921
2025-07-04T00:37:23,2025-07-04,5,0,Sonstiges,In der Nähe von Böblinger Straße 409,48.743294885324,9.1335058581716
2025-07-04T00:37:23,2025-07-04,5,0,Gefahrenstelle,Leobener Straße,48.816273903053,9.156774527148
2025-07-04T00:37:23,2025-07-04,5,0,Ampel,In der Nähe von Paradiesstraße 43,48.733603070559,9.1190758532049
2025-07-04T00:37:23,2025-07-04,5,0,Wilder Müll,In der Nähe von Altglas-Container (Kniebisstraße / Strombergstraße),48.78266,9.2051872
2025-07-04T00:37:23,2025-07-04,5,0,Wilder Müll,Breitscheidstraße,48.778882455611,9.1662815876695
2025-07-04T00:37:23,2025-07-04,5,0,Gehweg - Verschmutzung,Oppenheimer Straße,48.81060405211,9.1215209421218
2025-07-04T00:37:23,2025-07-04,5,0,Verkehrszeichen,In der Nähe von Ludwigsburger Straße 89,48.82942271438,9.1749619695944
2025-07-04T00:37:23,2025-07-04,5,0,Gefahrenstelle,In der Nähe von Neue Weinsteige 110/1,48.758790922002,9.1815305967683
2025-07-04T00:37:23,2025-07-04,5,0,Gefahrenstelle,In der Nähe von Losäckerstraße 20,48.815760044637,9.0854130404179
2025-07-04T00:37:23,2025-07-04,5,0,Begrünung,Breitscheidstraße,48.778882455611,9.1662815876695
2025-07-04T00:37:23,2025-07-04,5,0,Wilder Müll,In der Nähe von Zamenhofstraße 62,48.76890436914,9.1375339696263
2025-07-04T00:37:23,2025-07-04,5,0,Gehweg - Schäden,Schottstraße,48.791286936796,9.1606042119903
2025-07-04T00:37:23,2025-07-04,5,0,Verkehrszeichen,Marbacher Straße,48.835046450544,9.177143595479
2025-07-04T00:37:23,2025-07-04,5,0,Wilder Müll,Landhausstraße,48.78521892781,9.1930122206543
2025-07-04T00:37:23,2025-07-04,5,0,Gehweg - Verschmutzung,In der Nähe von Ehrenhalde 22,48.791930474618,9.1644444843898
2025-07-04T00:37:23,2025-07-04,5,0,Verkehrszeichen,In der Nähe von Dorotheenstraße 4,48.77646808233,9.1794848467358
2025-07-04T00:37:23,2025-07-04,5,0,Sonstiges,In der Nähe von Hirschsprungallee 14,48.827160130112,9.1523782162186
2025-07-04T00:37:23,2025-07-04,5,0,Sonstiges,In der Nähe von Bei der Eiche 9,48.829922786912,9.1539143099554
2025-07-04T00:37:23,2025-07-04,5,0,Wilder Müll,In der Nähe von Nauheimer Straße 69,48.804637384257,9.2226475074272
2025-07-04T00:37:23,2025-07-04,5,0,Sonstiges,Leibnizstraße,48.781467017583,9.1442242792364
2025-07-04T00:37:23,2025-07-04,5,0,Straßenbeleuchtung,Schiltacher Straße,48.740802729067,9.1381905767727
2025-07-04T00:37:23,2025-07-04,5,0,Straßenbeleuchtung,In der Nähe von Musberger Straße 100,48.716208828888,9.0875264396291
2025-07-04T04:18:04,2025-07-04,5,4,Wilder Müll,"In der Nähe von Spitalwald Sillenbuch (Spitalwald, Gew.)",48.750534357277,9.2015034971074
2025-07-04T04:18:04,2025-07-04,5,4,Sonstiges,In der Nähe von Aldinger Straße 104,48.842372515806,9.2324169829366
2025-07-04T05:16:28,2025-07-04,5,5,Gehweg - Verschmutzung,In der Nähe von Rückertstraße 1,48.773821506944,9.1466357066168
2025-07-04T05:16:28,2025-07-04,5,5,Verkehrszeichen,In der Nähe von Rosensteinstraße 28,48.794581989958,9.1930349016944
2025-07-04T05:16:28,2025-07-04,5,5,Straße - Verschmutzung,In der Nähe von Rosensteinstraße 3,48.793318625779,9.1909525297497
2025-07-04T06:17:14,2025-07-04,5,6,Sonstiges,Schönbühlstraße,48.782587915299,9.2123996426852
2025-07-04T06:17:14,2025-07-04,5,6,Sonstiges,Kienbachstraße,48.80119466809,9.2369910247606
2025-07-04T06:17:14,2025-07-04,5,6,Straße - Verschmutzung,Strombergstraße,48.782380287054,9.2057017715972
2025-07-04T06:17:14,2025-07-04,5,6,Sonstiges,In der Nähe von Württembergische Landesbibliothek (Konrad-Adenauer-Straße 8),48.777232731685,9.1850970455893
2025-07-04T06:17:14,2025-07-04,5,6,Sonstiges,Schafgärten,48.759453882567,9.2545363836725
2025-07-04T06:17:14,2025-07-04,5,6,Gehweg - Schäden,In der Nähe von Kriegsbergstraße 42,48.783416875208,9.1748252110568
