first_seen_at_timestamp,first_seen_date,first_seen_weekday,first_seen_hour,category,location,lat,lon
2025-03-19T00:33:38,2025-03-19,3,0,Sonstiges,Krailenshaldenstraße,48.81776348945,9.1779346289777
2025-03-19T00:33:38,2025-03-19,3,0,Gehweg - Verschmutzung,In der Nähe von Senefelderstraße 51,48.775037383539,9.16039588744
2025-03-19T00:33:38,2025-03-19,3,0,Wilder Müll,In der Nähe von Heimbergstraße 39,48.805422207614,9.1521930496481
2025-03-19T00:33:38,2025-03-19,3,0,Wilder Müll,Wunnensteinstraße,48.780512468467,9.2043603913842
2025-03-19T00:33:38,2025-03-19,3,0,Wilder Müll,In der Nähe von Erbsenbrunnengasse 15,48.804206166194,9.2131636288657
2025-03-19T00:33:38,2025-03-19,3,0,Wilder Müll,"In der Nähe von Haarwiesen, Gew.",48.74059633364,9.1129445327047
2025-03-19T00:33:38,2025-03-19,3,0,Sonstiges,In der Nähe von Alte Straße 15,48.737891317761,9.12712637096
2025-03-19T00:33:38,2025-03-19,3,0,Kanaldeckel,In der Nähe von In der Lüsse 37,48.736941167555,9.1154125724825
2025-03-19T00:33:38,2025-03-19,3,0,Sonstiges,Im Wolfer,48.708754884904,9.202261806855
2025-03-19T00:33:38,2025-03-19,3,0,Gehweg - Schäden,In der Nähe von Löwenstraße 94,48.748191980788,9.1773476495385
2025-03-19T00:33:38,2025-03-19,3,0,Sonstiges,Nansenweg,48.847283954081,9.1558626636854
2025-03-19T00:33:38,2025-03-19,3,0,Wilder Müll,In der Nähe von Vogelsangstraße 35,48.773342141469,9.155699531871
2025-03-19T00:33:38,2025-03-19,3,0,Wilder Müll,In der Nähe von Herrenberger Straße 4,48.7293332,9.11237
2025-03-19T00:33:38,2025-03-19,3,0,Gehweg - Verschmutzung,Schlosserstraße,48.769099397181,9.1753401937267
2025-03-19T00:33:38,2025-03-19,3,0,Radweg - Scherben,In der Nähe von Kalckreuth-Brunnen (Am Kochenhof / Hermann-Pleuer-Straße),48.798760241237,9.1685485248661
2025-03-19T00:33:38,2025-03-19,3,0,Sonstiges,In der Nähe von Marktplatz (M) 22,48.775183001706,9.178179417388
2025-03-19T00:33:38,2025-03-19,3,0,Sonstiges,Sigmaringer Straße,48.732729172614,9.1561202322574
2025-03-19T00:33:38,2025-03-19,3,0,Wilder Müll,In der Nähe von Zum Lauchwald 35,48.73521240578,9.0953146946079
2025-03-19T00:33:38,2025-03-19,3,0,Wilder Müll,Nonnenwaldstraße,48.776524751288,9.1838654087372
2025-03-19T00:33:38,2025-03-19,3,0,Wilder Müll,In der Nähe von Sparrhärmlingweg 25,48.812301994347,9.2060848094867
2025-03-19T00:33:38,2025-03-19,3,0,Gefahrenstelle,Reinsburgstraße,48.76817941945,9.151657507339
2025-03-19T00:33:38,2025-03-19,3,0,Sonstiges,Arminstraße,48.764668754853,9.1663163060579
2025-03-19T00:33:38,2025-03-19,3,0,Straßenbeleuchtung,In der Nähe von Elfenstraße 110,48.733603099726,9.1540015935321
2025-03-19T00:33:38,2025-03-19,3,0,Sonstiges,Aachener Straße,48.807184665729,9.2098075762787
2025-03-19T00:33:38,2025-03-19,3,0,Wilder Müll,Aachener Straße,48.806607312843,9.210690422134
2025-03-19T00:33:38,2025-03-19,3,0,Treppe,Salzäckerstraße,48.718573133319,9.1599511417128
2025-03-19T00:33:38,2025-03-19,3,0,Wilder Müll,In der Nähe von Salzäckerstraße 164,48.718528176501,9.1599054848608
2025-03-19T00:33:38,2025-03-19,3,0,Wilder Müll,In der Nähe von Altglas-Container (Großglocknerstraße / Mettinger Straße),48.778787319043,9.2523075570002
2025-03-19T00:33:38,2025-03-19,3,0,Ampel,Vaihinger Straße,48.728060823955,9.1342264891262
2025-03-19T00:33:38,2025-03-19,3,0,Radweg - Schäden,In der Nähe von Aldinger Straße 210,48.846873544187,9.243891224951
2025-03-19T00:33:38,2025-03-19,3,0,Straßeneinlauf - verstopft,Kernerstraße,48.780797741482,9.1901094580738
2025-03-19T00:33:38,2025-03-19,3,0,Radweg - Scherben,Hunklinge,48.808826439599,9.1880321367013
2025-03-19T00:33:38,2025-03-19,3,0,Sonstiges,Mörikestraße,48.764244203571,9.1612119659897
2025-03-19T00:33:38,2025-03-19,3,0,Sonstiges,Hallstraße,48.807455210184,9.2094409776798
2025-03-19T00:33:38,2025-03-19,3,0,Wilder Müll,In der Nähe von Schönbuchstraße 63,48.712927634543,9.1067820067255
2025-03-19T00:33:38,2025-03-19,3,0,Wilder Müll,In der Nähe von Schönbuchstraße 55,48.713064341901,9.1060780995962
2025-03-19T00:33:38,2025-03-19,3,0,Wilder Müll,Kolbstraße,48.765132228207,9.1692843969352
2025-03-19T00:33:38,2025-03-19,3,0,Wilder Müll,Kolbstraße,48.765132228207,9.1692843969352
2025-03-19T00:33:38,2025-03-19,3,0,Wilder Müll,Hauptstätter Straße,48.772592915474,9.1791904044644
2025-03-19T00:33:38,2025-03-19,3,0,Gefahrenstelle,Böhmisreuteweg,48.759225460851,9.1569119593559
2025-03-19T07:15:37,2025-03-19,3,7,Verkehrszeichen,In der Nähe von Stuttgarter Straße 81,48.80893364702,9.158275820784
2025-03-19T07:15:37,2025-03-19,3,7,Wilder Müll,Rütlistraße,48.833909354387,9.1607676598798
2025-03-19T08:16:26,2025-03-19,3,8,Gehweg - Verschmutzung,Rümelinstraße,48.798783498354,9.1937995855288
2025-03-19T08:16:26,2025-03-19,3,8,Radweg - Verschmutzung,In der Nähe von Altglas-Container (Steinhaldenstraße / Einsteinstraße),48.818806598292,9.236165118058
2025-03-19T08:16:26,2025-03-19,3,8,Sonstiges,In der Nähe von Torgauer Straße 22,48.818510550115,9.1118718153226
2025-03-19T09:16:27,2025-03-19,3,9,Sonstiges,Grubenäcker,48.80286647919,9.1042478908193
2025-03-19T09:16:27,2025-03-19,3,9,Wilder Müll,In der Nähe von Haußmannstraße 40D,48.781293111347,9.1941128404517
2025-03-19T09:16:27,2025-03-19,3,9,Wilder Müll,In der Nähe von Blankensteinstraße 40,48.8397445,9.1950883
2025-03-19T09:16:27,2025-03-19,3,9,Sonstiges,Vogelsangstraße,48.773891398919,9.1520149719079
2025-03-19T09:16:27,2025-03-19,3,9,Wilder Müll,Lembergstraße,48.780732306709,9.2021288673593
2025-03-19T09:16:27,2025-03-19,3,9,SSB Haltestelle,In der Nähe von Kitzbüheler Weg 13,48.810050585853,9.1493414455057
2025-03-19T10:16:03,2025-03-19,3,10,Wilder Müll,Nißlestraße,48.797164430176,9.2091257989529
2025-03-19T10:16:03,2025-03-19,3,10,Sonstiges,In der Nähe von Föhrichhof 25,48.8096551,9.1435531
2025-03-19T10:16:03,2025-03-19,3,10,Wilder Müll,In der Nähe von Teckstraße 2,48.785829456631,9.2052863122046
2025-03-19T10:16:03,2025-03-19,3,10,Sonstiges,In der Nähe von Föhrichhof 25,48.8096551,9.1435531
2025-03-19T11:15:07,2025-03-19,3,11,Sonstiges,Wolfeggstraße,48.771241261608,9.2441040109358
2025-03-19T11:15:07,2025-03-19,3,11,Begrünung,Sommestraße,48.806354167993,9.2433074219367
2025-03-19T11:15:07,2025-03-19,3,11,Ampel,Goezstraße,48.701500244949,9.2143150635995
2025-03-19T12:17:17,2025-03-19,3,12,Wilder Müll,Haußmannstraße,48.786258100074,9.2157648493745
2025-03-19T12:17:17,2025-03-19,3,12,Wilder Müll,Bachgerstenstraße,48.822021166465,9.1112713241895
2025-03-19T12:17:17,2025-03-19,3,12,Sonstiges,Uhlbacher Straße,48.765784626912,9.2705456332355
2025-03-19T13:17:53,2025-03-19,3,13,Radweg - Verschmutzung,Pfaffenwaldring,48.782006848411,9.1846088906411
2025-03-19T13:17:53,2025-03-19,3,13,Brunnen / Gewässer,Neubauerweg,48.749869392398,9.0845213204665
2025-03-19T13:17:53,2025-03-19,3,13,Wilder Müll,In der Nähe von Suttnerstraße 14,48.841347864751,9.2045440804861
