first_seen_at_timestamp,first_seen_date,first_seen_weekday,first_seen_hour,category,location,lat,lon
2025-08-10T00:43:35,2025-08-10,7,0,Straße - Schäden,In der Nähe von Einödstraße 50,48.748859266116,9.2649855127462
2025-08-10T00:43:35,2025-08-10,7,0,Sonstiges,In der Nähe von Unterer Dornbusch 4,48.805384341101,9.1842229781398
2025-08-10T00:43:35,2025-08-10,7,0,Sonstiges,Haußmannstraße,48.786481845954,9.2115319006662
2025-08-10T00:43:35,2025-08-10,7,0,Wilder Müll,Katharinenstraße,48.771817865499,9.1800858987098
2025-08-10T00:43:35,2025-08-10,7,0,Straßenbeleuchtung,Teutoburger Straße,48.813103367164,9.1388257163272
2025-08-10T00:43:35,2025-08-10,7,0,Wilder Müll,Hohe Straße,48.775831967302,9.1668703953347
2025-08-10T00:43:35,2025-08-10,7,0,Wilder Müll,Wilhelmstraße (Ca),48.805255440924,9.2168813734308
2025-08-10T00:43:35,2025-08-10,7,0,Sonstiges,Stitzenburgstraße,48.770865092855,9.1852541492894
2025-08-10T00:43:35,2025-08-10,7,0,Sonstiges,In der Nähe von Wiener Platz 5,48.814291237106,9.167987096902
2025-08-10T00:43:35,2025-08-10,7,0,Verkehrszeichen,In der Nähe von Stuttgarter Straße 78,48.809686097005,9.1608217413508
2025-08-10T00:43:35,2025-08-10,7,0,Verkehrszeichen,In der Nähe von Mühlwasen 14,48.805637641616,9.1583474360568
2025-08-10T00:43:35,2025-08-10,7,0,Sonstiges,Scillawaldstraße,48.837227499433,9.2259318121257
2025-08-10T00:43:35,2025-08-10,7,0,Sonstiges,Scillawaldstraße,48.836949403348,9.2255353633085
2025-08-10T00:43:35,2025-08-10,7,0,Brunnen / Gewässer,Widmaierstraße,48.722651068899,9.1579789670285
2025-08-10T00:43:35,2025-08-10,7,0,Gehweg - Verschmutzung,Katharinenstraße,48.771817862206,9.180085898698
2025-08-10T00:43:35,2025-08-10,7,0,Sonstiges,Schelmenwasenstraße,48.709886243552,9.1689785243522
2025-08-10T00:43:35,2025-08-10,7,0,Sonstiges,Glockenblumenstraße,48.73376841089,9.1041729547734
2025-08-10T00:43:35,2025-08-10,7,0,Gehweg - Schäden,Forststraße,48.776319618676,9.1525395250696
2025-08-10T00:43:35,2025-08-10,7,0,Ampel,In der Nähe von Motorstraße 50/1,48.825126577481,9.0957404300848
2025-08-10T00:43:35,2025-08-10,7,0,Ampel,Ulmer Straße,48.776899389151,9.2356244034625
2025-08-10T00:43:35,2025-08-10,7,0,Brunnen / Gewässer,Widmaierstraße,48.72265106562,9.1579789670183
2025-08-10T00:43:35,2025-08-10,7,0,Sonstiges,In der Nähe von Heilbronner Straße 239,48.809822234692,9.1823414226909
2025-08-10T00:43:35,2025-08-10,7,0,Kanaldeckel,Rohrackerstraße,48.758643527824,9.2539755862249
2025-08-10T00:43:35,2025-08-10,7,0,Brunnen / Gewässer,Kernerstraße,48.781742693493,9.1898816131898
2025-08-10T00:43:35,2025-08-10,7,0,Gefahrenstelle,In der Nähe von Skulptur Der Mönch von Münster (Jagststraße / Schussengasse),48.819918132557,9.2244787538126
2025-08-10T00:43:35,2025-08-10,7,0,Wilder Müll,Reinsburgstraße,48.769035038118,9.1508979727715
2025-08-10T00:43:35,2025-08-10,7,0,Straßeneinlauf - verstopft,Johannesstraße,48.779134643067,9.1597078924207
2025-08-10T00:43:35,2025-08-10,7,0,Straßeneinlauf - verstopft,Am Hauptbahnhof,48.785985179429,9.1809397943021
2025-08-10T00:43:35,2025-08-10,7,0,Straße - Schäden,Moskauer Straße,48.790300830833,9.1824665630411
2025-08-10T00:43:35,2025-08-10,7,0,Straßenbeleuchtung,Münchinger Straße,48.84938419411,9.1527204465224
2025-08-10T00:43:35,2025-08-10,7,0,Treppe,Raichbergstraße,48.765298486046,9.2698854925791
2025-08-10T00:43:35,2025-08-10,7,0,Sonstiges,Neue Weinsteige,48.764358828132,9.180957347667
2025-08-10T00:43:35,2025-08-10,7,0,Schlagloch,In der Nähe von Walter-Flex-Straße 68,48.741276949359,9.2115461671638
2025-08-10T00:43:35,2025-08-10,7,0,Poller,Holzstraße,48.774838961695,9.1810766743727
2025-08-10T00:43:35,2025-08-10,7,0,Treppe,In der Nähe von Altglas-Container (Ohnholdstraße Waldparkplatz Asemwald),48.726323174927,9.1918924551831
2025-08-10T00:43:35,2025-08-10,7,0,Straße - Schäden,Malvenweg,48.736703359582,9.1016629455457
2025-08-10T00:43:35,2025-08-10,7,0,Straße - Verschmutzung,Silberburgstraße,48.779732,9.1627338
2025-08-10T00:43:35,2025-08-10,7,0,Wilder Müll,Sonntagweg,48.7518669852,9.0839366291792
2025-08-10T00:43:35,2025-08-10,7,0,Gehweg - Verschmutzung,Mozartstraße,48.767545433713,9.1764164685093
2025-08-10T00:43:35,2025-08-10,7,0,Sonstiges,Fred-Uhlman-Straße,48.737901828437,9.217244310681
2025-08-10T08:16:39,2025-08-10,7,8,Radweg - Scherben,In der Nähe von Am Leuzebad 6,48.799483281802,9.2111320559408
2025-08-10T09:16:00,2025-08-10,7,9,Gehweg - Verschmutzung,Römerstraße,48.764288572866,9.1740034846981
2025-08-10T10:16:12,2025-08-10,7,10,Gefahrenstelle,In der Nähe von Am Hauptbahnhof 4,48.786559284187,9.1812178422963
2025-08-10T10:16:12,2025-08-10,7,10,Wilder Müll,In der Nähe von Geräte- und Ballspielfläche (Kurpark/ Wiesbadener Straße),48.807349880701,9.2271576766931
2025-08-10T10:16:12,2025-08-10,7,10,Verkehrszeichen,Karl-Kloß-Straße,48.760395868334,9.1598117570642
2025-08-10T10:16:12,2025-08-10,7,10,Sonstiges,Rotenwaldstraße,48.770710850982,9.1489296050509
2025-08-10T13:20:03,2025-08-10,7,13,Begrünung,In der Nähe von Dürrbachstraße 71,48.7594853,9.2358998
2025-08-10T16:16:24,2025-08-10,7,16,Radweg - Schäden,Landhausstraße,48.786256036641,9.2070792421862
2025-08-10T17:15:46,2025-08-10,7,17,Sonstiges,Leimenweg,48.82713582316,9.2250553244289
2025-08-10T17:15:46,2025-08-10,7,17,Sonstiges,In der Nähe von Aixheimer Straße 26,48.740847916214,9.2170574846026
2025-08-10T17:15:46,2025-08-10,7,17,Sonstiges,In der Nähe von Aixheimer Straße 28,48.741211186009,9.2174061655457
2025-08-10T17:15:46,2025-08-10,7,17,Verkehrszeichen,Robert-Leicht-Straße,48.740530457093,9.1074104661844
2025-08-10T17:15:46,2025-08-10,7,17,Wilder Müll,Theoderichweg,48.809563390724,9.1752088338439
2025-08-10T17:15:46,2025-08-10,7,17,Verkehrszeichen,In der Nähe von Rudolf-Brenner-Straße 22,48.744643825621,9.207507440149
