first_seen_at_timestamp,first_seen_date,first_seen_weekday,first_seen_hour,category,location,lat,lon
2025-02-03T00:32:18,2025-02-03,1,0,Sonstiges,Holderäckerstraße 31,48.823318260259,9.0996445799522
2025-02-03T00:32:18,2025-02-03,1,0,Sonstiges,In der Nähe von Staigerstraße 5,48.814680664709,9.1138962476489
2025-02-03T00:32:18,2025-02-03,1,0,Sonstiges,In der Nähe von Staigerstraße 12A,48.814453361891,9.1140077918617
2025-02-03T00:32:18,2025-02-03,1,0,Kanaldeckel,Nathanstraße 5,48.725949415889,9.1057477114322
2025-02-03T00:32:18,2025-02-03,1,0,Straße - Schäden,In der Nähe von Büsnauer Platz 1,48.749530796709,9.0799634606837
2025-02-03T00:32:18,2025-02-03,1,0,Sonstiges,In der Nähe von Stedingerstraße 10,48.8152252,9.1150002
2025-02-03T00:32:18,2025-02-03,1,0,Sonstiges,Stedingerstraße 6,48.815288297186,9.1147871248359
2025-02-03T00:32:18,2025-02-03,1,0,Gehweg - Schäden,In der Nähe von Im Lerchenrain 22,48.757764080036,9.1522365607375
2025-02-03T00:32:18,2025-02-03,1,0,Sonstiges,Stedingerstraße 7,48.815324415515,9.115184661223
2025-02-03T00:32:18,2025-02-03,1,0,Wilder Müll,In der Nähe von Pischekstraße 68,48.766819266334,9.1995675813329
2025-02-03T00:32:18,2025-02-03,1,0,Straße - Schäden,Brunnenwiesen 16,48.732011900077,9.2110721234061
2025-02-03T00:32:18,2025-02-03,1,0,Sonstiges,In der Nähe von Losäckerstraße 20,48.815739773199,9.0854204228481
2025-02-03T00:32:18,2025-02-03,1,0,Gefahrenstelle,In der Nähe von Heerstraße 30,48.732394610806,9.1002828874626
2025-02-03T00:32:18,2025-02-03,1,0,Gehweg - Verschmutzung,In der Nähe von Mühlhäuser Straße 271/1,48.836255063682,9.2135303853722
2025-02-03T00:32:18,2025-02-03,1,0,Sonstiges,In der Nähe von Mühlhäuser Straße 311,48.837022343306,9.2174518064407
2025-02-03T00:32:18,2025-02-03,1,0,Gehweg - Verschmutzung,Heinrich-Ebner-Straße 4,48.79962244113,9.2224129896348
2025-02-03T00:32:18,2025-02-03,1,0,Wilder Müll,In der Nähe von Mönchfeldstraße 120/5,48.84486403,9.21116442
2025-02-03T00:32:18,2025-02-03,1,0,Gehweg - Verschmutzung,Mörikestraße 6/1,48.769568361224,9.1685235799922
2025-02-03T00:32:18,2025-02-03,1,0,Wilder Müll,Lindenschulstraße 20,48.777446996137,9.2490069844154
2025-02-03T00:32:18,2025-02-03,1,0,Sonstiges,Klingenstraße 44,48.776630227523,9.2071485371291
2025-02-03T00:32:18,2025-02-03,1,0,Wilder Müll,In der Nähe von Alexanderstraße 70,48.771982162134,9.1842783440838
2025-02-03T00:32:18,2025-02-03,1,0,Wilder Müll,In der Nähe von Vaihinger Straße 116,48.7294904,9.1346368
2025-02-03T00:32:18,2025-02-03,1,0,Sonstiges,In der Nähe von Gerätespielfläche (Reinhartstraße),48.843464941733,9.2310378556346
2025-02-03T00:32:18,2025-02-03,1,0,Sonstiges,Liststraße 24,48.763595655712,9.174150775265
2025-02-03T00:32:18,2025-02-03,1,0,Sonstiges,In der Nähe von Echterdinger Straße 40,48.698264347343,9.2036161051954
2025-02-03T00:32:18,2025-02-03,1,0,Wilder Müll,Stedingerstraße 17,48.814973597149,9.1143222662578
2025-02-03T00:32:18,2025-02-03,1,0,Wilder Müll,Augsburger Straße 285,48.785913552803,9.2483817983774
2025-02-03T00:32:18,2025-02-03,1,0,Gehweg - Schäden,Ditzinger Straße 28A,48.816609455186,9.1072868458664
2025-02-03T00:32:18,2025-02-03,1,0,Wilder Müll,In der Nähe von Schöntaler Straße 7,48.827291869215,9.1767799570405
2025-02-03T00:32:18,2025-02-03,1,0,Wilder Müll,Amstetter Straße 80,48.755007981571,9.2585422633019
2025-02-03T00:32:18,2025-02-03,1,0,Straßenbeleuchtung,In der Nähe von Schwarzbachstraße 46,48.717714269709,9.1087795207554
2025-02-03T00:32:18,2025-02-03,1,0,Wilder Müll,In der Nähe von Arnulf-Klett-Platz 2/4,48.782743734885,9.1828297840751
2025-02-03T00:32:18,2025-02-03,1,0,Gefahrenstelle,In der Nähe von Steinbrunnenstraße 6,48.724911958712,9.1501965380237
2025-02-03T00:32:18,2025-02-03,1,0,Verkehrszeichen,In der Nähe von Föhrichstraße 147,48.811708417834,9.1358788612239
2025-02-03T00:32:18,2025-02-03,1,0,Straßenbeleuchtung,Andreästraße 4,48.80593119326,9.2347117117542
2025-02-03T00:32:18,2025-02-03,1,0,Wilder Müll,In der Nähe von Weberstraße 24,48.771894824219,9.1800260529873
2025-02-03T00:32:18,2025-02-03,1,0,Straßenbeleuchtung,Markomannenstraße 18,48.829287117144,9.1720892376643
2025-02-03T00:32:18,2025-02-03,1,0,Gehweg - Verschmutzung,In der Nähe von Urbanbrunnen (Uhlbacher Platz),48.775879156963,9.2789983049386
2025-02-03T00:32:18,2025-02-03,1,0,Sonstiges,Beihinger Weg 3B,48.851699087529,9.1572122566796
2025-02-03T00:32:18,2025-02-03,1,0,Straßenbeleuchtung,In der Nähe von Jahn-Realschule (Überkinger Straße 48),48.808752381037,9.2165867301803
2025-02-03T04:16:10,2025-02-03,1,4,Ampel,In der Nähe von Am Kräherwald 187,48.784086805648,9.1470526460154
2025-02-03T04:16:10,2025-02-03,1,4,Sonstiges,Solitudestraße 272,48.816728100062,9.114860948371
2025-02-03T06:16:31,2025-02-03,1,6,Wilder Müll,In der Nähe von Altglas-Container (Gottfried-Keller-Straße / Salzwiesenstraße),48.835299058611,9.1595393638375
2025-02-03T06:16:31,2025-02-03,1,6,Sonstiges,Maierhofstraße 32,48.815456599553,9.1087555279265
2025-02-03T07:16:32,2025-02-03,1,7,Sonstiges,In der Nähe von Solitudestraße 271,48.816997612155,9.1147641980061
2025-02-03T07:16:32,2025-02-03,1,7,Straßenbeleuchtung,Rührbrunnenweg 19,48.774790112846,9.2816050743501
2025-02-03T07:16:32,2025-02-03,1,7,Wilder Müll,Beim Fasanengarten 38A,48.8169582342,9.0885299684256
2025-02-03T07:16:32,2025-02-03,1,7,Sonstiges,Löwen-Markt 5,48.814435789162,9.1131938995696
2025-02-03T08:16:26,2025-02-03,1,8,Sonstiges,Widdumhofstraße 19,48.813926031057,9.1100871019511
2025-02-03T09:16:04,2025-02-03,1,9,Wilder Müll,Kemptener Straße 10A,48.768266790343,9.2468249883733
2025-02-03T09:16:04,2025-02-03,1,9,Straße - Verschmutzung,In der Nähe von Altglas-Container (Korntaler Straße / Mercatorweg),48.841812369649,9.1446252966513
2025-02-03T09:16:04,2025-02-03,1,9,Straßenbeleuchtung,In der Nähe von Altglas-Container (Fliegenweg Parkplatz Sporthalle),48.849685731437,9.1501519999694
2025-02-03T09:16:04,2025-02-03,1,9,Wilder Müll,In der Nähe von Elbestraße 157/1,48.825062054445,9.2118499256246
2025-02-03T10:15:42,2025-02-03,1,10,Sonstiges,In der Nähe von Auf der Kanzel 43,48.799116740877,9.1788855341834
2025-02-03T10:15:42,2025-02-03,1,10,Gehweg - Verschmutzung,Unterländer Straße 29,48.831850300655,9.172520425955
2025-02-03T10:15:42,2025-02-03,1,10,Sonstiges,Planckstraße 28,48.775687387697,9.2010877933387
2025-02-03T10:15:42,2025-02-03,1,10,Sonstiges,Planckstraße 40,48.774708656798,9.2000358631194
2025-02-03T11:14:45,2025-02-03,1,11,Wilder Müll,Talstraße 61,48.784993509356,9.2137037973505
2025-02-03T11:14:45,2025-02-03,1,11,Sonstiges,In der Nähe von Nagoldstraße 38,48.820402611847,9.2196969936144
2025-02-03T11:14:45,2025-02-03,1,11,Sonstiges,In der Nähe von Nagoldstraße 42,48.820496712056,9.2193165906532
