first_seen_at_timestamp,first_seen_date,first_seen_weekday,first_seen_hour,category,location,lat,lon
2025-02-25T00:32:49,2025-02-25,2,0,Kanaldeckel,Rilkeweg,48.840968240947,9.2125517097554
2025-02-25T00:32:49,2025-02-25,2,0,Wilder Müll,In der Nähe von Heilbronner Straße 77,48.79257383457,9.1813436259905
2025-02-25T00:32:49,2025-02-25,2,0,Straßenbeleuchtung,In der Nähe von Sollingstraße 5,48.811499539226,9.1402990645048
2025-02-25T00:32:49,2025-02-25,2,0,Sonstiges,Lessingstraße,48.7882752,9.1717632
2025-02-25T00:32:49,2025-02-25,2,0,Wilder Müll,Schmidener Straße,48.81032994544,9.22119365527
2025-02-25T00:32:49,2025-02-25,2,0,Wilder Müll,Industriestraße,48.722751301646,9.1279443110858
2025-02-25T00:32:49,2025-02-25,2,0,Wilder Müll,Gablenberger Hauptstraße,48.7790885,9.2072794
2025-02-25T00:32:49,2025-02-25,2,0,Straßenbeleuchtung,Heumadener Straße,48.757581200612,9.2543375940562
2025-02-25T00:32:49,2025-02-25,2,0,Radweg - Scherben,In der Nähe von Robert-Leicht-Straße 103,48.739819452639,9.1076480561967
2025-02-25T00:32:49,2025-02-25,2,0,Radweg - Scherben,In der Nähe von Schelmenwasenstraße 4,48.714115989404,9.1657541681931
2025-02-25T00:32:49,2025-02-25,2,0,Straße - Verschmutzung,In der Nähe von Altglas-Container (Heigelinstraße / Schelmenwasenstraße),48.713874989103,9.1666607315143
2025-02-25T00:32:49,2025-02-25,2,0,Gehweg - Verschmutzung,In der Nähe von Freibad Möhringen (Hechinger Straße 112),48.717813067017,9.1433399231079
2025-02-25T00:32:49,2025-02-25,2,0,Schlagloch,In der Nähe von Böblinger Straße 376,48.745286694246,9.1347286806869
2025-02-25T00:32:49,2025-02-25,2,0,Sonstiges,In der Nähe von Jagststraße 23,48.81991957079,9.2244321543237
2025-02-25T00:32:49,2025-02-25,2,0,Wilder Müll,Spielberger Straße,48.836471309907,9.1744305004451
2025-02-25T00:32:49,2025-02-25,2,0,Wilder Müll,In der Nähe von Amstetter Straße 72,48.755421513368,9.2583865444518
2025-02-25T00:32:49,2025-02-25,2,0,Gehweg - Verschmutzung,Am Feldrand,48.738069925265,9.1026041539562
2025-02-25T00:32:49,2025-02-25,2,0,Wilder Müll,Mercedesstraße,48.795109423991,9.2255247621545
2025-02-25T00:32:49,2025-02-25,2,0,SSB Haltestelle,In der Nähe von Heilbronner Straße 122,48.797272001385,9.1829003480712
2025-02-25T00:32:49,2025-02-25,2,0,Straße - Schäden,Alosenweg,48.757949647741,9.2504072782621
2025-02-25T00:32:49,2025-02-25,2,0,Wilder Müll,Deckerstraße,48.799800496913,9.2279696994077
2025-02-25T00:32:49,2025-02-25,2,0,Wilder Müll,Stiftstraße,48.776455219465,9.1772305355871
2025-02-25T00:32:49,2025-02-25,2,0,Treppe,Deckerstraße,48.799800496913,9.2279696994077
2025-02-25T00:32:49,2025-02-25,2,0,Wilder Müll,Forststraße,48.775439365817,9.1445064511385
2025-02-25T00:32:49,2025-02-25,2,0,Wilder Müll,In der Nähe von Wörishofener Straße 3,48.800093878149,9.2265429519008
2025-02-25T00:32:49,2025-02-25,2,0,Sonstiges,Bodoweg,48.789422482511,9.2603800110392
2025-02-25T00:32:49,2025-02-25,2,0,Brunnen / Gewässer,Löwen-Markt,48.814094814614,9.1123077462865
2025-02-25T00:32:49,2025-02-25,2,0,Wilder Müll,In der Nähe von Rohrackerstraße 140,48.758769020402,9.2425555951405
2025-02-25T00:32:49,2025-02-25,2,0,Ampel,Zellerstraße,48.761854918208,9.1755697443582
2025-02-25T00:32:49,2025-02-25,2,0,Sonstiges,Walbrunnenstraße,48.706688039569,9.2009758464013
2025-02-25T00:32:49,2025-02-25,2,0,Wilder Müll,Kniebisstraße,48.785261606089,9.2047744657145
2025-02-25T00:32:49,2025-02-25,2,0,Wilder Müll,Alexanderstraße,48.772151666912,9.1851636127123
2025-02-25T00:32:49,2025-02-25,2,0,Ampel,Theoderichweg,48.812284325758,9.1615758568821
2025-02-25T00:32:49,2025-02-25,2,0,Straßenbeleuchtung,In der Nähe von Glemsgaustraße 36,48.816129731767,9.1106497993273
2025-02-25T00:32:49,2025-02-25,2,0,Sonstiges,Augsburger Straße,48.769218192532,9.2633450140227
2025-02-25T00:32:49,2025-02-25,2,0,Gefahrenstelle,In der Nähe von Adlerstraße 21A,48.76298900362,9.1627841310612
2025-02-25T00:32:49,2025-02-25,2,0,Gefahrenstelle,In der Nähe von Breitscheidstraße 10,48.778981810934,9.1673352601708
2025-02-25T00:32:49,2025-02-25,2,0,Wilder Müll,In der Nähe von In den Ringelgärten 2D,48.814283816914,9.2352284748414
2025-02-25T00:32:49,2025-02-25,2,0,Verkehrszeichen,In der Nähe von Waiblinger Straße 2/1,48.803199098108,9.2169902885965
2025-02-25T00:32:49,2025-02-25,2,0,Straße - Verschmutzung,In der Nähe von Steckfeldstraße 1,48.714030466536,9.2059303719443
2025-02-25T07:15:30,2025-02-25,2,7,Sonstiges,Eberhardstraße,48.772891675741,9.1779665520424
2025-02-25T07:15:30,2025-02-25,2,7,Straße - Schäden,In der Nähe von Sanddornweg 4,48.706253827572,9.2204958003202
2025-02-25T08:16:28,2025-02-25,2,8,Wilder Müll,Maybachstraße,48.809578304347,9.1772246605166
2025-02-25T08:16:28,2025-02-25,2,8,Gefahrenstelle,Landhausstraße,48.78424578493,9.2142633093505
2025-02-25T08:16:28,2025-02-25,2,8,Straße - Verschmutzung,Rückertstraße,48.773980656367,9.1455911018479
2025-02-25T08:16:28,2025-02-25,2,8,Straßenbeleuchtung,In der Nähe von Hohensteinstraße 42,48.827956087448,9.1693322614863
2025-02-25T09:15:59,2025-02-25,2,9,Wilder Müll,In der Nähe von Ostendstraße 45/1,48.786822,9.2082426
2025-02-25T09:15:59,2025-02-25,2,9,Sonstiges,Köpfertstraße,48.7025350372,9.2042755628204
2025-02-25T09:15:59,2025-02-25,2,9,Wilder Müll,Frühlingshalde,48.795460627437,9.179203751955
2025-02-25T09:15:59,2025-02-25,2,9,Wilder Müll,Baltenstraße,48.84183115244,9.2270700836079
2025-02-25T10:15:54,2025-02-25,2,10,Sonstiges,In der Nähe von Altkleider-Container (Fürfelder Straße / Haldenrainstraße Parkplatz),48.832023110651,9.19121582101
2025-02-25T10:15:54,2025-02-25,2,10,Straße - Verschmutzung,Sängerstraße,48.782122351891,9.18876680639
2025-02-25T10:15:54,2025-02-25,2,10,Begrünung,Sängerstraße,48.782122351891,9.18876680639
2025-02-25T10:15:54,2025-02-25,2,10,Gehweg - Schäden,Sängerstraße,48.782122355187,9.1887668064023
2025-02-25T10:15:54,2025-02-25,2,10,Begrünung,In der Nähe von Herschelstraße 46D,48.717031369585,9.1245778606727
2025-02-25T10:15:54,2025-02-25,2,10,Sonstiges,Nibelungenstraße,48.80390400989,9.1816306994074
2025-02-25T10:15:54,2025-02-25,2,10,Straßenbeleuchtung,In der Nähe von Schwarzäckerstraße 36,48.724362661225,9.1041501568146
2025-02-25T10:15:54,2025-02-25,2,10,Straßenbeleuchtung,In der Nähe von Galileistraße 31,48.720290873295,9.1186126278238
2025-02-25T11:15:07,2025-02-25,2,11,Wilder Müll,Störzbachstraße,48.804460686793,9.1879109369677
2025-02-25T11:15:07,2025-02-25,2,11,Gehweg - Verschmutzung,Hornbergstraße,48.779777775036,9.212660752139
2025-02-25T11:15:07,2025-02-25,2,11,Wilder Müll,Gutenbergstraße,48.771086806779,9.1562573103046
2025-02-25T11:15:07,2025-02-25,2,11,Gehweg - Schäden,Gaußstraße,48.775681090325,9.138123621469
2025-02-25T13:17:21,2025-02-25,2,13,Verkehrszeichen,Große Falterstraße,48.746381551872,9.1713162722968
2025-02-25T13:17:21,2025-02-25,2,13,Radweg - Verschmutzung,In der Nähe von Ferdinand-Leitner-Steg,48.782026468612,9.1847290800401
2025-02-25T13:17:21,2025-02-25,2,13,Sonstiges,In der Nähe von Spielfläche Egelseer Heide (Egelseer Heide (Uhlbach)),48.783997551396,9.2880416580034
2025-02-25T14:15:34,2025-02-25,2,14,Sonstiges,Kafkaweg,48.840107865908,9.2156553397202
2025-02-25T14:15:34,2025-02-25,2,14,Sonstiges,Robert-Mayer-Straße,48.793753743868,9.1776863172053
2025-02-25T14:15:34,2025-02-25,2,14,Wilder Müll,Erbsenbrunnengasse,48.80411085234,9.2131857911645
2025-02-25T14:15:34,2025-02-25,2,14,Wilder Müll,Daimlerstraße,48.80025573611,9.2205501811628
2025-02-25T15:15:59,2025-02-25,2,15,Verkehrszeichen,In der Nähe von Altkleider-Container (Bonhoefferweg),48.711283756462,9.1525818781297
2025-02-25T15:15:59,2025-02-25,2,15,Verkehrszeichen,In der Nähe von Altkleider-Container (Bonhoefferweg),48.711309377862,9.1525738551279
2025-02-25T15:15:59,2025-02-25,2,15,Sonstiges,In der Nähe von Fasanenhofstraße 137,48.709418099402,9.1531151535032
2025-02-25T15:15:59,2025-02-25,2,15,Gehweg - Verschmutzung,In der Nähe von Lammackerweg 3,48.724881567146,9.1409172377106
