first_seen_at_timestamp,first_seen_date,first_seen_weekday,first_seen_hour,category,location,lat,lon
2025-04-17T00:34:48,2025-04-17,4,0,Wilder Müll,In der Nähe von Theurerstraße 1,48.7838258,9.217426
2025-04-17T00:34:48,2025-04-17,4,0,Straße - Schäden,Gaußstraße,48.78021839309,9.1498561325912
2025-04-17T00:34:48,2025-04-17,4,0,Wilder Müll,Reichenbachstraße,48.798111030861,9.2224607756283
2025-04-17T00:34:48,2025-04-17,4,0,Ampel,In der Nähe von Lenore-Volz-Straße 23,48.795821185749,9.2259536028344
2025-04-17T00:34:48,2025-04-17,4,0,Verkehrszeichen,In der Nähe von Schönestraße 34,48.801460111916,9.211268414055
2025-04-17T00:34:48,2025-04-17,4,0,Wilder Müll,In der Nähe von Chemnitzer Straße 22,48.737885989409,9.1688396701226
2025-04-17T00:34:48,2025-04-17,4,0,Begrünung,In der Nähe von Ida-Kerkovius-Weg 20,48.73615531619,9.0926476959488
2025-04-17T00:34:48,2025-04-17,4,0,Kanaldeckel,In der Nähe von Wagenburgstraße 152,48.780955049037,9.2101094231469
2025-04-17T00:34:48,2025-04-17,4,0,Wilder Müll,Reichenbachstraße,48.798407920685,9.2224484713875
2025-04-17T00:34:48,2025-04-17,4,0,Sonstiges,Sommestraße,48.806354171296,9.2433074219526
2025-04-17T00:34:48,2025-04-17,4,0,Gefahrenstelle,Kauslerweg,48.727191219363,9.1392689707453
2025-04-17T00:34:48,2025-04-17,4,0,Straße - Schäden,Gablenberger Hauptstraße,48.780874900584,9.207941906724
2025-04-17T00:34:48,2025-04-17,4,0,Wilder Müll,Karl-Kloß-Straße,48.758363685392,9.1591522106979
2025-04-17T00:34:48,2025-04-17,4,0,Wilder Müll,Nißlestraße,48.797164430176,9.2091257989529
2025-04-17T00:34:48,2025-04-17,4,0,Straßeneinlauf - verstopft,In der Nähe von Friedrichstraße 13,48.782224839375,9.177332218129
2025-04-17T00:34:48,2025-04-17,4,0,Gehweg - Verschmutzung,In der Nähe von Park (Mittlerer Schloßgarten),48.783952123571,9.185946978944
2025-04-17T00:34:48,2025-04-17,4,0,Gefahrenstelle,Elsässer Straße,48.830019635868,9.1694892492525
2025-04-17T00:34:48,2025-04-17,4,0,Sonstiges,In der Nähe von Fasanenhofstraße 101,48.709133526119,9.1539063680425
2025-04-17T00:34:48,2025-04-17,4,0,Gefahrenstelle,Hornbergstraße,48.781132167311,9.2148172338354
2025-04-17T00:34:48,2025-04-17,4,0,Straße - Schäden,Kaindlstraße,48.749491139966,9.0850920475946
2025-04-17T00:34:48,2025-04-17,4,0,Sonstiges,In der Nähe von Skateranlage (König-Karl-Brücke),48.799737576916,9.2126817234563
2025-04-17T00:34:48,2025-04-17,4,0,Sonstiges,Bebelstraße,48.774669400618,9.1476580312549
2025-04-17T00:34:48,2025-04-17,4,0,Gefahrenstelle,In der Nähe von Lauftreff U14-Haltestelle May-Eyth-See (Seeblickweg),48.832921988998,9.2163901450794
2025-04-17T00:34:48,2025-04-17,4,0,Sonstiges,In der Nähe von Mainstraße 43,48.822939686457,9.221145584423
2025-04-17T00:34:48,2025-04-17,4,0,Verkehrszeichen,In der Nähe von Toilettenanlage (Lautenschlagerstraße 20/1),48.781264742401,9.1784000027141
2025-04-17T00:34:48,2025-04-17,4,0,Wilder Müll,Eisenbahnstraße,48.802488614049,9.2147858613253
2025-04-17T00:34:48,2025-04-17,4,0,Gefahrenstelle,Zuckerbergstraße,48.825257912339,9.2284938768316
2025-04-17T00:34:48,2025-04-17,4,0,Sonstiges,In der Nähe von Udamstraße 48,48.722684864841,9.1414429543617
2025-04-17T00:34:48,2025-04-17,4,0,Sonstiges,In der Nähe von Fasanenhofstraße 161,48.709870925377,9.153341334461
2025-04-17T00:34:48,2025-04-17,4,0,Sonstiges,Schönbühlstraße,48.782656942496,9.2124142723343
2025-04-17T00:34:48,2025-04-17,4,0,Sonstiges,Schönbühlstraße,48.782656942496,9.2124142723343
2025-04-17T00:34:48,2025-04-17,4,0,Sonstiges,Schönbühlstraße,48.782656942496,9.2124142723343
2025-04-17T00:34:48,2025-04-17,4,0,Sonstiges,Schönbühlstraße,48.7826569392,9.2124142723204
2025-04-17T00:34:48,2025-04-17,4,0,Begrünung,Schönbühlstraße,48.782656942496,9.2124142723343
2025-04-17T00:34:48,2025-04-17,4,0,Wilder Müll,In der Nähe von Altglas-Container (Lukasplatz),48.786953604786,9.2047656273328
2025-04-17T00:34:48,2025-04-17,4,0,Sonstiges,Schönbühlstraße,48.7826569392,9.2124142723204
2025-04-17T00:34:48,2025-04-17,4,0,Sonstiges,Schönbühlstraße,48.782656942496,9.2124142723343
2025-04-17T00:34:48,2025-04-17,4,0,Sonstiges,In der Nähe von Gerätespielfläche (Klingenbachanlage ll),48.781754061153,9.2116349150139
2025-04-17T00:34:48,2025-04-17,4,0,Wilder Müll,In der Nähe von Altglas-Container (Heusteigstraße / Cottastraße),48.766836296256,9.1729849035637
2025-04-17T00:34:48,2025-04-17,4,0,Straßenbeleuchtung,In der Nähe von Sturmvogelweg 12A,48.831734843005,9.2384339056684
2025-04-17T04:16:24,2025-04-17,4,4,Gefahrenstelle,In der Nähe von Skulptur Der Mönch von Münster (Jagststraße / Schussengasse),48.819932471029,9.2244622726449
2025-04-17T05:15:48,2025-04-17,4,5,Sonstiges,Eberhardstraße,48.773286459468,9.1784902618712
2025-04-17T05:15:48,2025-04-17,4,5,Gefahrenstelle,In der Nähe von Skulptur Der Mönch von Münster (Jagststraße / Schussengasse),48.819931931725,9.2244787345738
2025-04-17T06:17:01,2025-04-17,4,6,Sonstiges,In der Nähe von Wohnanlage Fasanenhof (Laubeweg 1),48.710039961329,9.1534920738525
2025-04-17T06:17:01,2025-04-17,4,6,Sonstiges,In der Nähe von Schönbühlstraße 100,48.782571717039,9.2122371683164
2025-04-17T06:17:01,2025-04-17,4,6,Gefahrenstelle,In der Nähe von Skulptur Der Mönch von Münster (Jagststraße / Schussengasse),48.819929970996,9.2244687187747
2025-04-17T07:16:05,2025-04-17,4,7,Ampel,In der Nähe von Stammheimer Straße 78,48.836877839581,9.1624942971208
2025-04-17T08:16:55,2025-04-17,4,8,Verkehrszeichen,In der Nähe von Kreuzstraße 4,48.733635209109,9.1079305004216
2025-04-17T08:16:55,2025-04-17,4,8,Wilder Müll,In der Nähe von Mörikestraße 21,48.766112526424,9.1669377051954
2025-04-17T09:16:14,2025-04-17,4,9,Gefahrenstelle,Mühlhäuser Straße,48.83734973857,9.2185189301025
2025-04-17T09:16:14,2025-04-17,4,9,Wilder Müll,In der Nähe von Gaisburgstraße 27,48.776031537989,9.1882423267061
2025-04-17T09:16:14,2025-04-17,4,9,Wilder Müll,In der Nähe von Sparrhärmlingweg 131,48.810763042466,9.1928398143586
2025-04-17T10:16:18,2025-04-17,4,10,Sonstiges,Liebknechtstraße,48.722104268186,9.109845781259
2025-04-17T10:16:18,2025-04-17,4,10,Gefahrenstelle,In der Nähe von Robert-Koch-Straße 22,48.727868,9.108543
2025-04-17T11:15:11,2025-04-17,4,11,Sonstiges,Hohenheimer Straße,48.770654735557,9.1873900778477
2025-04-17T11:15:11,2025-04-17,4,11,Straße - Schäden,Steigstraße,48.717318412863,9.0990422817147
2025-04-17T11:15:11,2025-04-17,4,11,Wilder Müll,In der Nähe von Altglas-Container (Triebweg / Stefan-Zweig-Straße),48.808226747199,9.1397304536467
2025-04-17T11:15:11,2025-04-17,4,11,Gefahrenstelle,In der Nähe von Skulptur Der Mönch von Münster (Jagststraße / Schussengasse),48.819926719718,9.2244705477269
2025-04-17T12:17:19,2025-04-17,4,12,Gefahrenstelle,Rohrackerstraße,48.757105563907,9.2496955752718
2025-04-17T14:15:44,2025-04-17,4,14,Ampel,In der Nähe von Parkplatz Laustraße Ecke Sonnenbühl (Laustraße),48.743049433548,9.1534863690657
2025-04-17T15:16:05,2025-04-17,4,15,Straßenbeleuchtung,Barbenweg,48.843136812679,9.2221571161302
2025-04-17T16:17:27,2025-04-17,4,16,Sonstiges,In der Nähe von Mühlhäuser Straße 319/1,48.837600077671,9.21983573763
2025-04-17T16:17:27,2025-04-17,4,16,Gefahrenstelle,In der Nähe von Mühlhäuser Straße 303,48.835679972481,9.219147613366
2025-04-17T16:17:27,2025-04-17,4,16,Sonstiges,Landhausstraße,48.785695988414,9.2083566199499
