first_seen_at_timestamp,first_seen_date,first_seen_weekday,first_seen_hour,category,location,lat,lon
2025-02-11T00:31:49,2025-02-11,2,0,Gehweg - Verschmutzung,In der Nähe von Innenhof des Rotebühlbaus (Rotebühlplatz),48.774789352121,9.1696507431908
2025-02-11T00:31:49,2025-02-11,2,0,Gehweg - Verschmutzung,In der Nähe von Jobstweg 10,48.77587323841,9.1683204848251
2025-02-11T00:31:49,2025-02-11,2,0,Sonstiges,In der Nähe von Markelsheimer Straße 73,48.8299689,9.1843101
2025-02-11T00:31:49,2025-02-11,2,0,Wilder Müll,Traifelbergplatz 3,48.741040422914,9.1756234196251
2025-02-11T00:31:49,2025-02-11,2,0,Wilder Müll,In der Nähe von Fasanenhofstraße 161,48.709863209637,9.1533130025391
2025-02-11T00:31:49,2025-02-11,2,0,Wilder Müll,Enzstraße 18A,48.818946598607,9.2219399433247
2025-02-11T00:31:49,2025-02-11,2,0,Straßenbeleuchtung,In der Nähe von Hans-Scharoun-Platz 9,48.831300316482,9.1873407421748
2025-02-11T00:31:49,2025-02-11,2,0,Ampel,In der Nähe von Am Kräherwald 305,48.775436645226,9.1369426808519
2025-02-11T00:31:49,2025-02-11,2,0,Straße - Verschmutzung,In der Nähe von Frobeniusstraße 2,48.845499045473,9.1561879360819
2025-02-11T00:31:49,2025-02-11,2,0,SSB Haltestelle,In der Nähe von Wilhelm-Wunder-Steg,48.7794303,9.2501386
2025-02-11T00:31:49,2025-02-11,2,0,Wilder Müll,In der Nähe von Korntaler Straße 184,48.841755525247,9.1454335468916
2025-02-11T00:31:49,2025-02-11,2,0,Radweg - Scherben,In der Nähe von Herderstraße 21,48.773320537705,9.1428993481923
2025-02-11T00:31:49,2025-02-11,2,0,Gehweg - Verschmutzung,In der Nähe von Schwabstraße 3,48.767573768199,9.1600782364662
2025-02-11T00:31:49,2025-02-11,2,0,Wilder Müll,Augsburger Straße 670,48.763009322589,9.2686392820769
2025-02-11T00:31:49,2025-02-11,2,0,Wilder Müll,Hauptstraße 122,48.730822119277,9.0991761051536
2025-02-11T00:31:49,2025-02-11,2,0,Wilder Müll,In der Nähe von Altglas-Container (Lindenfelsstraße / Schlotterbeckstraße),48.785263653284,9.2499807406239
2025-02-11T00:31:49,2025-02-11,2,0,Gehweg - Schäden,Pischekstraße 64,48.7767,9.1868
2025-02-11T00:31:49,2025-02-11,2,0,Wilder Müll,In der Nähe von Heumadener Straße 6,48.758306376209,9.2546263746424
2025-02-11T00:31:49,2025-02-11,2,0,Sonstiges,Rexinger Weg 7,48.735804081349,9.1012939281413
2025-02-11T00:31:49,2025-02-11,2,0,Wilder Müll,Breitscheidstraße 69,48.777214168258,9.1628051857388
2025-02-11T00:31:49,2025-02-11,2,0,Wilder Müll,Ehrenhalde 2,48.790227872711,9.1652298843871
2025-02-11T00:31:49,2025-02-11,2,0,Kanaldeckel,In der Nähe von Allmersbacher Straße 1,48.803113809429,9.2441708024961
2025-02-11T00:31:49,2025-02-11,2,0,Wilder Müll,Herrengasse 7,48.776747478588,9.2794518371407
2025-02-11T00:31:49,2025-02-11,2,0,Straßenbeleuchtung,In der Nähe von Dennerstraße 36,48.808492021429,9.2279547850795
2025-02-11T00:31:49,2025-02-11,2,0,Gehweg - Verschmutzung,Rosensteinstraße 13,48.793998339144,9.190996548777
2025-02-11T00:31:49,2025-02-11,2,0,Ampel,Plieninger Straße 289,48.724675787747,9.1819604963173
2025-02-11T00:31:49,2025-02-11,2,0,Sonstiges,In der Nähe von Altkleider-Container (Rohrer Höhe gegenüber Gebäude 51),48.7179911,9.0919228
2025-02-11T00:31:49,2025-02-11,2,0,Wilder Müll,Strombergstraße 2,48.782480953503,9.2052804386273
2025-02-11T00:31:49,2025-02-11,2,0,Wilder Müll,In der Nähe von Augsburger Straße 460,48.775302050452,9.259399229643
2025-02-11T00:31:49,2025-02-11,2,0,Sonstiges,Krailenshaldenstraße 32,51.165691,10.451526
2025-02-11T00:31:49,2025-02-11,2,0,Wilder Müll,In der Nähe von Ulmer Straße 293,48.7749052,9.2387334
2025-02-11T00:31:49,2025-02-11,2,0,Gehweg - Verschmutzung,In der Nähe von P+R Platz Wagrainäcker (Max-Eyth-See) (Mühlhäuser Straße),48.831359488691,9.2133638377466
2025-02-11T00:31:49,2025-02-11,2,0,Wilder Müll,Burgenlandstraße 74,48.811041822705,9.1607353988284
2025-02-11T00:31:49,2025-02-11,2,0,Gefahrenstelle,Wrangellstraße 11,48.713179919903,9.2028504941322
2025-02-11T00:31:49,2025-02-11,2,0,Wilder Müll,Ulmer Straße 289,48.7749081,9.2386292
2025-02-11T00:31:49,2025-02-11,2,0,Straßenbeleuchtung,In der Nähe von Schelmenwasenstraße 15A,48.712348283405,9.1671942688639
2025-02-11T00:31:49,2025-02-11,2,0,Sonstiges,In der Nähe von Speidelweg 128/1,48.76106405782,9.2258348110947
2025-02-11T00:31:49,2025-02-11,2,0,Gefahrenstelle,In der Nähe von Losäckerstraße 20,48.815758260512,9.0853969902588
2025-02-11T00:31:49,2025-02-11,2,0,Verkehrszeichen,In der Nähe von Zuckerbergstraße 9,48.829501103332,9.223079530476
2025-02-11T00:31:49,2025-02-11,2,0,Wilder Müll,In der Nähe von Steinkopfstraße 6,48.762603416413,9.1853011793233
2025-02-11T05:15:24,2025-02-11,2,5,Straßenbeleuchtung,Bernhauser Straße 11,48.699356677681,9.2156514073964
2025-02-11T06:16:37,2025-02-11,2,6,Sonstiges,Wiener Straße 20,48.813679664795,9.1656474664705
2025-02-11T07:15:36,2025-02-11,2,7,Verkehrszeichen,Reichenhaller Straße 58,48.802185766437,9.2318071965668
2025-02-11T08:16:20,2025-02-11,2,8,Sonstiges,Steigstraße 80B,48.716934059697,9.097014377015
2025-02-11T08:16:20,2025-02-11,2,8,Wilder Müll,Am Mühlkanal 17,48.796079827178,9.2119126626074
2025-02-11T08:16:20,2025-02-11,2,8,Wilder Müll,Frauenstraße 7,48.761747137341,9.1584553279681
2025-02-11T09:15:45,2025-02-11,2,9,Straße - Verschmutzung,In der Nähe von Furtbachstraße 2B,48.771059150843,9.1721391866365
2025-02-11T09:15:45,2025-02-11,2,9,Sonstiges,In der Nähe von Fasanenhofstraße 101,48.709136153966,9.1537778132095
2025-02-11T09:15:45,2025-02-11,2,9,Straße - Schäden,In der Nähe von Gerätespielfläche (Urbansplatz),48.780944629789,9.1880677180641
2025-02-11T10:15:55,2025-02-11,2,10,Gefahrenstelle,In der Nähe von Allmersbacher Straße 40,48.805090196005,9.2470016823752
2025-02-11T10:15:55,2025-02-11,2,10,Wilder Müll,Ostendstraße 110,48.781882904424,9.207687431185
2025-02-11T11:15:06,2025-02-11,2,11,Gehweg - Verschmutzung,In der Nähe von Echazstraße 20,48.820932322275,9.2229665604341
2025-02-11T11:15:06,2025-02-11,2,11,Wilder Müll,In der Nähe von Sigmaringer Straße 121,48.73272433882,9.15663866555
