first_seen_at_timestamp,first_seen_date,first_seen_weekday,first_seen_hour,category,location,lat,lon
2025-08-26T00:35:56,2025-08-26,2,0,Verkehrszeichen,In der Nähe von Inselbad 7,48.780596439148,9.2437816855494
2025-08-26T00:35:56,2025-08-26,2,0,Gefahrenstelle,In der Nähe von Mühlhäuser Straße 271/1,48.836474949013,9.213766349708
2025-08-26T00:35:56,2025-08-26,2,0,Gehweg - Verschmutzung,In der Nähe von Guts-Muths-Weg 4/1,48.752984312742,9.1880261067681
2025-08-26T00:35:56,2025-08-26,2,0,Wilder Müll,Kleiner Ostring,48.819425197992,9.2475528707995
2025-08-26T00:35:56,2025-08-26,2,0,Wilder Müll,In der Nähe von Wegenerstraße 14,48.844441855517,9.1550712535614
2025-08-26T00:35:56,2025-08-26,2,0,Gehweg - Verschmutzung,In der Nähe von Melonenstraße 44,48.735562056673,9.2145533592817
2025-08-26T00:35:56,2025-08-26,2,0,Begrünung,In der Nähe von Gärtnerstraße 17,48.756745545928,9.2558722759773
2025-08-26T00:35:56,2025-08-26,2,0,Wilder Müll,In der Nähe von Im Salzweg 55,48.839544687,9.1662106101896
2025-08-26T00:35:56,2025-08-26,2,0,Straßenbeleuchtung,In der Nähe von In der Sandgrube 1,48.83956310226,9.1608878045494
2025-08-26T00:35:56,2025-08-26,2,0,Wilder Müll,In der Nähe von Linzer Straße 88C,48.815958224456,9.1522958498813
2025-08-26T00:35:56,2025-08-26,2,0,Ampel,In der Nähe von Neckarstraße 198,48.791683058509,9.1998692910629
2025-08-26T00:35:56,2025-08-26,2,0,Wilder Müll,In der Nähe von Altglas-Container (Korntaler Straße / Mercatorweg),48.841840554885,9.1449095156466
2025-08-26T00:35:56,2025-08-26,2,0,Sonstiges,In der Nähe von Wohnanlage Fasanenhof (Laubeweg 1),48.709907982145,9.1535476522181
2025-08-26T00:35:56,2025-08-26,2,0,Wilder Müll,Freihofstraße,48.846634233532,9.1573463330184
2025-08-26T00:35:56,2025-08-26,2,0,Wilder Müll,Epplestraße,48.744108601706,9.1692545845774
2025-08-26T00:35:56,2025-08-26,2,0,Sonstiges,In der Nähe von Böblinger Straße 363,48.746559991158,9.1356724198599
2025-08-26T00:35:56,2025-08-26,2,0,Sonstiges,Kirchheimer Straße,48.739716922148,9.2276570652338
2025-08-26T00:35:56,2025-08-26,2,0,Gefahrenstelle,Neckarsulmer Straße,48.838921721013,9.1595708034451
2025-08-26T00:35:56,2025-08-26,2,0,Sonstiges,In der Nähe von Wegländerstraße 22/1,48.730958251677,9.1221029816716
2025-08-26T00:35:56,2025-08-26,2,0,Wilder Müll,In der Nähe von Stammheimer Straße 66,48.836306318989,9.1632412579163
2025-08-26T00:35:56,2025-08-26,2,0,Wilder Müll,In der Nähe von Altglas-Container (Tapachstraße / Schozacher Straße),48.82806041099,9.1915925581521
2025-08-26T00:35:56,2025-08-26,2,0,Wilder Müll,Jägerstraße,48.78624012229,9.1789803261113
2025-08-26T00:35:56,2025-08-26,2,0,Wilder Müll,In der Nähe von Altglas-Container (Wolframstraße / Tunzhofer Straße),48.792581526535,9.1809854633147
2025-08-26T00:35:56,2025-08-26,2,0,Wilder Müll,Wilhelmsplatz (M),48.771766388051,9.1784797500326
2025-08-26T00:35:56,2025-08-26,2,0,Gehweg - Verschmutzung,Am Hauptbahnhof,48.785985179429,9.1809397943021
2025-08-26T00:35:56,2025-08-26,2,0,Gehweg - Verschmutzung,Wagenburgstraße,48.780790374768,9.2049060120484
2025-08-26T00:35:56,2025-08-26,2,0,Wilder Müll,In der Nähe von Eberhardsgruppe (Mittlerer Schloßgarten),48.782461820131,9.1854097466875
2025-08-26T00:35:56,2025-08-26,2,0,Gehweg - Schäden,Stresemannstraße,48.801802913851,9.1732208102893
2025-08-26T00:35:56,2025-08-26,2,0,Wilder Müll,Neefstraße,48.769430602519,9.1878074091533
2025-08-26T00:35:56,2025-08-26,2,0,Gehweg - Verschmutzung,In der Nähe von Emma-Joos-Straße 13,48.844817219142,9.1607550623463
2025-08-26T00:35:56,2025-08-26,2,0,Sonstiges,Gänsheidestraße,48.774466137379,9.1945634380688
2025-08-26T00:35:56,2025-08-26,2,0,Sonstiges,Luisenplatz,48.785294291707,9.211581363695
2025-08-26T00:35:56,2025-08-26,2,0,Sonstiges,Feigenweg,48.734008732212,9.211230078614
2025-08-26T00:35:56,2025-08-26,2,0,Sonstiges,Hauptbahnhof,48.786616441923,9.1856252402054
2025-08-26T00:35:56,2025-08-26,2,0,Begrünung,Spessartstraße,48.812840270618,9.1453790690003
2025-08-26T00:35:56,2025-08-26,2,0,Sonstiges,Ditzinger Straße,48.816050228686,9.1088657868009
2025-08-26T00:35:56,2025-08-26,2,0,Brunnen / Gewässer,Ostendstraße,48.788676175836,9.2069530559869
2025-08-26T00:35:56,2025-08-26,2,0,Wilder Müll,Rosenbergstraße,48.776037832884,9.1478700910189
2025-08-26T00:35:56,2025-08-26,2,0,Wilder Müll,In der Nähe von Altglas-Container (Korntaler Straße / Mercatorweg),48.841844814515,9.1449471235624
2025-08-26T00:35:56,2025-08-26,2,0,Gefahrenstelle,Ditzinger Straße,48.816050228686,9.1088657868009
