first_seen_at_timestamp,first_seen_date,first_seen_weekday,first_seen_hour,category,location,lat,lon
2025-06-18T00:37:18,2025-06-18,3,0,Wilder Müll,Mühlstraße,48.807481398219,9.1593212076307
2025-06-18T00:37:18,2025-06-18,3,0,Begrünung,Rotenbergstraße,48.787794920792,9.2117144043705
2025-06-18T00:37:18,2025-06-18,3,0,Wilder Müll,In der Nähe von Heumadener Straße 6,48.758281780516,9.2545850279172
2025-06-18T00:37:18,2025-06-18,3,0,Wilder Müll,Don-Carlos-Straße,48.737044504186,9.1210171285388
2025-06-18T00:37:18,2025-06-18,3,0,Wilder Müll,Weidenröschenweg,48.707072569849,9.2218417400059
2025-06-18T00:37:18,2025-06-18,3,0,Radweg - Schäden,In der Nähe von Am Leuzebad 22,48.799513692762,9.2110390059694
2025-06-18T00:37:18,2025-06-18,3,0,Ampel,In der Nähe von Hauptstätter Straße 135,48.766015124113,9.1705663390761
2025-06-18T00:37:18,2025-06-18,3,0,Wilder Müll,Rotenbergstraße,48.787306400672,9.2082816025295
2025-06-18T00:37:18,2025-06-18,3,0,Straßeneinlauf - verstopft,In der Nähe von Hafenbahnstraße 30,48.755240807984,9.2686170632023
2025-06-18T00:37:18,2025-06-18,3,0,Sonstiges,In der Nähe von Lohäckerstraße 11,48.717830323639,9.1458035880553
2025-06-18T00:37:18,2025-06-18,3,0,Wilder Müll,Urbanstraße,48.785068747356,9.1913644152026
2025-06-18T00:37:18,2025-06-18,3,0,Ampel,"In der Nähe von Heinrizau, Gew. 4",48.844824230862,9.1777272695988
2025-06-18T00:37:18,2025-06-18,3,0,Begrünung,Arnoldstraße,48.840535838502,9.2270233428109
2025-06-18T00:37:18,2025-06-18,3,0,Gefahrenstelle,In der Nähe von Husaren-Brunnen (Bärensträßle),48.772615840526,9.0910052883948
2025-06-18T00:37:18,2025-06-18,3,0,Wilder Müll,In der Nähe von Altglas-Container (Korntaler Straße / Mercatorweg),48.841839036685,9.1449545615911
2025-06-18T00:37:18,2025-06-18,3,0,Sonstiges,In der Nähe von Gerätespielfläche (Markusplatz),48.764546541389,9.1733448204037
2025-06-18T00:37:18,2025-06-18,3,0,Sonstiges,In der Nähe von Rathauspforte Eichstraße (Eichstraße),48.774746199435,9.1779519469918
2025-06-18T00:37:18,2025-06-18,3,0,Wilder Müll,Kemptener Straße,48.766721383582,9.2459328611634
2025-06-18T00:37:18,2025-06-18,3,0,Gehweg - Verschmutzung,In der Nähe von Margaretenstraße 61B,48.788993091066,9.2518155768211
2025-06-18T00:37:18,2025-06-18,3,0,Begrünung,In der Nähe von Fasanenhofstraße 171,48.709732481819,9.1519476094418
2025-06-18T00:37:18,2025-06-18,3,0,Gehweg - Schäden,Friedrich-Zundel-Straße,48.745308730076,9.2106925140822
2025-06-18T00:37:18,2025-06-18,3,0,Gehweg - Schäden,Hohewartstraße,48.808349677158,9.1559053973375
2025-06-18T00:37:18,2025-06-18,3,0,Sonstiges,Mainstraße,48.82296098849,9.2207860273525
2025-06-18T00:37:18,2025-06-18,3,0,Sonstiges,In der Nähe von Moselstraße 40,48.822626792309,9.2206225954359
2025-06-18T00:37:18,2025-06-18,3,0,Straße - Schäden,Parkstraße,48.791053455015,9.2106252914268
2025-06-18T00:37:18,2025-06-18,3,0,Wilder Müll,In der Nähe von Pforzheimer Straße 296,48.814457180104,9.1210963745076
2025-06-18T00:37:18,2025-06-18,3,0,Straßeneinlauf - verstopft,In der Nähe von Olgastraße 24,48.775589240171,9.1863981660716
2025-06-18T00:37:18,2025-06-18,3,0,Sonstiges,In der Nähe von Gerätespielfläche (Schönestraße/ Seilerwasen),48.8036233,9.2105133
2025-06-18T00:37:18,2025-06-18,3,0,Sonstiges,In der Nähe von Parkplatz Vollmoellerstraße beim Park (Vollmoellerstraße),48.727292925913,9.111450307705
2025-06-18T00:37:18,2025-06-18,3,0,Sonstiges,In der Nähe von Rochenweg 8,48.844500710228,9.2238561620554
2025-06-18T00:37:18,2025-06-18,3,0,Ampel,In der Nähe von Möhringer Straße 56,48.761730744182,9.1598561384512
2025-06-18T00:37:18,2025-06-18,3,0,Sonstiges,In der Nähe von Spielfläche (Hirsauer Staße/ Kuckucksruf),48.7419395,9.1358964
2025-06-18T00:37:18,2025-06-18,3,0,Wilder Müll,In der Nähe von Altglas-Container (Auf der Steig / Rostocker Straße),48.815713749105,9.2080649933626
2025-06-18T00:37:18,2025-06-18,3,0,Gefahrenstelle,In der Nähe von Neckarstraße 154,48.789153565,9.195089517982
2025-06-18T00:37:18,2025-06-18,3,0,Begrünung,In der Nähe von Alte Weinsteige 35,48.760998370663,9.1658459326684
2025-06-18T00:37:18,2025-06-18,3,0,Wilder Müll,In der Nähe von Thaddäus-Troll-Platz,48.805644129184,9.2128138176597
2025-06-18T00:37:18,2025-06-18,3,0,Wilder Müll,In der Nähe von Erdmannhäuser Straße 23,48.8469083,9.1601543
2025-06-18T00:37:18,2025-06-18,3,0,Wilder Müll,Kienbachstraße,48.777428505208,9.1851083611585
2025-06-18T00:37:18,2025-06-18,3,0,Sonstiges,In der Nähe von Parkareal (Platz der Deutschen Einheit),48.780073918139,9.1705362306807
2025-06-18T00:37:18,2025-06-18,3,0,Gefahrenstelle,In der Nähe von Haußmannstraße 66,48.784665986516,9.1945794706709
2025-06-18T06:17:00,2025-06-18,3,6,Gehweg - Verschmutzung,Scharrstraße,48.728611988285,9.1153944281374
2025-06-18T07:16:11,2025-06-18,3,7,Wilder Müll,Fellbacher Straße,48.784527714378,9.2568016095954
2025-06-18T07:16:11,2025-06-18,3,7,Radweg - Schäden,Gymnasiumstraße,48.776532509441,9.1737327402384
2025-06-18T07:16:11,2025-06-18,3,7,Wilder Müll,Mühlstraße,48.807364903827,9.159429043072
2025-06-18T07:16:11,2025-06-18,3,7,Gefahrenstelle,In der Nähe von Altglas-Container (Böheimstraße gegenüber Gebäude 21-27),48.762496251049,9.1650207255613
